Time,AxG_S1,AyG_S1,AzG_S1,AVx_S1,AVy_S1,AVz_S1,AVy_L1,AVy_R1,AVy_L2,AVy_R2,My_Dr_L1,My_Dr_R1,My_Dr_L2,My_Dr_R2,My_Bk_L1,My_Bk_R1,My_Bk_L2,My_Bk_R2,StrK_L1,StrK_R1,sv_vx,sv_vy,sv_vz,Roll_E,Pitch,Yaw
            0, -0.00347031955607, -1.63987936053e-18, 1.00069487095,             0,             0,             0,  188.57220459,  188.57220459,  188.57220459,  188.57220459,             0,             0,             0,             0,          -0.5,          -0.5,          -0.5,          -0.5, -9.87841267488e-05, 9.87841267488e-05, 8.33333110809,             0, -0.00649823294953,             0, -0.0446785651147,             0
        0.005, -0.00754877831787, -1.80321800116e-17, 1.00082480907, -4.97387606621e-17, 0.00330685544759, 5.32909124404e-17, 188.503128052, 188.503128052, 188.488845825, 188.488845825, 1.15314185619, 1.15314185619, 1.15314185619, 1.15314185619,          -0.5,          -0.5,          -0.5,          -0.5, -0.000103895828943, 0.000103895828943, 8.33302021027, -1.90267903554e-19, -0.00645959563553, -5.63442798411e-20, -0.0446712225676, 9.18930710616e-20
         0.01, -0.00819314457476, -2.09549889571e-16, 1.00087594986, -1.0727635881e-16, 0.00723809190094, 1.64202776365e-16, 188.490219116, 188.490219116, 188.482681274, 188.482681274, 2.53077244759, 2.53077244759, 2.53077244759, 2.53077244759,          -0.5,          -0.5,          -0.5,          -0.5, -0.000118091607874, 0.000118091607874, 8.33258342743, -1.08845470801e-18, -0.00641375267878, -3.63749107154e-19, -0.0446445643902, 6.61753692427e-19
        0.015, -0.00754595408216, -7.37601452076e-17, 1.00088107586, -3.49518563624e-16, 0.0100843477994, 3.11024780759e-16, 188.489089966, 188.489089966,  188.48487854,  188.48487854,   3.893201828,   3.893201828,   3.893201828,   3.893201828,          -0.5,          -0.5,          -0.5,          -0.5, -0.000138159608468, 0.000138159608468, 8.33215808868, -6.53648418438e-18, -0.00636412482709, -1.45891178465e-18, -0.0446007102728, 1.86013584416e-18
         0.02, -0.00687980884686, -1.25678315026e-16, 1.00085234642, -4.5417763695e-16, 0.0117850052193, 7.76866802547e-16, 188.490112305, 188.490112305,  188.48500061,  188.48500061, 5.14528799057, 5.14528799057, 5.14528799057, 5.14528799057,          -0.5,          -0.5,          -0.5,          -0.5, -0.000161006202688, 0.000161006202688, 8.33176708221, -9.76567197792e-18, -0.00631346134469, -3.50220537216e-18, -0.0445455871522, 4.40991987556e-18
        0.025, -0.00628587044775, -1.53201168339e-16, 1.00079572201, -8.48515201972e-16, 0.0125686209649, 1.18266763502e-15, 188.491333008, 188.491333008, 188.484725952, 188.484725952, 6.26304340363, 6.26304340363, 6.26304340363, 6.26304340363,          -0.5,          -0.5,          -0.5,          -0.5, -0.00018439698033, 0.00018439698033, 8.33140659332, -1.82684575362e-17, -0.00626403139904, -6.86954556289e-18, -0.044484347105, 9.25455459589e-18
         0.03, -0.00575437583029, -1.82638130825e-16, 1.00071895123, -1.2272684725e-15, 0.012615843676, 1.62105980715e-15, 188.492263794, 188.492263794, 188.484420776, 188.484420776, 7.24636745453, 7.24636745453, 7.24636745453, 7.24636745453,          -0.5,          -0.5,          -0.5,          -0.5, -0.000206812022952, 0.000206812022952, 8.33107376099, -2.6210317859e-17, -0.00621761614457, -1.18581841561e-17, -0.044421095401, 1.62669666583e-17
        0.035, -0.00528553500772, -1.76733874431e-16, 1.00062942505, -1.80362664162e-15, 0.012070460245, 2.05067904728e-15,  188.49281311,  188.49281311, 188.483947754, 188.483947754, 8.10297203064, 8.10297203064, 8.10297203064, 8.10297203064,          -0.5,          -0.5,          -0.5,          -0.5, -0.000227250158787, 0.000227250158787, 8.33076477051, -3.60379134047e-17, -0.00617549801245, -1.93077835061e-17, -0.0443591475487, 2.53807797817e-17
         0.04, -0.00487682176754, -1.79181177609e-16, 1.00053417683, -2.44083258718e-15, 0.0110534736887, 2.56497394769e-15, 188.492965698, 188.492965698, 188.483276367, 188.483276367, 8.84338855743, 8.84338855743, 8.84338855743, 8.84338855743,          -0.5,          -0.5,          -0.5,          -0.5, -0.000245086819632, 0.000245086819632, 8.33047866821, -4.55540572519e-17, -0.00613850913942, -2.98385619818e-17, -0.0443011559546, 3.69798041159e-17
        0.045, -0.00452325120568, -1.84457504656e-16, 1.00043857098, -3.05533190877e-15, 0.00966848246753, 3.0845867327e-15, 188.492721558, 188.492721558,  188.48236084,  188.48236084, 9.47896385193, 9.47896385193, 9.47896385193, 9.47896385193,          -0.5,          -0.5,          -0.5,          -0.5, -0.000259965192527, 0.000259965192527, 8.33020973206, -5.69332335229e-17, -0.00610709981993, -4.36832724913e-17, -0.0442492105067, 5.10915947016e-17
         0.05, -0.00421929219738, -2.03163287619e-16,  1.0003465414, -3.72539108598e-15, 0.00800559204072, 3.6476046623e-15, 188.492111206, 188.492111206, 188.481201172, 188.481201172, 10.0209283829, 10.0209283829, 10.0209283829, 10.0209283829,          -0.5,          -0.5,          -0.5,          -0.5, -0.000271712808171, 0.000271712808171, 8.32995796204, -6.96512347026e-17, -0.00608142046258, -6.05799618238e-17, -0.0442049242556, 6.79137451346e-17
        0.055, -0.00395950209349, -4.39012610525e-17, 1.00026094913, -4.41275578158e-15, 0.00614424981177, 4.11805311395e-15, 188.491134644, 188.491134644, 188.479797363, 188.479797363, 10.4799480438, 10.4799480438, 10.4799480438, 10.4799480438,          -0.5,          -0.5,          -0.5,          -0.5, -0.000280280190054, 0.000280280190054, 8.32971954346, -8.32234950794e-17, -0.00606139097363, -8.09773754615e-17, -0.0441694781184, 8.74303768561e-17
         0.06, -0.00373873161152, -2.1543188488e-16, 1.00018358231, -5.14432035043e-15, 0.00415503419936, 4.66107958369e-15, 188.489837646, 188.489837646, 188.478134155, 188.478134155, 10.8659191132, 10.8659191132, 10.8659191132, 10.8659191132,          -0.5,          -0.5,          -0.5,          -0.5, -0.000285696907667, 0.000285696907667, 8.32949352264, -9.64269718693e-17, -0.00604676594958, -1.04833840045e-16, -0.0441436879337, 1.09610490445e-16
        0.065, -0.0035522270482, -2.09170061469e-16, 1.00011527538, -5.87125249609e-15, 0.00210069771856, 5.25026977257e-15, 188.488235474, 188.488235474, 188.476242065, 188.476242065, 11.1878900528, 11.1878900528, 11.1878900528, 11.1878900528,          -0.5,          -0.5,          -0.5,          -0.5, -0.00028804174508, 0.00028804174508, 8.32927703857, -1.09788645297e-16, -0.0060371896252, -1.32327986883e-16, -0.0441280305386, 1.34220721708e-16
         0.07, -0.00339474016801, -2.19155388777e-16, 1.00004124641, -6.70158661231e-15, 5.43143578398e-05, 5.74891298642e-15, 188.486343384, 188.486343384, 188.474090576, 188.474090576, 11.4540538788, 11.4540538788, 11.4540538788, 11.4540538788,          -0.5,          -0.5,          -0.5,          -0.5, -0.000287455011858, 0.000287455011858, 8.32906913757, -1.24834246694e-16, -0.00603251345456, -1.6376439711e-16, -0.0441226735711, 1.61669684632e-16
        0.075, -0.00326339388266, -1.82597062962e-16, 0.99997985363, -7.21757367278e-15, -0.00190610031132, 6.25225003335e-15, 188.484222412, 188.484222412, 188.471710205, 188.471710205, 11.6717672348, 11.6717672348, 11.6717672348, 11.6717672348,          -0.5,          -0.5,          -0.5,          -0.5, -0.00028436363209, 0.00028436363209, 8.32886886597, -1.40428573239e-16, -0.00603273324668, -1.9876693516e-16, -0.0441273450851, 1.91536158996e-16
         0.08, -0.00315500516444, -2.36897142367e-16, 0.999932587147, -7.79913040074e-15, -0.00376208079979, 6.79828177598e-15, 188.481842041, 188.481842041, 188.469100952, 188.469100952, 11.8476037979, 11.8476037979, 11.8476037979, 11.8476037979,          -0.5,          -0.5,          -0.5,          -0.5, -0.000279154599411, 0.000279154599411, 8.32867336273, -1.5430891538e-16, -0.00603698147461, -2.36211680954e-16, -0.0441415682435, 2.2428508648e-16
        0.085, -0.00306627526879, -2.02760682271e-16, 0.99989515543, -8.48943599473e-15, -0.00548926228657, 7.22120913819e-15, 188.479232788, 188.479232788, 188.466278076, 188.466278076, 11.9874219894, 11.9874219894, 11.9874219894, 11.9874219894,          -0.5,          -0.5,          -0.5,          -0.5, -0.000272042205324, 0.000272042205324, 8.32848358154, -1.69542498534e-16, -0.00604459643364, -2.77018075523e-16, -0.0441647581756, 2.59374511581e-16
         0.09, -0.00299434200861, -1.57917566903e-16, 0.999864816666, -9.00545947763e-15, -0.00706175575033, 7.5654162229e-15, 188.476409912, 188.476409912, 188.463256836, 188.463256836, 12.0964174271, 12.0964174271, 12.0964174271, 12.0964174271,          -0.5,          -0.5,          -0.5,          -0.5, -0.000263151508989, 0.000263151508989, 8.32829666138, -1.85345817224e-16, -0.00605506496504, -3.21058944811e-16, -0.0441962070763, 2.9634974966e-16
        0.095, -0.0029367627576, -3.11632473959e-16, 0.999839961529, -9.23875776229e-15, -0.00845633540303, 8.03578208884e-15, 188.473358154, 188.473358154,  188.46005249,  188.46005249, 12.1791810989, 12.1791810989, 12.1791810989, 12.1791810989,          -0.5,          -0.5,          -0.5,          -0.5, -0.000252569123404, 0.000252569123404, 8.32811355591, -1.99100705845e-16, -0.00606796005741, -3.66625585134e-16, -0.0442350842059, 3.35284757281e-16
          0.1, -0.00289143947884, -1.53747994281e-16, 0.99981957674, -9.33045500806e-15, -0.0096546811983, 8.89445326879e-15, 188.470123291, 188.470123291, 188.456665039, 188.456665039, 12.2397556305, 12.2397556305, 12.2397556305, 12.2397556305,          -0.5,          -0.5,          -0.5,          -0.5, -0.000240372944972, 0.000240372944972, 8.32793331146, -2.14202879778e-16, -0.00608290405944, -4.1332087039e-16, -0.0442804507911, 3.76996312433e-16
        0.105, -0.00285656540655, -2.48836707033e-16, 0.999803006649, -9.29209373291e-15, -0.0106444247067, 9.18628915341e-15, 188.466690063, 188.466690063,    188.453125,    188.453125, 12.2816905975, 12.2816905975, 12.2816905975, 12.2816905975,          -0.5,          -0.5,          -0.5,          -0.5, -0.000226648946409, 0.000226648946409, 8.32775402069, -2.25265977103e-16, -0.00609954725951, -4.60059433735e-16, -0.0443312935531, 4.2226106492e-16
         0.11, -0.00283057894558, -8.50611727631e-17, 0.999789893627, -9.27035039716e-15, -0.0114194313064, 9.49315987284e-15, 188.463104248, 188.463104248, 188.449447632, 188.449447632, 12.3080968857, 12.3080968857, 12.3080968857, 12.3080968857,          -0.5,          -0.5,          -0.5,          -0.5, -0.000211499529541, 0.000211499529541, 8.32757663727, -2.35149104592e-16, -0.00611755857244, -5.06500556167e-16, -0.0443865470588, 4.68742791994e-16
        0.115, -0.00281212688424, 1.31492097713e-16, 0.999779939651, -9.43540154319e-15, -0.0119796069339, 9.80638842157e-15, 188.459365845, 188.459365845, 188.445617676, 188.445617676, 12.3216876984, 12.3216876984, 12.3216876984, 12.3216876984,          -0.5,          -0.5,          -0.5,          -0.5, -0.00019504656666, 0.00019504656666, 8.32740020752, -2.43727457235e-16, -0.00613661948591, -5.53454715868e-16, -0.0444451384246, 5.16974383258e-16
         0.12, -0.00280003552325, 1.10519542086e-16, 0.999772965908, -9.83534847803e-15, -0.0123303942382, 1.00179188065e-14, 188.455490112, 188.455490112, 188.441680908, 188.441680908, 12.3248300552, 12.3248300552, 12.3248300552, 12.3248300552,          -0.5,          -0.5,          -0.5,          -0.5, -0.000177431080374, 0.000177431080374, 8.32722473145, -2.50689432786e-16, -0.00615642406046, -6.01505518537e-16, -0.0445060022175, 5.66918357504e-16
        0.125, -0.00279328250326, -2.07589683278e-16, 0.999768853188, -1.03252926635e-14, -0.0124820973724, 1.00278689025e-14, 188.451507568, 188.451507568,  188.43762207,  188.43762207, 12.3195772171, 12.3195772171, 12.3195772171, 12.3195772171,          -0.5,          -0.5,          -0.5,          -0.5, -0.000158810740686, 0.000158810740686, 8.32704925537, -2.6005793482e-16, -0.00617668079212, -6.52041674692e-16, -0.044568117708, 6.1715291699e-16
         0.13, -0.00279097654857, -4.92059471597e-17, 0.999767422676, -1.05419653855e-14, -0.0124490978196, 1.00296891764e-14, 188.447418213, 188.447418213, 188.433486938, 188.433486938, 12.3077087402, 12.3077087402, 12.3077087402, 12.3077087402,          -0.5,          -0.5,          -0.5,          -0.5, -0.000139356168802, 0.000139356168802, 8.32687473297, -2.69503569792e-16, -0.00619711447507, -7.04216469023e-16, -0.044630523771, 6.67165818542e-16
        0.135, -0.002792338375, -5.95009129865e-18, 0.999768555164, -1.0606997187e-14, -0.0122490227222, 9.92061674373e-15, 188.443237305, 188.443237305, 188.429260254, 188.429260254, 12.2907581329, 12.2907581329, 12.2907581329, 12.2907581329,          -0.5,          -0.5,          -0.5,          -0.5, -0.000119246644317, 0.000119246644317,  8.3266992569, -2.79719343001e-16, -0.00621746946126, -7.5728170674e-16, -0.044692337513, 7.1725733534e-16
         0.14, -0.00279668509029, 1.75053016956e-16, 0.999771952629, -1.02789481028e-14, -0.0119019187987, 1.01190460701e-14, 188.438995361, 188.438995361, 188.424972534, 188.424972534, 12.2700462341, 12.2700462341, 12.2700462341, 12.2700462341,          -0.5,          -0.5,          -0.5,          -0.5, -9.86654631561e-05, 9.86654631561e-05, 8.32652378082, -2.87755673968e-16, -0.00623751292005, -8.09620401947e-16, -0.0447527728975, 7.67189662882e-16
        0.145, -0.0028034162242, -5.81399072297e-18, 0.999777495861, -1.02862952666e-14, -0.0114294458181, 1.01143585898e-14, 188.434692383, 188.434692383, 188.420623779, 188.420623779, 12.2467031479, 12.2467031479, 12.2467031479, 12.2467031479,          -0.5,          -0.5,          -0.5,          -0.5, -7.77954701334e-05, 7.77954701334e-05, 8.32634830475, -2.91131894356e-16, -0.00625703623518, -8.60666471936e-16, -0.0448111519217, 8.18677989949e-16
         0.15, -0.00281200418249, 7.78218385889e-18, 0.999784946442, -1.04528092386e-14, -0.0108541250229, 9.92668912293e-15, 188.430343628, 188.430343628, 188.416229248, 188.416229248, 12.2216911316, 12.2216911316, 12.2216911316, 12.2216911316,          -0.5,          -0.5,          -0.5,          -0.5, -5.68148316233e-05, 5.68148316233e-05, 8.32617282867, -2.9860523958e-16, -0.00627585733309, -9.12682765227e-16, -0.0448669008911, 8.68297868214e-16
        0.155, -0.00282198307104, -1.32975477396e-16, 0.999794065952, -1.03664347478e-14, -0.0101986546069, 9.87458389118e-15, 188.425949097, 188.425949097, 188.411819458, 188.411819458, 12.1958284378, 12.1958284378, 12.1958284378, 12.1958284378,          -0.5,          -0.5,          -0.5,          -0.5, -3.58931829396e-05, 3.58931829396e-05, 8.32599544525, -3.04736434629e-16, -0.00629382254556, -9.64849195108e-16, -0.04491956532, 9.17709588131e-16
         0.16, -0.00283294217661, 6.75877232699e-19, 0.99980455637, -1.02461052473e-14, -0.00948529969901, 9.88706153353e-15, 188.421554565, 188.421554565, 188.407363892, 188.407363892, 12.1698026657, 12.1698026657, 12.1698026657, 12.1698026657,          -0.5,          -0.5,          -0.5,          -0.5, -1.51883687067e-05, 1.51883687067e-05,  8.3258190155, -3.08950502951e-16, -0.00631080660969, -1.016437525e-15, -0.0449687950313, 9.6681854671e-16
        0.165, -0.00284451968037, -1.44702238269e-16, 0.99981623888, -1.02847646781e-14, -0.00873537361622, 9.67406662861e-15, 188.417129517, 188.417129517, 188.402908325, 188.402908325, 12.1441879272, 12.1441879272, 12.1441879272, 12.1441879272,          -0.5,          -0.5,          -0.5,          -0.5, 5.15626061315e-06, -5.15626061315e-06, 8.32564067841, -3.18144648546e-16, -0.00632671359926, -1.06791859935e-15, -0.0450143590569, 1.01601400853e-15
         0.17, -0.00285639590584, -1.55492567823e-17, 0.999828755856, -1.01361442772e-14, -0.00796879827976, 9.71879335636e-15, 188.412704468, 188.412704468, 188.398452759, 188.398452759, 12.1194620132, 12.1194620132, 12.1194620132, 12.1194620132,          -0.5,          -0.5,          -0.5,          -0.5, 2.50139619311e-05, -2.50139619311e-05, 8.32546234131, -3.21572908521e-16, -0.00634147459641, -1.11860632146e-15, -0.0450561195612, 1.06469023915e-15
        0.175, -0.0028682902921, 1.85718524956e-17, 0.999841868877, -1.01299456901e-14, -0.00720376707613, 9.66341180117e-15, 188.408279419, 188.408279419, 188.393981934, 188.393981934, 12.0960140228, 12.0960140228, 12.0960140228, 12.0960140228,          -0.5,          -0.5,          -0.5,          -0.5, 4.42760792794e-05, -4.42760792794e-05, 8.32528400421, -3.26295223081e-16, -0.00635504862294, -1.16916381226e-15, -0.0450940467417, 1.11320945104e-15
         0.18, -0.00287995743565, 2.71137182019e-17, 0.999855279922, -1.01849316809e-14, -0.00645648362115, 9.40171250178e-15, 188.403869629, 188.403869629, 188.389541626, 188.389541626, 12.0741605759, 12.0741605759, 12.0741605759, 12.0741605759,          -0.5,          -0.5,          -0.5,          -0.5, 6.28529523965e-05, -6.28529523965e-05, 8.32510471344, -3.30936884223e-16, -0.00636741938069, -1.21995286069e-15, -0.0451281890273, 1.16086161883e-15
        0.185, -0.00289118266664, 4.46071935309e-17, 0.999868869781, -1.01188775105e-14, -0.00574098946527, 9.03247135832e-15, 188.399475098, 188.399475098, 188.385101318, 188.385101318, 12.0541524887, 12.0541524887, 12.0541524887, 12.0541524887,          -0.5,          -0.5,          -0.5,          -0.5, 8.06742391433e-05, -8.06742391433e-05, 8.32492446899, -3.33649401357e-16, -0.00637859525159, -1.27069648698e-15, -0.0451586656272, 1.20708410088e-15
         0.19, -0.00290178181604, 4.55540241647e-17, 0.999882280827, -1.01089079327e-14, -0.00506906537339, 8.61474181379e-15, 188.395095825, 188.395095825,  188.38067627,  188.38067627, 12.0361824036, 12.0361824036, 12.0361824036, 12.0361824036,          -0.5,          -0.5,          -0.5,          -0.5, 9.76887677098e-05, -9.76887677098e-05, 8.32474327087, -3.37750258432e-16, -0.00638860370964, -1.32148172376e-15, -0.0451856702566, 1.25093372601e-15
        0.195, -0.00291159679182, 6.91470383407e-17, 0.999895334244, -1.00668154775e-14, -0.00445020571351, 8.41700959555e-15,  188.39074707,  188.39074707, 188.376296997, 188.376296997, 12.0203962326, 12.0203962326, 12.0203962326, 12.0203962326,          -0.5,          -0.5,          -0.5,          -0.5, 0.00011386389815, -0.00011386389815, 8.32456207275, -3.39759182355e-16, -0.00639749318361, -1.37197145192e-15, -0.045209441334, 1.29340131101e-15
          0.2, -0.00292049418204, -7.32143317348e-17, 0.999907851219, -1.00611386626e-14, -0.00389165431261, 8.39271838468e-15, 188.386413574, 188.386413574, 188.371917725, 188.371917725, 12.0068979263, 12.0068979263, 12.0068979263, 12.0068979263,          -0.5,          -0.5,          -0.5,          -0.5, 0.00012918455468, -0.00012918455468, 8.32438087463, -3.39808363205e-16, -0.00640532560647, -1.42225228058e-15, -0.0452302694321, 1.33576555798e-15
        0.205, -0.00292836409062, 7.98404984276e-17, 0.999919712543, -9.84762283247e-15, -0.00339848990552, 8.18398066736e-15, 188.382125854, 188.382125854, 188.367584229, 188.367584229, 11.9957542419, 11.9957542419, 11.9957542419, 11.9957542419,          -0.5,          -0.5,          -0.5,          -0.5, 0.00014365183597, -0.00014365183597, 8.32419872284, -3.41020467353e-16, -0.00641217734665, -1.4721515209e-15, -0.0452484637499, 1.37700071004e-15
         0.21, -0.00293511757627, -6.03275790927e-17, 0.999930739403, -9.5974465693e-15, -0.00297375931405, 7.96582987289e-15, 188.377853394, 188.377853394,  188.36328125,  188.36328125, 11.9870014191, 11.9870014191, 11.9870014191, 11.9870014191,          -0.5,          -0.5,          -0.5,          -0.5, 0.000157281494467, -0.000157281494467, 8.32401561737, -3.39939335675e-16, -0.00641813501716, -1.52079514075e-15, -0.0452643670142, 1.41739952295e-15
        0.215, -0.00294068548828, 1.37209570107e-16, 0.999940812588, -9.46566687743e-15, -0.00261864555068, 7.72509633302e-15,  188.37361145,  188.37361145, 188.359008789, 188.359008789, 11.9806509018, 11.9806509018, 11.9806509018, 11.9806509018,          -0.5,          -0.5,          -0.5,          -0.5, 0.000170102153788, -0.000170102153788, 8.32383346558, -3.38209191471e-16, -0.00642329175025, -1.56825174981e-15, -0.045278314501, 1.45684245917e-15
         0.22, -0.00294501706958, -6.99001432751e-17, 0.999949872494, -9.21248788247e-15, -0.00233266013674, 7.70187068961e-15, 188.369400024, 188.369400024, 188.354766846, 188.354766846, 11.9766921997, 11.9766921997, 11.9766921997, 11.9766921997,          -0.5,          -0.5,          -0.5,          -0.5, 0.0001821534388, -0.0001821534388, 8.32365036011, -3.34371549885e-16, -0.00642774673179, -1.6149070657e-15, -0.0452906638384, 1.49520616954e-15
        0.225, -0.00294807786122, -4.52797575433e-17, 0.999957799911, -9.17252232692e-15, -0.00211385614239, 7.38074609974e-15, 188.365219116, 188.365219116,  188.35055542,  188.35055542, 11.9750957489, 11.9750957489, 11.9750957489, 11.9750957489,          -0.5,          -0.5,          -0.5,          -0.5, 0.000193483996554, -0.000193483996554, 8.32346725464, -3.36046689887e-16, -0.00643160101026, -1.66099476363e-15, -0.0453017503023, 1.53301359102e-15
         0.23, -0.00294984900393, 1.44460450068e-16, 0.99996471405, -8.60052351873e-15, -0.00195904937573, 7.02378735753e-15, 188.361083984, 188.361083984, 188.346374512, 188.346374512, 11.9758176804, 11.9758176804, 11.9758176804, 11.9758176804,          -0.5,          -0.5,          -0.5,          -0.5, 0.000204149575438, -0.000204149575438,  8.3232831955, -3.34493072643e-16, -0.00643495563418, -1.7055743194e-15, -0.0453119054437, 1.56919555627e-15
        0.235, -0.00295032490976, 3.03503260537e-16, 0.999970495701, -7.97440354039e-15, -0.00186404539272, 6.72990080615e-15, 188.356964111, 188.356964111, 188.342224121, 188.342224121, 11.9788007736, 11.9788007736, 11.9788007736, 11.9788007736,          -0.5,          -0.5,          -0.5,          -0.5, 0.000214211133425, -0.000214211133425, 8.32310009003, -3.3295247853e-16, -0.00643790932372, -1.7471581314e-15, -0.0453214384615, 1.60374232442e-15
         0.24, -0.00294951256365, 1.13339241976e-16, 0.999975144863, -7.32406858414e-15, -0.00182386138476, 6.71698440074e-15, 188.352874756, 188.352874756, 188.338104248, 188.338104248, 11.9839792252, 11.9839792252, 11.9839792252, 11.9839792252,          -0.5,          -0.5,          -0.5,          -0.5, 0.00022373298998, -0.00022373298998, 8.32291698456, -3.29794819112e-16, -0.00644055847079, -1.78541733908e-15, -0.0453306362033, 1.63712601045e-15
        0.245, -0.00294742989354, 1.15964991173e-16, 0.999978780746, -6.74394969461e-15, -0.00183294166345, 7.31575664983e-15, 188.348815918, 188.348815918, 188.334014893, 188.334014893, 11.9912786484, 11.9912786484, 11.9912786484, 11.9912786484,          -0.5,          -0.5,          -0.5,          -0.5, 0.000232781167142, -0.000232781167142, 8.32273292542, -3.2601559633e-16, -0.00644299341366, -1.82057831199e-15, -0.0453397594392, 1.67226411348e-15
         0.25, -0.00294410437346, -6.31120940277e-17, 0.999981403351, -6.20876632645e-15, -0.00188536033966, 7.69460399395e-15, 188.344787598, 188.344787598, 188.329940796, 188.329940796, 12.0006198883, 12.0006198883, 12.0006198883, 12.0006198883,          -0.5,          -0.5,          -0.5,          -0.5, 0.000241421817918, -0.000241421817918, 8.32254981995, -3.26188682218e-16, -0.00644529750571, -1.85326361936e-15, -0.0453490354121, 1.70974045096e-15
        0.255, -0.00293957092799, 7.93967722772e-17, 0.999983072281, -5.82310841392e-15, -0.00197500688955, 7.88091990213e-15, 188.340774536, 188.340774536, 188.325912476, 188.325912476, 12.0119199753, 12.0119199753, 12.0119199753, 12.0119199753,          -0.5,          -0.5,          -0.5,          -0.5, 0.000249719829299, -0.000249719829299, 8.32236671448, -3.25062710734e-16, -0.00644754804671, -1.88328225526e-15, -0.0453586727381, 1.74918148135e-15
         0.26, -0.00293387193233, 6.01519057829e-17, 0.999983966351, -5.56379308876e-15, -0.00209575425833, 7.61789753728e-15, 188.336807251, 188.336807251, 188.321899414, 188.321899414, 12.0250911713, 12.0250911713, 12.0250911713, 12.0250911713,          -0.5,          -0.5,          -0.5,          -0.5, 0.000257737701759, -0.000257737701759, 8.32218360901, -3.27152579243e-16, -0.00644981395453, -1.91194076799e-15, -0.04536883533, 1.78795864968e-15
        0.265, -0.00292705488391, 5.08141450892e-17, 0.999984025955, -5.23723690013e-15, -0.00224160589278, 7.30234388311e-15, 188.332855225, 188.332855225,  188.31791687,  188.31791687, 12.0400457382, 12.0400457382, 12.0400457382, 12.0400457382,          -0.5,          -0.5,          -0.5,          -0.5, 0.000265534443315, -0.000265534443315, 8.32200145721, -3.28237151992e-16, -0.0064521539025, -1.93880272385e-15, -0.0453796721995, 1.82533101386e-15
         0.27, -0.00291917193681, 6.22094613084e-17, 0.999983429909, -4.63616072141e-15, -0.00240682042204, 7.02348750787e-15, 188.328918457, 188.328918457, 188.313949585, 188.313949585, 12.0566949844, 12.0566949844, 12.0566949844, 12.0566949844,          -0.5,          -0.5,          -0.5,          -0.5, 0.000273164827377, -0.000273164827377, 8.32181930542, -3.29415930687e-16, -0.00645462051034, -1.96377664327e-15, -0.0453912839293, 1.86085282281e-15
        0.275, -0.00291027780622, -1.68696951203e-18, 0.999982297421, -4.40143518624e-15, -0.00258601433598, 6.94722997866e-15, 188.325012207, 188.325012207, 188.310012817, 188.310012817, 12.0749502182, 12.0749502182, 12.0749502182, 12.0749502182,          -0.5,          -0.5,          -0.5,          -0.5, 0.00028067882522, -0.00028067882522, 8.32163715363, -3.28156154467e-16, -0.00645725568756, -1.9864191045e-15, -0.0454037599266, 1.89558159717e-15
         0.28, -0.00290043023415, 1.71667188038e-16, 0.99998062849, -4.49920396417e-15, -0.00277424417436, 6.49928761593e-15, 188.321121216, 188.321121216, 188.306091309, 188.306091309, 12.0947237015, 12.0947237015, 12.0947237015, 12.0947237015,          -0.5,          -0.5,          -0.5,          -0.5, 0.000288121023914, -0.000288121023914, 8.32145595551, -3.32312306911e-16, -0.00646009342745, -2.00894298111e-15, -0.0454171597958, 1.92915332451e-15
        0.285, -0.00288968719542, -2.00803255304e-17, 0.999978661537, -4.64426979133e-15, -0.0029670658987, 6.30010654783e-15, 188.317260742, 188.317260742, 188.302200317, 188.302200317, 12.1159305573, 12.1159305573, 12.1159305573, 12.1159305573,          -0.5,          -0.5,          -0.5,          -0.5, 0.000295530509902, -0.000295530509902, 8.32127571106, -3.32724838426e-16, -0.00646315934137, -2.03181202366e-15, -0.045431509614, 1.961012563e-15
         0.29, -0.00287810759619, 1.74107741422e-16, 0.999976336956, -4.79245058216e-15, -0.00316057377495, 6.16138033877e-15, 188.313415527, 188.313415527, 188.298324585, 188.298324585, 12.1384859085, 12.1384859085, 12.1384859085, 12.1384859085,          -0.5,          -0.5,          -0.5,          -0.5, 0.000302940665279, -0.000302940665279, 8.32109546661, -3.36692526039e-16, -0.00646647112444, -2.0554882886e-15, -0.045446831733, 1.99159934624e-15
        0.295, -0.00286574941128, 2.14153818042e-16, 0.999973893166, -5.02096186012e-15, -0.00335142319091, 6.65644865006e-15,  188.30960083,  188.30960083, 188.294464111, 188.294464111, 12.1623086929, 12.1623086929, 12.1623086929, 12.1623086929,          -0.5,          -0.5,          -0.5,          -0.5, 0.000310379284201, -0.000310379284201, 8.32091522217, -3.35928264093e-16, -0.00647003995255, -2.07993683583e-15, -0.0454631112516, 2.02418512724e-15
          0.3, -0.00285266991705, 4.79470047372e-17, 0.999971270561, -5.3784313632e-15, -0.00353683461435, 6.48694253424e-15, 188.305801392, 188.305801392, 188.290634155, 188.290634155, 12.1873207092, 12.1873207092, 12.1873207092, 12.1873207092,          -0.5,          -0.5,          -0.5,          -0.5, 0.000317868660204, -0.000317868660204,  8.3207359314, -3.34974107947e-16, -0.00647386955097, -2.10572433039e-15, -0.0454803369939, 2.05756436635e-15
        0.305, -0.00283892452717, 3.21394938958e-17, 0.999968707561, -5.6359327673e-15, -0.00371458427981, 6.0812188347e-15, 188.302017212, 188.302017212, 188.286804199, 188.286804199, 12.2134466171, 12.2134466171, 12.2134466171, 12.2134466171,          -0.5,          -0.5,          -0.5,          -0.5, 0.00032542590634, -0.00032542590634,  8.3205575943, -3.36118767097e-16, -0.00647795852274, -2.13342379007e-15, -0.0454984679818, 2.08893020815e-15
         0.31, -0.0028245660942, 3.11311243332e-17, 0.999966144562, -5.50794778303e-15, -0.00388298067264, 5.7884164855e-15, 188.298248291, 188.298248291, 188.283004761, 188.283004761, 12.2406139374, 12.2406139374, 12.2406139374, 12.2406139374,          -0.5,          -0.5,          -0.5,          -0.5, 0.000333063246217, -0.000333063246217, 8.32038021088, -3.3775409655e-16, -0.00648230081424, -2.16167487996e-15, -0.0455174669623, 2.11844528295e-15
        0.315, -0.0028096458409, 6.23310742292e-18, 0.999963641167, -5.51140155988e-15, -0.00404083356261, 5.31572339653e-15, 188.294509888, 188.294509888, 188.279220581, 188.279220581, 12.2687530518, 12.2687530518, 12.2687530518, 12.2687530518,          -0.5,          -0.5,          -0.5,          -0.5, 0.000340788537869, -0.000340788537869, 8.32020282745, -3.38829193118e-16, -0.00648688524961, -2.18916385196e-15, -0.0455372817814, 2.14612928428e-15
         0.32, -0.00279421149753, 1.73251573092e-17, 0.999961316586, -5.4403507422e-15, -0.00418741209432, 4.85638251144e-15, 188.290802002, 188.290802002, 188.275466919, 188.275466919, 12.2977991104, 12.2977991104, 12.2977991104, 12.2977991104,          -0.5,          -0.5,          -0.5,          -0.5, 0.000348605652107, -0.000348605652107, 8.32002639771, -3.40197230738e-16, -0.00649169785902, -2.21662211901e-15, -0.0455578565598, 2.17198475324e-15
        0.325, -0.00277830753475, -1.8049855207e-17, 0.999959230423, -5.393016e-15, -0.00432239705697, 4.32320491729e-15, 188.287094116, 188.287094116, 188.271713257, 188.271713257, 12.3276891708, 12.3276891708, 12.3276891708, 12.3276891708,          -0.5,          -0.5,          -0.5,          -0.5, 0.000356514938176, -0.000356514938176, 8.31985092163, -3.41307373294e-16, -0.00649672141299, -2.24368715102e-15, -0.0455791354179, 2.19464034348e-15
         0.33, -0.00276197609492, 2.68443166433e-19, 0.999957323074, -5.33926201862e-15, -0.00444583175704, 4.15427393684e-15, 188.283416748, 188.283416748, 188.267990112, 188.267990112, 12.3583641052, 12.3583641052, 12.3583641052, 12.3583641052,          -0.5,          -0.5,          -0.5,          -0.5, 0.00036451392225, -0.00036451392225, 8.31967639923, -3.41926157332e-16, -0.00650193728507, -2.27077589994e-15, -0.0456010624766, 2.2157104998e-15
        0.335, -0.00274525536224, -1.55123711445e-17, 0.999955654144, -5.5992592053e-15, -0.00455806776881, 3.92679434501e-15, 188.279754639, 188.279754639, 188.264282227, 188.264282227, 12.3897686005, 12.3897686005, 12.3897686005, 12.3897686005,          -0.5,          -0.5,          -0.5,          -0.5, 0.000372597569367, -0.000372597569367, 8.31950187683, -3.43824887562e-16, -0.00650732591748, -2.29803426722e-15, -0.0456235781312, 2.23600053878e-15
         0.34, -0.00272818072699, -3.70511434806e-17, 0.999954283237, -5.88648087793e-15, -0.00465971045196, 3.63524052237e-15, 188.276123047, 188.276123047, 188.260604858, 188.260604858, 12.4218492508, 12.4218492508, 12.4218492508, 12.4218492508,          -0.5,          -0.5,          -0.5,          -0.5, 0.000380759011023, -0.000380759011023, 8.31932830811, -3.44370032673e-16, -0.00651286542416, -2.32668092149e-15, -0.0456466265023, 2.25492516064e-15
        0.345, -0.00271078431979, -7.7932603036e-17, 0.999953210354, -6.2344428597e-15, -0.00475156633183, 3.68767313235e-15, 188.272506714, 188.272506714, 188.256942749, 188.256942749, 12.4545583725, 12.4545583725, 12.4545583725, 12.4545583725,          -0.5,          -0.5,          -0.5,          -0.5, 0.000388989894418, -0.000388989894418, 8.31915664673, -3.44814142635e-16, -0.00651853624731, -2.35702947672e-15, -0.0456701591611, 2.27282656671e-15
         0.35, -0.00269309501164, -3.90717571199e-17, 0.999952375889, -6.93713800461e-15, -0.00483459234238, 3.66019284244e-15, 188.268920898, 188.268920898, 188.253295898, 188.253295898, 12.4878482819, 12.4878482819, 12.4878482819, 12.4878482819,          -0.5,          -0.5,          -0.5,          -0.5, 0.000397280877223, -0.000397280877223, 8.31898498535, -3.47501884056e-16, -0.00652431650087, -2.39004893859e-15, -0.0456941276789, 2.29182720978e-15
        0.355, -0.00267513957806, -3.81938835707e-17, 0.999951839447, -7.46502248986e-15, -0.0049098469317, 3.48098650531e-15, 188.265350342, 188.265350342, 188.249664307, 188.249664307, 12.5216760635, 12.5216760635, 12.5216760635, 12.5216760635,          -0.5,          -0.5,          -0.5,          -0.5, 0.000405622064136, -0.000405622064136, 8.31881427765, -3.50002642954e-16, -0.00653018802404, -2.42597647632e-15, -0.0457184910774, 2.30905056597e-15
         0.36, -0.00265694106929, -4.41868712979e-16, 0.999951601028, -5.84188247568e-15, -0.00497844722122, 3.30421962306e-15, 188.261810303, 188.261810303, 188.246063232, 188.246063232, 12.5559997559, 12.5559997559, 12.5559997559, 12.5559997559,          -0.5,          -0.5,          -0.5,          -0.5, 0.000414003385231, -0.000414003385231, 8.31864452362, -3.79063866918e-16, -0.00653613079339, -2.46179093515e-15, -0.0457432158291, 2.32654963139e-15
        0.365, -0.00263852067292, -2.61386955984e-16, 0.999951541424, -1.30790679986e-17, -0.00504152849317, 2.4621005257e-15, 188.258285522, 188.258285522, 188.242492676, 188.242492676, 12.5907831192, 12.5907831192, 12.5907831192, 12.5907831192,          -0.5,          -0.5,          -0.5,          -0.5, 0.000422414799687, -0.000422414799687, 8.31847476959, -3.95917016772e-16, -0.00654212851077, -2.47748179698e-15, -0.0457682646811, 2.34093246259e-15
         0.37, -0.00261989678256, -9.78089458274e-17, 0.999951779842, 7.06512425942e-15, -0.00510020926595, 2.07460497518e-15,  188.25479126,  188.25479126, 188.238922119, 188.238922119, 12.6259899139, 12.6259899139, 12.6259899139, 12.6259899139,          -0.5,          -0.5,          -0.5,          -0.5, 0.000430846761446, -0.000430846761446, 8.31830692291, -4.12384872513e-16, -0.0065481653437, -2.46021121871e-15, -0.0457936227322, 2.35194431442e-15
        0.375, -0.00260108616203, 2.19442109429e-16, 0.999952197075, 1.45535100356e-14, -0.00515556288883, 2.02214335432e-15, 188.251312256, 188.251312256, 188.235397339, 188.235397339, 12.6615877151, 12.6615877151, 12.6615877151, 12.6615877151,          -0.5,          -0.5,          -0.5,          -0.5, 0.000439290277427, -0.000439290277427, 8.31814002991, -4.10931734553e-16, -0.00655422685668, -2.40562523921e-15, -0.0458192639053, 2.36237997209e-15
         0.38, -0.00258210347965, 2.1221321262e-16, 0.999952852726, 1.78250257165e-14, -0.00520859332755, 1.53657250582e-15,  188.24786377,  188.24786377, 188.231872559, 188.231872559, 12.6975440979, 12.6975440979, 12.6975440979, 12.6975440979,          -0.5,          -0.5,          -0.5,          -0.5, 0.000447737256764, -0.000447737256764,  8.3179731369, -4.05257990235e-16, -0.00656030187383, -2.32299463411e-15, -0.0458451732993, 2.37099599123e-15
        0.385, -0.00256296177395, -8.59915259591e-17, 0.999953627586, 1.77774919216e-14, -0.00526021467522, 1.4158294415e-15, 188.244430542, 188.244430542, 188.228378296, 188.228378296,  12.733830452,  12.733830452,  12.733830452,  12.733830452,          -0.5,          -0.5,          -0.5,          -0.5, 0.000456180452602, -0.000456180452602, 8.31780815125, -4.01471514733e-16, -0.00656637968495, -2.2328531761e-15, -0.0458713471889, 2.37808925689e-15
         0.39, -0.00254372227937, -1.4433643915e-16, 0.999953746796, 1.60928348691e-14, -0.0053119850345, 1.51835282713e-15, 188.241027832, 188.241027832, 188.224914551, 188.224914551, 12.7704210281, 12.7704210281, 12.7704210281, 12.7704210281,          -0.5,          -0.5,          -0.5,          -0.5, 0.000464613753138, -0.000464613753138, 8.31764411926, -4.0398066455e-16, -0.0065724668093, -2.14777549282e-15, -0.0458977781236, 2.38583367912e-15
        0.395, -0.00252434890717, -1.92477649352e-16, 0.999954104424, 1.328032126e-14, -0.00536604225636, 1.34948526827e-15, 188.237640381, 188.237640381, 188.221466064, 188.221466064, 12.8072910309, 12.8072910309, 12.8072910309, 12.8072910309,          -0.5,          -0.5,          -0.5,          -0.5, 0.000473032443551, -0.000473032443551, 8.31748008728, -4.05801997145e-16, -0.0065785869956, -2.07385259817e-15, -0.0459244698286, 2.39318486632e-15
          0.4, -0.00250482885167, -3.20977126722e-16, 0.999954760075, 9.4291004651e-15, -0.00542221497744, 1.25456209752e-15, 188.234283447, 188.234283447, 188.218048096, 188.218048096, 12.8444166183, 12.8444166183, 12.8444166183, 12.8444166183,          -0.5,          -0.5,          -0.5,          -0.5, 0.000481432740344, -0.000481432740344, 8.31731796265, -4.1410755224e-16, -0.00658472254872, -2.01707089752e-15, -0.0459514409304, 2.3997542421e-15
        0.405, -0.00248517701402, -1.13056160918e-16, 0.99995559454, 6.15072678187e-15, -0.00548052415252, 1.15140904877e-15, 188.230957031, 188.230957031, 188.214645386, 188.214645386,  12.881775856,  12.881775856,  12.881775856,  12.881775856,          -0.5,          -0.5,          -0.5,          -0.5, 0.000489811704028, -0.000489811704028, 8.31715583801, -4.24040469384e-16, -0.00659086275846, -1.97826471831e-15, -0.0459786951542, 2.40559834592e-15
         0.41, -0.00246540806256, -2.67414786544e-16, 0.999956488609, 3.17054490674e-15, -0.0055411583744, 5.05091569799e-16, 188.227645874, 188.227645874, 188.211273193, 188.211273193, 12.9193496704, 12.9193496704, 12.9193496704, 12.9193496704,          -0.5,          -0.5,          -0.5,          -0.5, 0.000498167413753, -0.000498167413753, 8.31699466705, -4.32585496575e-16, -0.00659700203687, -1.95519027028e-15, -0.0460062474012, 2.41012044306e-15
        0.415, -0.00244553363882, -4.56736576423e-17, 0.999957382679, 7.04657190854e-16, -0.00560437561944, -4.19444098035e-16, 188.224365234, 188.224365234,  188.20791626,  188.20791626,  12.957118988,  12.957118988,  12.957118988,  12.957118988,          -0.5,          -0.5,          -0.5,          -0.5, 0.000506498967297, -0.000506498967297, 8.31683540344, -4.40936314992e-16, -0.00660314178094, -1.94575749962e-15, -0.0460341125727, 2.41058694646e-15
         0.42, -0.00242556259036, -1.61260567718e-16, 0.999958276749, -1.06277530941e-15, -0.00567042967305, -7.6847979994e-16, 188.221099854, 188.221099854, 188.204589844, 188.204589844, 12.9950656891, 12.9950656891, 12.9950656891, 12.9950656891,          -0.5,          -0.5,          -0.5,          -0.5, 0.000514806539286, -0.000514806539286, 8.31667613983, -4.46625544131e-16, -0.00660928478464, -1.94672692883e-15, -0.0460622981191, 2.40755986246e-15
        0.425, -0.0024055019021, -1.64090994486e-16, 0.999958992004, -2.49411942989e-15, -0.00573951750994, -6.57117625508e-16,  188.21786499,  188.21786499, 188.201278687, 188.201278687, 13.0331745148, 13.0331745148, 13.0331745148, 13.0331745148,          -0.5,          -0.5,          -0.5,          -0.5, 0.000523090886418, -0.000523090886418, 8.31651878357, -4.51492489567e-16, -0.00661543710157, -1.95569637247e-15, -0.0460908226669, 2.40401735892e-15
         0.43, -0.00238535692915, -8.74623788197e-17, 0.99995970726, -3.43322019983e-15, -0.00581174669787, -5.46550973831e-16, 188.214645386, 188.214645386, 188.198013306, 188.198013306,   13.07143116,   13.07143116,   13.07143116,   13.07143116,          -0.5,          -0.5,          -0.5,          -0.5, 0.000531353754923, -0.000531353754923, 8.31636142731, -4.56633397222e-16, -0.00662160571665, -1.97077821761e-15, -0.046119697392, 2.40098476921e-15
        0.435, -0.00236513256095, -6.59525462244e-17, 0.999960303307, -3.98766001502e-15, -0.00588711770251, -3.87233605573e-16, 188.211456299, 188.211456299, 188.194747925, 188.194747925, 13.1098194122, 13.1098194122, 13.1098194122, 13.1098194122,          -0.5,          -0.5,          -0.5,          -0.5, 0.000539597240277, -0.000539597240277, 8.31620597839, -4.58361662072e-16, -0.0066277962178, -1.98950336321e-15, -0.0461489446461, 2.39846992839e-15
         0.44, -0.00234483252279, -3.32850000779e-17, 0.999960780144, -4.40477969583e-15, -0.00596552155912, -8.67866384337e-17, 188.208297729, 188.208297729,  188.19152832,  188.19152832, 13.1483278275, 13.1483278275, 13.1483278275, 13.1483278275,          -0.5,          -0.5,          -0.5,          -0.5, 0.00054782407824, -0.00054782407824, 8.31605052948, -4.58133757269e-16, -0.00663401558995, -2.01048881624e-15, -0.0461785756052, 2.39718900282e-15
        0.445, -0.0023244607728, 1.65165310196e-16, 0.999961256981, -4.70877346785e-15, -0.0060467440635, -7.43503683532e-17, 188.205154419, 188.205154419, 188.188308716, 188.188308716, 13.1869440079, 13.1869440079, 13.1869440079, 13.1869440079,          -0.5,          -0.5,          -0.5,          -0.5, 0.000556037237402, -0.000556037237402, 8.31589698792, -4.60563683037e-16, -0.00664026895538, -2.03360138076e-15, -0.0462086051702, 2.39671995832e-15
         0.45, -0.00230402057059, -1.58856264697e-16, 0.999961674213, -4.62887030884e-15, -0.00613047881052, -1.22969516895e-16, 188.202026367, 188.202026367, 188.185134888, 188.185134888, 13.2256555557, 13.2256555557, 13.2256555557, 13.2256555557,          -0.5,          -0.5,          -0.5,          -0.5, 0.000564239860978, -0.000564239860978, 8.31574344635, -4.59414153448e-16, -0.00664656003937, -2.05711459186e-15, -0.0462390445173, 2.39644107272e-15
        0.455, -0.0022835158743, 1.30733182662e-17, 0.999962091446, -4.34703788333e-15, -0.00621634488925, -1.76545608123e-16, 188.198928833, 188.198928833, 188.181976318, 188.181976318, 13.2644538879, 13.2644538879, 13.2644538879, 13.2644538879,          -0.5,          -0.5,          -0.5,          -0.5, 0.000572435383219, -0.000572435383219, 8.31559181213, -4.60295279472e-16, -0.00665289303288, -2.07953851858e-15, -0.0462699122727, 2.39572660043e-15
         0.46, -0.00226295017637, -1.69761840363e-16, 0.999962449074, -4.00508178868e-15, -0.00630390550941, -4.8542184349e-17, 188.195861816, 188.195861816, 188.178833008, 188.178833008, 13.3033285141, 13.3033285141, 13.3033285141, 13.3033285141,          -0.5,          -0.5,          -0.5,          -0.5, 0.000580627005547, -0.000580627005547, 8.31544017792, -4.58167903285e-16, -0.00665926979855, -2.10025313283e-15, -0.0463012121618, 2.39539964571e-15
        0.465, -0.00224232766777, 4.0361616245e-19, 0.999962866306, -3.94010419723e-15, -0.00639268895611, 1.10491338536e-16, 188.192810059, 188.192810059, 188.175720215, 188.175720215, 13.3422698975, 13.3422698975, 13.3422698975, 13.3422698975,          -0.5,          -0.5,          -0.5,          -0.5, 0.000588818104006, -0.000588818104006, 8.31529045105, -4.56711324253e-16, -0.0066656912677, -2.11998434182e-15, -0.0463329516351, 2.39548561956e-15
         0.47, -0.00222165253945, 2.88387950975e-17, 0.999963223934, -3.88978027576e-15, -0.006482206285, 7.04820085877e-17, 188.189788818, 188.189788818, 188.172622681, 188.172622681, 13.3812704086, 13.3812704086, 13.3812704086, 13.3812704086,          -0.5,          -0.5,          -0.5,          -0.5, 0.00059701182181, -0.00059701182181, 8.31514167786, -4.55216258162e-16, -0.00667215837166, -2.13932019818e-15, -0.0463651381433, 2.39610861229e-15
        0.475, -0.00220092898235, 9.31584661132e-19, 0.999963641167, -3.83496962078e-15, -0.00657197041437, 2.73980085979e-16, 188.186782837, 188.186782837, 188.169555664, 188.169555664, 13.4203205109, 13.4203205109, 13.4203205109, 13.4203205109,          -0.5,          -0.5,          -0.5,          -0.5, 0.000605211069342, -0.000605211069342, 8.31499290466, -4.50293143854e-16, -0.00667867111042, -2.15845869586e-15, -0.0463977754116, 2.39710069963e-15
         0.48, -0.00218016142026, 2.94416013146e-17, 0.999964058399, -3.99104984087e-15, -0.00666150916368, 2.85656938083e-16, 188.183807373, 188.183807373, 188.166519165, 188.166519165, 13.4594144821, 13.4594144821, 13.4594144821, 13.4594144821,          -0.5,          -0.5,          -0.5,          -0.5, 0.000613418524154, -0.000613418524154, 8.31484603882, -4.47179080163e-16, -0.00668522808701, -2.1779842876e-15, -0.0464308597147, 2.398665593e-15
        0.485, -0.00215935450979, 3.46056898788e-17, 0.999964535236, -4.03493970007e-15, -0.00675037922338, 3.1692526521e-16, 188.180847168, 188.180847168, 188.163497925, 188.163497925, 13.4985456467, 13.4985456467, 13.4985456467, 13.4985456467,          -0.5,          -0.5,          -0.5,          -0.5, 0.000621636747383, -0.000621636747383, 8.31470012665, -4.43813897672e-16, -0.00669182837009, -2.19807781494e-15, -0.0464643910527, 2.40021418099e-15
         0.49, -0.00213851314038, -1.28664926728e-16, 0.999965012074, -4.03241638892e-15, -0.0068381736055, 4.47745851083e-16, 188.177902222, 188.177902222, 188.160491943, 188.160491943, 13.5377054214, 13.5377054214, 13.5377054214, 13.5377054214,          -0.5,          -0.5,          -0.5,          -0.5, 0.000629867659882, -0.000629867659882, 8.31455516815, -4.4096066719e-16, -0.0066984705627, -2.21823931666e-15, -0.046498361975, 2.40224769533e-15
        0.495, -0.00211764127016, 3.87363916298e-17, 0.999965488911, -3.74390087346e-15, -0.00692453142256, 3.94212045328e-16, 188.174987793, 188.174987793, 188.157516479, 188.157516479, 13.5768899918, 13.5768899918, 13.5768899918, 13.5768899918,          -0.5,          -0.5,          -0.5,          -0.5, 0.000638113240711, -0.000638113240711, 8.31441020966, -4.39251989977e-16, -0.00670515233651, -2.23768338149e-15, -0.0465327687562, 2.40421048243e-15
          0.5, -0.00209674378857, 2.9911922976e-17, 0.999965965748, -3.55218068332e-15, -0.00700913742185, 5.29040738169e-16, 188.172103882, 188.172103882, 188.154556274, 188.154556274, 13.6160926819, 13.6160926819, 13.6160926819, 13.6160926819,          -0.5,          -0.5,          -0.5,          -0.5, 0.00064637477044, -0.00064637477044, 8.31426715851, -4.35811712722e-16, -0.00671187182888, -2.25568600799e-15, -0.0465676039457, 2.40679139182e-15
        0.505, -0.00207582488656, -1.3020668551e-16, 0.99996650219, -3.38509178777e-15, -0.00709172757342, 5.5469032518e-16, 188.169219971, 188.169219971, 188.151626587, 188.151626587, 13.6553096771, 13.6553096771, 13.6553096771, 13.6553096771,          -0.5,          -0.5,          -0.5,          -0.5, 0.000654653413221, -0.000654653413221, 8.31412506104, -4.32874440689e-16, -0.00671862624586, -2.27288628253e-15, -0.0466028563678, 2.40967977417e-15
         0.51, -0.00205488875508, -9.86493116989e-18, 0.999967038631, -3.31565520313e-15, -0.00717208813876, 7.30660943516e-16, 188.166381836, 188.166381836, 188.148712158, 188.148712158, 13.6945343018, 13.6945343018, 13.6945343018, 13.6945343018,          -0.5,          -0.5,          -0.5,          -0.5, 0.000662949983962, -0.000662949983962, 8.31398391724, -4.27544777036e-16, -0.00672541279346, -2.28942396555e-15, -0.0466385185719, 2.41270241124e-15
        0.515, -0.0020339388866, -2.27861557368e-17, 0.999967634678, -3.71372532471e-15, -0.00725005287677, 7.72647413799e-16, 188.163543701, 188.163543701, 188.145812988, 188.145812988, 13.7337627411, 13.7337627411, 13.7337627411, 13.7337627411,          -0.5,          -0.5,          -0.5,          -0.5, 0.000671264831908, -0.000671264831908, 8.31384372711, -4.26780779787e-16, -0.00673222960904, -2.30709624921e-15, -0.0466745719314, 2.41638446347e-15
         0.52, -0.00201297947206, 1.48707685023e-16, 0.999968230724, -3.71062899577e-15, -0.00732550211251, 7.86419375428e-16, 188.160751343, 188.160751343, 188.142944336, 188.142944336, 13.7729921341, 13.7729921341, 13.7729921341, 13.7729921341,          -0.5,          -0.5,          -0.5,          -0.5, 0.000679598131683, -0.000679598131683, 8.31370449066, -4.28122453506e-16, -0.00673907343298, -2.32597131964e-15, -0.0467110127211, 2.42023825162e-15
        0.525, -0.00199201353826, -1.91570132958e-16, 0.999968826771, -3.825090252e-15, -0.00739835621789, 9.49187132396e-16, 188.157958984, 188.157958984, 188.140106201, 188.140106201, 13.8122167587, 13.8122167587, 13.8122167587, 13.8122167587,          -0.5,          -0.5,          -0.5,          -0.5, 0.000687949766871, -0.000687949766871, 8.31356620789, -4.26413935112e-16, -0.00674594100565, -2.34477566283e-15, -0.0467478260398, 2.42474870206e-15
         0.53, -0.00197104457766, -2.07667292671e-16, 0.999969482422, -3.82888453609e-15, -0.00746857468039, 9.3334793392e-16, 188.155197144, 188.155197144, 188.137283325, 188.137283325,  13.851433754,  13.851433754,  13.851433754,  13.851433754,          -0.5,          -0.5,          -0.5,          -0.5, 0.000696319446433, -0.000696319446433, 8.31342983246, -4.29356051114e-16, -0.00675282999873, -2.36398912293e-15, -0.0467849932611, 2.42949187481e-15
        0.535, -0.0019500751514, -2.43425705056e-17, 0.999970138073, -3.63203662024e-15, -0.00753614958376, 1.11265358567e-15,  188.15246582,  188.15246582, 188.134475708, 188.134475708, 13.8906402588, 13.8906402588, 13.8906402588, 13.8906402588,          -0.5,          -0.5,          -0.5,          -0.5, 0.000704706530087, -0.000704706530087, 8.31329345703, -4.29106944019e-16, -0.00675973715261, -2.38253766217e-15, -0.0468225069344, 2.43456369634e-15
         0.54, -0.00192910793703, 1.62513435326e-16, 0.999970793724, -3.47551996643e-15, -0.00760110048577, 1.37413117418e-15, 188.149734497, 188.149734497, 188.131698608, 188.131698608, 13.9298324585, 13.9298324585, 13.9298324585, 13.9298324585,          -0.5,          -0.5,          -0.5,          -0.5, 0.000713110261131, -0.000713110261131, 8.31315803528, -4.284438231e-16, -0.0067666596733, -2.40031010747e-15, -0.0468603484333, 2.44078854147e-15
        0.545, -0.00190814549569, 5.49020162554e-18, 0.99997150898, -3.44570970064e-15, -0.00766347069293, 1.71563738846e-15,  188.14704895,  188.14704895, 188.128936768, 188.128936768, 13.9690084457, 13.9690084457, 13.9690084457, 13.9690084457,          -0.5,          -0.5,          -0.5,          -0.5, 0.000721529824659, -0.000721529824659,  8.3130235672, -4.25448846947e-16, -0.00677359430119, -2.4175834386e-15, -0.0468985140324, 2.44856578623e-15
         0.55, -0.00188718980644, -5.94758848173e-16, 0.999972224236, -3.34111277836e-15, -0.00772332306951, 1.78170394664e-15, 188.144363403, 188.144363403, 188.126205444, 188.126205444, 14.0081634521, 14.0081634521, 14.0081634521, 14.0081634521,          -0.5,          -0.5,          -0.5,          -0.5, 0.000729964172933, -0.000729964172933, 8.31289100647, -4.38787683573e-16, -0.00678053870797, -2.43513777292e-15, -0.04693698138, 2.45716613526e-15
        0.555, -0.00186624273192, -4.89455394532e-16, 0.999972999096, 1.78421203766e-16, -0.0077807335183, 1.98466849915e-15, 188.141723633, 188.141723633,  188.12348938,  188.12348938, 14.0472974777, 14.0472974777, 14.0472974777, 14.0472974777,          -0.5,          -0.5,          -0.5,          -0.5, 0.000738412316423, -0.000738412316423, 8.31275844574, -4.5930700378e-16, -0.00678748963401, -2.44445725292e-15, -0.0469757430255, 2.46654956625e-15
         0.56, -0.00184530601837, -5.77977907878e-16, 0.999973714352, 6.07919188486e-15, -0.00783579051495, 1.91372800751e-15, 188.139083862, 188.139083862, 188.120788574, 188.120788574, 14.0864067078, 14.0864067078, 14.0864067078, 14.0864067078,          -0.5,          -0.5,          -0.5,          -0.5, 0.000746873149183, -0.000746873149183, 8.31262683868, -4.78120823149e-16, -0.00679444428533, -2.43007420996e-15, -0.0470147840679, 2.47659029481e-15
        0.565, -0.00182438129559, 1.6447962379e-16, 0.999974489212, 1.17466715472e-14, -0.00788858812302, 1.557510525e-15, 188.136474609, 188.136474609, 188.118118286, 188.118118286, 14.1254901886, 14.1254901886, 14.1254901886, 14.1254901886,          -0.5,          -0.5,          -0.5,          -0.5, 0.000755345507059, -0.000755345507059, 8.31249713898, -4.6203815564e-16, -0.00680140033364, -2.38349904456e-15, -0.0470540970564, 2.48457506264e-15
         0.57, -0.00180346972775, -1.20857109369e-16, 0.999975323677, 1.3559981046e-14, -0.00793922506273, 2.0472436934e-15, 188.133880615, 188.133880615, 188.115478516, 188.115478516, 14.1645441055, 14.1645441055, 14.1645441055, 14.1645441055,          -0.5,          -0.5,          -0.5,          -0.5, 0.000763828342315, -0.000763828342315, 8.31236743927, -4.56787821916e-16, -0.00680835545063, -2.31905889552e-15, -0.0470936670899, 2.49364339738e-15
        0.575, -0.0017825725954, -1.64997610907e-16, 0.999976098537, 1.35145563631e-14, -0.00798780098557, 1.78136195709e-15, 188.131317139, 188.131317139, 188.112838745, 188.112838745, 14.2035684586, 14.2035684586, 14.2035684586, 14.2035684586,          -0.5,          -0.5,          -0.5,          -0.5, 0.000772320549004, -0.000772320549004, 8.31223964691, -4.58146462764e-16, -0.00681530684233, -2.2508208625e-15, -0.0471334867179, 2.50346072099e-15
         0.58, -0.00176169106271, -4.56583812707e-17, 0.999976933002, 1.25124333773e-14, -0.0080344164744, 1.35692761738e-15, 188.128768921, 188.128768921, 188.110244751, 188.110244751, 14.2425603867, 14.2425603867, 14.2425603867, 14.2425603867,          -0.5,          -0.5,          -0.5,          -0.5, 0.000780821137596, -0.000780821137596, 8.31211185455, -4.57191538995e-16, -0.00682225311175, -2.18514933931e-15, -0.0471735410392, 2.51176037333e-15
        0.585, -0.00174082594458, -2.23652644036e-16, 0.999977767467, 1.05411615512e-14, -0.00807916559279, 1.15652745712e-15, 188.126251221, 188.126251221, 188.107650757, 188.107650757, 14.2815179825, 14.2815179825, 14.2815179825, 14.2815179825,          -0.5,          -0.5,          -0.5,          -0.5, 0.000789329118561, -0.000789329118561, 8.31198596954, -4.5942352375e-16, -0.00682919239625, -2.12724087308e-15, -0.0472138263285, 2.51811968494e-15
         0.59, -0.00171997805592, 1.41074343217e-16, 0.999978601933, 8.45106794332e-15, -0.00812214240432, 1.1788512222e-15, 188.123748779, 188.123748779,  188.10508728,  188.10508728, 14.3204402924, 14.3204402924, 14.3204402924, 14.3204402924,          -0.5,          -0.5,          -0.5,          -0.5, 0.000797843735199, -0.000797843735199, 8.31186103821, -4.64646381843e-16, -0.00683612190187, -2.07965265627e-15, -0.0472543314099, 2.5238043348e-15
        0.595, -0.00169914821163, -3.64497500881e-17, 0.999979436398, 6.1932575767e-15, -0.00816343259066, 1.38431409839e-15, 188.121261597, 188.121261597, 188.102554321, 188.102554321, 14.3593263626, 14.3593263626, 14.3593263626, 14.3593263626,          -0.5,          -0.5,          -0.5,          -0.5, 0.000806364056189, -0.000806364056189, 8.31173610687, -4.66102802056e-16, -0.0068430416286, -2.04277644164e-15, -0.0472950451076, 2.53028604267e-15
          0.6, -0.00167833711021, -1.66187109863e-16, 0.999980270863, 3.87576145697e-15, -0.00820311717689, 1.53255333449e-15, 188.118804932, 188.118804932, 188.100036621, 188.100036621, 14.3981733322, 14.3981733322, 14.3981733322, 14.3981733322,          -0.5,          -0.5,          -0.5,          -0.5, 0.000814889383037, -0.000814889383037, 8.31161308289, -4.72026685791e-16, -0.00684994878247, -2.01814472353e-15, -0.0473359636962, 2.53761838338e-15
        0.605, -0.00165754533373, -1.47155086866e-16, 0.999981105328, 1.69136851809e-15, -0.00824126973748, 1.62877807724e-15, 188.116378784, 188.116378784,  188.09753418,  188.09753418, 14.4369812012, 14.4369812012, 14.4369812012, 14.4369812012,          -0.5,          -0.5,          -0.5,          -0.5, 0.000823419250082, -0.000823419250082, 8.31149101257, -4.7675757656e-16, -0.00685684336349, -2.004325381e-15, -0.0473770722747, 2.54559256331e-15
         0.61, -0.00163677346427, -2.65340614615e-16, 0.999981939793, 1.84864424578e-16, -0.00827795732766, 1.58421482685e-15, 188.113952637, 188.113952637, 188.095062256, 188.095062256, 14.4757490158, 14.4757490158, 14.4757490158, 14.4757490158,          -0.5,          -0.5,          -0.5,          -0.5, 0.000831952958833, -0.000831952958833, 8.31136989594, -4.82152064703e-16, -0.00686372444034, -1.99999068989e-15, -0.0474183708429, 2.55368744542e-15
        0.615, -0.00161602220032, 8.73071865019e-17, 0.999982774258, -5.5351453757e-16, -0.00831323955208, 1.53140761655e-15, 188.111557007, 188.111557007, 188.092605591, 188.092605591, 14.5144748688, 14.5144748688, 14.5144748688, 14.5144748688,          -0.5,          -0.5,          -0.5,          -0.5, 0.000840490218252, -0.000840490218252,  8.3112487793, -4.86973058601e-16, -0.00687059061602, -2.00114244294e-15, -0.0474598519504, 2.56160720348e-15
         0.62, -0.00159529177472, 1.32547686053e-16, 0.999983549118, -1.22395011505e-15, -0.00834717042744, 1.77680788444e-15, 188.109191895, 188.109191895, 188.090179443, 188.090179443, 14.5531568527, 14.5531568527, 14.5531568527, 14.5531568527,          -0.5,          -0.5,          -0.5,          -0.5, 0.000849030562676, -0.000849030562676, 8.31112957001, -4.87990768688e-16, -0.00687744189054, -2.00560291844e-15, -0.0475015006959, 2.56960277099e-15
        0.625, -0.00157458288595, 1.51319828754e-16, 0.999984383583, -1.70268085486e-15, -0.0083797974512, 2.04494145785e-15, 188.106842041, 188.106842041, 188.087768555, 188.087768555, 14.5917959213, 14.5917959213, 14.5917959213, 14.5917959213,          -0.5,          -0.5,          -0.5,          -0.5, 0.000857573817484, -0.000857573817484, 8.31101131439, -4.8983756521e-16, -0.00688427733257, -2.01315908761e-15, -0.0475433208048, 2.57943216482e-15
         0.63, -0.00155389588326, 4.59751517407e-17, 0.999985158443, -1.76014367588e-15, -0.00841116067022, 2.49456454571e-15, 188.104507446, 188.104507446, 188.085388184, 188.085388184, 14.6303892136, 14.6303892136, 14.6303892136, 14.6303892136,          -0.5,          -0.5,          -0.5,          -0.5, 0.000866119808052, -0.000866119808052, 8.31089401245, -4.87366399526e-16, -0.00689109740779, -2.02191973762e-15, -0.0475852973759, 2.59111846664e-15
        0.635, -0.00153323123232, 2.01494037143e-16, 0.999985933304, -1.81396171413e-15, -0.00844129640609, 2.82119252039e-15, 188.102203369, 188.102203369, 188.083023071, 188.083023071, 14.6689367294, 14.6689367294, 14.6689367294, 14.6689367294,          -0.5,          -0.5,          -0.5,          -0.5, 0.000874668243341, -0.000874668243341, 8.31077766418, -4.85389001111e-16, -0.00689790165052, -2.03089299291e-15, -0.0476274304092, 2.60456215006e-15
         0.64, -0.00151258951519, 5.2374058832e-17, 0.99998664856, -1.85716653543e-15, -0.00847023539245, 3.0781751168e-15, 188.099914551, 188.099914551, 188.080673218, 188.080673218, 14.7074384689, 14.7074384689, 14.7074384689, 14.7074384689,          -0.5,          -0.5,          -0.5,          -0.5, 0.000883219239768, -0.000883219239768, 8.31066226959, -4.82665154911e-16, -0.0069046895951, -2.04024254258e-15, -0.0476697087288, 2.61921624357e-15
        0.645, -0.00149197108112, 7.47567125573e-17, 0.999987363815, -1.84966457637e-15, -0.00849800463766, 3.15847214614e-15, 188.097640991, 188.097640991, 188.078353882, 188.078353882,  14.745891571,  14.745891571,  14.745891571,  14.745891571,          -0.5,          -0.5,          -0.5,          -0.5, 0.000891772622708, -0.000891772622708, 8.31054782867, -4.82089013688e-16, -0.00691146217287, -2.04951967093e-15, -0.0477121323347, 2.63494501012e-15
         0.65, -0.00147137639578, 7.17107688441e-17, 0.999988079071, -1.63414170162e-15, -0.00852462649345, 3.32721804989e-15, 188.095397949, 188.095397949, 188.076049805, 188.076049805, 14.7842960358, 14.7842960358, 14.7842960358, 14.7842960358,          -0.5,          -0.5,          -0.5,          -0.5, 0.000900328392163, -0.000900328392163, 8.31043434143, -4.80065981373e-16, -0.00691821938381, -2.05814564271e-15, -0.0477546863258, 2.65143949446e-15
