Time,AxG_S1,AyG_S1,AzG_S1,AVx_S1,AVy_S1,AVz_S1,AVy_L1,AVy_R1,AVy_L2,AVy_R2,My_Dr_L1,My_Dr_R1,My_Dr_L2,My_Dr_R2,My_Bk_L1,My_Bk_R1,My_Bk_L2,My_Bk_R2,StrK_L1,StrK_R1,sv_vx,sv_vy,sv_vz,Roll_E,Pitch,Yaw
            0, 0.000326787587255, -0.000136899965582, 0.999602615833,             0,             0,             0, 62.8574028015, 62.8574028015, 62.8574028015, 62.8574028015,             0,             0,             0,             0,          -0.5,          -0.5,          -0.5,          -0.5, -9.87841267488e-05, 9.87841267488e-05, 2.77777695656,             0, -0.00216607772745,             0, -0.0446785651147,             0
        0.005, -0.00265187537298, -0.000154403343913, 0.999775111675, 0.000354881427484, 0.00177703774534, -0.000147507045767, 62.7749595642, 62.7717399597, 62.7593460083, 62.7593040466, 0.115279316902, 0.115279316902, 0.115279316902, 0.115279316902,          -0.5,          -0.5,          -0.5,          -0.5, -7.65126023907e-05, 0.000131686145323, 2.77770400047, -7.12295104677e-06, -0.00218094047159, 4.3571731112e-07, -0.0446748398244, -4.00423857627e-07
         0.01, -0.00713936705142, -0.000175487468368, 0.99987578392, 0.00171670690179, 0.00592893362045, -0.000206352997338, 62.7742538452, 62.7678108215,  62.763256073, 62.7630500793, 0.457884937525, 0.457884937525, 0.457884937525, 0.457884937525,          -0.5,          -0.5,          -0.5,          -0.5, 1.72253453457e-06, 0.000239824454184,  2.7774169445, -1.51463063958e-05, -0.00218825088814, 5.18621254741e-06, -0.0446566529572, -1.32559580379e-06
        0.015, -0.00700666615739, -0.000201776216272, 0.999892771244, 0.00403427612036, 0.0112014161423, -0.000173716704012, 62.8289222717, 62.8194885254, 62.8302536011, 62.8298721313, 1.03116428852, 1.03116428852, 1.03116428852, 1.03116428852,          -0.5,          -0.5,          -0.5,          -0.5, 0.000137633353006, 0.000421831617132, 2.77699971199, -2.43351914833e-05, -0.00219144136645, 1.91570688912e-05, -0.0446135662496, -2.31401713791e-06
         0.02, -0.00407873652875, -0.000233829501667, 0.999863922596, 0.00725956168026, 0.01436958462, -5.67249844607e-05, 62.8470001221, 62.8356285095, 62.8473548889, 62.8469009399, 1.66225731373, 1.66225731373, 1.66225731373, 1.66225731373,          -0.5,          -0.5,          -0.5,          -0.5, 0.000331841263687, 0.000671943707857, 2.77670025826, -3.49847286998e-05, -0.00219423370436, 4.70067679998e-05, -0.0445487163961, -2.9303635074e-06
        0.025, -0.0022485377267, -0.000273458106676, 0.999822556973, 0.0113239074126, 0.0158759504557, 0.000158609254868, 62.8307342529, 62.8177375793, 62.8208427429, 62.8203392029, 2.21730351448, 2.21730351448, 2.21730351448, 2.21730351448,          -0.5,          -0.5,          -0.5,          -0.5, 0.00058384006843, 0.000983503647149, 2.77650952339, -4.74486769235e-05, -0.00219815061428, 9.31175673031e-05, -0.044472578913, -2.71980593425e-06
         0.03, -0.00267222407274, -0.000328891124809, 0.999779760838, 0.0161391403526, 0.0167438797653, 0.000460991461296, 62.8013801575, 62.7864952087, 62.7826080322, 62.7820701599, 2.67056083679, 2.67056083679, 2.67056083679, 2.67056083679,          -0.5,          -0.5,          -0.5,          -0.5, 0.000894071650691, 0.0013542707311, 2.77636146545, -6.23247760814e-05, -0.00220393878408, 0.000161461401149, -0.0443911775947, -1.19868536785e-06
        0.035, -0.0039956974797, -0.000400274177082, 0.999728083611, 0.021655689925, 0.0182808134705, 0.00080498639727, 62.7940368652, 62.7770805359, 62.7774353027, 62.7768630981,  3.0526599884,  3.0526599884,  3.0526599884,  3.0526599884,          -0.5,          -0.5,          -0.5,          -0.5, 0.00125713564921, 0.0017791459104, 2.77615857124, -8.0472418631e-05, -0.00221170554869, 0.000255641236436, -0.0443039573729, 1.95712573259e-06
         0.04, -0.00411236239597, -0.000484815362142, 0.999662160873, 0.0278823655099, 0.0202434081584, 0.00115481344983, 62.8061828613, 62.7870979309, 62.7966270447,  62.796005249,   3.399725914,   3.399725914,   3.399725914,   3.399725914,          -0.5,          -0.5,          -0.5,          -0.5, 0.00165934232064, 0.00224548461847, 2.77591276169, -0.000102632075141, -0.00222190702334, 0.000379164033802, -0.0442076250911, 6.86086423229e-06
        0.045, -0.00267506274395, -0.000580588704906, 0.999589145184, 0.034863550216, 0.0214688759297, 0.00148562632967, 62.8094329834, 62.7883300781, 62.7953872681, 62.7946510315, 3.71644830704, 3.71644830704, 3.71644830704, 3.71644830704,          -0.5,          -0.5,          -0.5,          -0.5, 0.00208191759884, 0.00273417541757, 2.77571034431, -0.000129421547172, -0.00223521050066, 0.000535681901965, -0.0441028550267, 1.34735091706e-05
         0.05, -0.00260033947416, -0.000686816114467, 0.999531030655, 0.0426455661654, 0.0221149716526, 0.00179126311559, 62.7997779846, 62.7760429382, 62.7802009583,  62.779258728, 3.98986554146, 3.98986554146, 3.98986554146, 3.98986554146,          -0.5,          -0.5,          -0.5,          -0.5, 0.00250488636084, 0.00322436541319, 2.77554821968, -0.000161393720191, -0.00225154240616, 0.000729091581888, -0.0439938865602, 2.16797488974e-05
        0.055, -0.00295980041847, -0.000803163158707, 0.999481856823, 0.0512480475008, 0.0228971745819, 0.00205610413104, 62.7952461243, 62.7683448792, 62.7756576538, 62.7744483948, 4.22475004196, 4.22475004196, 4.22475004196, 4.22475004196,          -0.5,          -0.5,          -0.5,          -0.5, 0.00291000190191, 0.00369859137572, 2.77537417412, -0.000199077228899, -0.00227031041868, 0.000963458442129, -0.0438814423978, 3.1321636925e-05
         0.06, -0.00298421084881, -0.000929004396312, 0.999435305595, 0.060669336468, 0.0237788446248, 0.00226300093345, 62.7971153259, 62.7667999268, 62.7796783447, 62.7781181335, 4.43109130859, 4.43109130859, 4.43109130859, 4.43109130859,          -0.5,          -0.5,          -0.5,          -0.5, 0.00327923824079, 0.00413983082399, 2.77518820763, -0.000242983398493, -0.00229116459377, 0.00124288606457, -0.0437647290528, 4.21506119892e-05
        0.065, -0.0025098733604, -0.00106401881203, 0.999391496181, 0.0708999335766, 0.0243821609765, 0.00239501241595, 62.7975273132, 62.7638053894, 62.7772445679,  62.775188446, 4.61305379868, 4.61305379868, 4.61305379868, 4.61305379868,          -0.5,          -0.5,          -0.5,          -0.5, 0.00359729281627, 0.00453302823007, 2.77501654625, -0.000293583929306, -0.00231411750428, 0.00157145340927, -0.0436441488564, 5.38351850992e-05
         0.07, -0.00245268759318, -0.0012087484356, 0.999360382557, 0.081892952323, 0.0247417483479, 0.00243844371289, 62.7940483093, 62.7570075989, 62.7703170776, 62.7676429749, 4.77027320862, 4.77027320862, 4.77027320862, 4.77027320862,          -0.5,          -0.5,          -0.5,          -0.5, 0.00385276391171, 0.00486652506515, 2.77485918999, -0.000351369555574, -0.00233880314045, 0.00195310788695, -0.0435213111341, 6.59631332383e-05
        0.075, -0.0025359436404, -0.00136294099502, 0.99933886528, 0.0935703441501, 0.0250921268016, 0.00238194130361, 62.7918968201, 62.7515792847, 62.7670936584, 62.7637062073, 4.90565252304, 4.90565252304, 4.90565252304, 4.90565252304,          -0.5,          -0.5,          -0.5,          -0.5, 0.00403974205256, 0.00513443723321, 2.77469968796, -0.000416837778175, -0.00236467598006, 0.00239147734828, -0.0433967337012, 7.80654154369e-05
         0.08, -0.0024845728185, -0.00152587983757, 0.999323666096, 0.105837136507, 0.0254198182374, 0.00221371510997, 62.7912750244, 62.7477684021, 62.7664299011, 62.7621879578, 5.02308797836, 5.02308797836, 5.02308797836, 5.02308797836,          -0.5,          -0.5,          -0.5,          -0.5, 0.00415732013062, 0.00533579103649, 2.77453827858, -0.000490461359732, -0.0023913513869, 0.00288975145668, -0.0432704202831, 8.96111887414e-05
        0.085, -0.00233193300664, -0.00169647613075, 0.999313950539, 0.118589393795, 0.0256158970296, 0.00192055199295, 62.7896995544, 62.7432670593, 62.7633247375, 62.7580833435, 5.12480258942, 5.12480258942, 5.12480258942, 5.12480258942,          -0.5,          -0.5,          -0.5,          -0.5, 0.00420907512307, 0.00547374831513, 2.77438378334, -0.000572666933294, -0.00241857906803, 0.0034506211523, -0.0431427694857, 0.000100012293842
         0.09, -0.00232073129155, -0.00187368993647, 0.99931037426, 0.131715640426, 0.0257309880108, 0.00148943881504, 62.7873687744, 62.7384033203, 62.7594413757, 62.7531318665, 5.21209144592, 5.21209144592, 5.21209144592, 5.21209144592,          -0.5,          -0.5,          -0.5,          -0.5, 0.00420114537701, 0.00555389607325,  2.7742331028, -0.000663827988319, -0.0024460926652, 0.00407623872161, -0.0430143885314, 0.000108607498987
        0.095, -0.00232419744134, -0.00205596257001, 0.999311566353, 0.14509961009, 0.0258254241198, 0.000914120755624, 62.7854423523,  62.734210968, 62.7569274902, 62.7494621277, 5.28694105148, 5.28694105148, 5.28694105148, 5.28694105148,          -0.5,          -0.5,          -0.5,          -0.5, 0.00414236960933, 0.00558462785557, 2.77408242226, -0.0007642552373, -0.00247363233939, 0.00476818485186, -0.0428854897618, 0.000114690818009
          0.1, -0.00226911506616, -0.0022414017003, 0.999316513538, 0.158626645803, 0.0258768908679, 0.000188928097486,  62.783405304, 62.7302322388, 62.7547607422, 62.7459640503, 5.35120153427, 5.35120153427, 5.35120153427, 5.35120153427,          -0.5,          -0.5,          -0.5,          -0.5, 0.00404317351058, 0.00557591207325, 2.77393293381, -0.000874172954354, -0.00250099995174, 0.00552746048197, -0.042756203562, 0.000117526884424
        0.105, -0.00223297998309, -0.00242797587998, 0.999325752258, 0.172186896205, 0.0258679017425, -0.000691323366482, 62.7809562683, 62.7261810303, 62.7518196106,  62.741607666, 5.40614652634, 5.40614652634, 5.40614652634, 5.40614652634,          -0.5,          -0.5,          -0.5,          -0.5, 0.00391376391053, 0.00553746568039, 2.77378630638, -0.000993707799353, -0.00252801505849, 0.00635450333357, -0.0426268205047, 0.000116352690384
         0.11, -0.00222732825205, -0.00261351023801, 0.999339282513, 0.185676530004, 0.0258229449391, -0.0017271079123, 62.7784347534, 62.7223434448, 62.7491378784, 62.7374687195,  5.4529633522,  5.4529633522,  5.4529633522,  5.4529633522,          -0.5,          -0.5,          -0.5,          -0.5, 0.00376354227774, 0.00547828059644, 2.77364063263, -0.00112288363744, -0.00255447532982, 0.0072492188774, -0.0424975827336, 0.000110389497422
        0.115, -0.00220757396892, -0.00279564945959, 0.999356985092, 0.198999643326, 0.0257400143892, -0.00291490158997, 62.7758636475,  62.718711853,  62.746799469,  62.733543396, 5.49284601212, 5.49284601212, 5.49284601212, 5.49284601212,          -0.5,          -0.5,          -0.5,          -0.5, 0.00360034476034, 0.00540587538853, 2.77349543571, -0.00126161263324, -0.00258018099703, 0.00821101013571, -0.0423686504364, 9.88674073596e-05
         0.12, -0.00218733935617, -0.00297199352644, 0.99937915802, 0.212069749832, 0.0256051737815, -0.0042499625124,  62.773109436, 62.7151527405, 62.7443122864,  62.729385376, 5.52676916122, 5.52676916122, 5.52676916122, 5.52676916122,          -0.5,          -0.5,          -0.5,          -0.5, 0.00342969829217, 0.00532550597563, 2.77335143089, -0.00140969001222, -0.00260493252426, 0.00923882517964, -0.0422402620316, 8.10378478491e-05
        0.125, -0.00217909645289, -0.00314017268829, 0.999406039715, 0.22480982542, 0.0254173111171, -0.00572438165545, 62.7702560425, 62.7116966248, 62.7418632507, 62.7252197266, 5.55556869507, 5.55556869507, 5.55556869507, 5.55556869507,          -0.5,          -0.5,          -0.5,          -0.5, 0.00325470580719, 0.00524006830528, 2.77320837975, -0.00156679470092, -0.00262851733714, 0.0103312022984, -0.0421126782894, 5.61824417673e-05
         0.13, -0.002170315478, -0.00329783977941, 0.999437630177, 0.237152338028, 0.0251713935286, -0.00732689537108, 62.7673568726,  62.708366394, 62.7395629883, 62.7211380005, 5.58002328873, 5.58002328873, 5.58002328873, 5.58002328873,          -0.5,          -0.5,          -0.5,          -0.5, 0.00307608325966, 0.00515013560653, 2.77306580544, -0.00173249060754, -0.00265071680769, 0.0114863188937, -0.0419861711562, 2.36316718656e-05
        0.135, -0.00216096593067, -0.00344273936935, 0.999473929405, 0.249038904905, 0.0248565357178, -0.00904467236251, 62.7643852234, 62.7051200867, 62.7372779846, 62.7170181274, 5.60080909729, 5.60080909729, 5.60080909729, 5.60080909729,          -0.5,          -0.5,          -0.5,          -0.5, 0.00289228372276, 0.00505405385047, 2.77292370796, -0.00190622976515, -0.00267131510191, 0.0127020375803, -0.0418610610068, -1.72234504134e-05
         0.14, -0.00215562409721, -0.00357275549322, 0.999514877796, 0.260419696569, 0.0244649387896, -0.0108630657196, 62.7613525391, 62.7019577026, 62.7350196838, 62.7128944397, 5.61850738525, 5.61850738525, 5.61850738525, 5.61850738525,          -0.5,          -0.5,          -0.5,          -0.5, 0.00269992672838, 0.00494835944846, 2.77278208733, -0.00208735838532, -0.00269009801559, 0.0139759518206, -0.0417377129197, -6.69235523674e-05
        0.145, -0.00215159030631, -0.00368592119776, 0.99956035614, 0.271252542734, 0.023989463225, -0.0127656329423, 62.7582855225, 62.6988830566, 62.7328262329,  62.708820343, 5.63363599777, 5.63363599777, 5.63363599777, 5.63363599777,          -0.5,          -0.5,          -0.5,          -0.5, 0.00249435380101, 0.00482832454145, 2.77264094353, -0.00227512372658, -0.00270685949363, 0.0153054231778, -0.0416165217757, -0.000125931270304
         0.15, -0.00214772415347, -0.00378044415265, 0.999610006809, 0.281502068043, 0.0234219226986, -0.0147349722683, 62.7551765442, 62.6958961487, 62.7306632996, 62.7047729492, 5.64664983749, 5.64664983749, 5.64664983749, 5.64664983749,          -0.5,          -0.5,          -0.5,          -0.5, 0.00227016583085, 0.00468847714365, 2.77250003815, -0.0024686830584, -0.00272140814923, 0.0166876222938, -0.0414979308844, -0.000194624371943
        0.155, -0.00214519002475, -0.00385472574271, 0.999663472176, 0.291138738394, 0.0227556452155, -0.0167530216277, 62.7520179749, 62.6929931641, 62.7285270691,  62.700756073,  5.6579413414,  5.6579413414,  5.6579413414,  5.6579413414,          -0.5,          -0.5,          -0.5,          -0.5, 0.00202179071493, 0.00452315947041, 2.77235913277, -0.0026671118103, -0.00273356842808, 0.0181195549667, -0.0413824208081, -0.000273292011116
         0.16, -0.00214347196743, -0.0039073638618, 0.999720454216, 0.300137937069, 0.021985553205, -0.0188011992723, 62.7488136292, 62.6901855469, 62.7264213562, 62.6967964172, 5.66785240173, 5.66785240173, 5.66785240173, 5.66785240173,          -0.5,          -0.5,          -0.5,          -0.5, 0.00174402724952, 0.00432706158608, 2.77221870422, -0.00286941369995, -0.00274318573065, 0.0195980947465, -0.0412704907358, -0.000362131657312
        0.165, -0.00214194995351, -0.00393715547398, 0.999780356884, 0.308478951454, 0.021107532084, -0.0208608284593, 62.7455558777, 62.6874809265, 62.7243347168, 62.6928901672, 5.67668247223, 5.67668247223, 5.67668247223, 5.67668247223,          -0.5,          -0.5,          -0.5,          -0.5, 0.00143247749656, 0.00409564934671,  2.7720785141, -0.00307453074493, -0.00275012664497, 0.021119998768, -0.0411626771092, -0.000461247487692
         0.17, -0.00214078277349, -0.00394309917465, 0.999842882156, 0.316144198179, 0.0201189629734, -0.0229134149849, 62.7422294617, 62.6848869324, 62.7222633362, 62.6890449524, 5.68468761444, 5.68468761444, 5.68468761444, 5.68468761444,          -0.5,          -0.5,          -0.5,          -0.5, 0.00108386552893, 0.00382547895424, 2.77193832397, -0.00328135211021, -0.00275428127497, 0.022681934759, -0.0410595200956, -0.000570650794543
        0.175, -0.00213984213769, -0.00392438750714, 0.999907493591, 0.323118388653, 0.0190188568085, -0.0249407980591, 62.7388267517, 62.6824111938, 62.7202033997, 62.6852722168, 5.69208955765, 5.69208955765, 5.69208955765, 5.69208955765,          -0.5,          -0.5,          -0.5,          -0.5, 0.000696244707797, 0.00351440347731, 2.77179813385, -0.00348872435279, -0.00275556254201, 0.0242804829031, -0.0409615784883, -0.000690261134878
         0.18, -0.00213886145502, -0.00388040207326, 0.999973714352,  0.3293877244, 0.0178075600415, -0.0269253402948, 62.7353401184, 62.6800613403, 62.7181472778, 62.6815757751, 5.69907808304, 5.69907808304, 5.69907808304, 5.69907808304,          -0.5,          -0.5,          -0.5,          -0.5, 0.000269076495897, 0.00316165247932, 2.77165842056, -0.00369546050206, -0.00275390571915, 0.0259121507406, -0.0408694036305, -0.000819908687845
        0.185, -0.00213779206388, -0.0038107058499, 1.00004124641, 0.334939241409, 0.0164867080748, -0.0288501121104, 62.7317504883, 62.6778450012,  62.716091156, 62.6779594421, 5.70581531525, 5.70581531525, 5.70581531525, 5.70581531525,          -0.5,          -0.5,          -0.5,          -0.5, -0.000196808963665, 0.00276779499836, 2.77151846886, -0.00390034890734, -0.00274926656857, 0.0275733843446, -0.0407835580409, -0.000959337048698
         0.19, -0.00213653733954, -0.00371503503993, 1.00010955334, 0.339760273695, 0.0150591284037, -0.03069893457, 62.7280502319, 62.6757736206, 62.7140274048, 62.6744270325, 5.71243906021, 5.71243906021, 5.71243906021, 5.71243906021,          -0.5,          -0.5,          -0.5,          -0.5, -0.000699341006111, 0.00233461568132, 2.77137899399, -0.00410216161981, -0.00274161994457, 0.0292605627328, -0.0407045744359, -0.00110820715781
        0.195, -0.00213507190347, -0.00359328696504, 1.00017845631, 0.343837767839, 0.0135286282748, -0.0324565321207, 62.7242355347, 62.6738433838, 62.7119522095, 62.6709861755, 5.71906471252, 5.71906471252, 5.71906471252, 5.71906471252,          -0.5,          -0.5,          -0.5,          -0.5, -0.00123540242203, 0.00186492467765,  2.7712392807, -0.0042996625416, -0.00273095723242, 0.0309699978679, -0.0406329780817, -0.00126610137522
          0.2, -0.00213339948095, -0.00344551564194, 1.00024759769, 0.34715783596, 0.011899841018, -0.034108672291, 62.7202911377, 62.6720695496, 62.7098579407, 62.6676368713,  5.7257900238,  5.7257900238,  5.7257900238,  5.7257900238,          -0.5,          -0.5,          -0.5,          -0.5, -0.00180110440124, 0.00136228732299, 2.77110004425, -0.00449161464348, -0.00271728425287, 0.0326979383826, -0.0405692718923, -0.00143252813723
        0.205, -0.00213146745227, -0.00327192037366, 1.00031661987, 0.349705278873, 0.0101780006662, -0.0356421433389, 62.7162132263, 62.6704559326, 62.7077407837, 62.6643829346, 5.73269557953, 5.73269557953, 5.73269557953, 5.73269557953,          -0.5,          -0.5,          -0.5,          -0.5, -0.0023920731619, 0.000830742821563,  2.7709608078, -0.00467678718269, -0.00270061893389, 0.034440562129, -0.0405139327049, -0.00160692748614
         0.21, -0.0021292027086, -0.00307283434086, 1.00038552284, 0.351463258266, 0.00836870539933, -0.037044737488, 62.7120018005, 62.6690063477, 62.7055969238, 62.6612281799, 5.73984861374, 5.73984861374, 5.73984861374, 5.73984861374,          -0.5,          -0.5,          -0.5,          -0.5, -0.00300369854085, 0.000274559337413, 2.77082157135, -0.00485396245494, -0.00268098898232, 0.036193959415, -0.0404674187303, -0.00178867590148
        0.215, -0.00212659942918, -0.00284871459007, 1.00045406818, 0.352412879467, 0.00647774571553, -0.0383052974939, 62.7076454163,   62.66771698, 62.7034225464, 62.6581726074, 5.74730348587, 5.74730348587, 5.74730348587, 5.74730348587,          -0.5,          -0.5,          -0.5,          -0.5, -0.00363135384396, -0.000301981432131, 2.77068281174, -0.0050219418481, -0.00265843002126, 0.0379541404545, -0.0404301472008, -0.0019770914223
         0.22, -0.00212371256202, -0.00260013178922, 1.00052213669, 0.352532893419, 0.00451098009944, -0.0394138023257, 62.7031517029, 62.6665878296,  62.701210022,  62.655216217, 5.75510406494, 5.75510406494, 5.75510406494, 5.75510406494,          -0.5,          -0.5,          -0.5,          -0.5, -0.00427059549838, -0.000894779805094, 2.77054405212, -0.00517955049872, -0.00263298302889, 0.0397170111537, -0.0404025092721, -0.00217143911868
        0.225, -0.0021206010133, -0.00232775998302, 1.00058960915, 0.351799428463, 0.00247419881634, -0.0403614118695, 62.6985092163, 62.6656188965, 62.6989593506, 62.6523628235,  5.7632856369,  5.7632856369,  5.7632856369,  5.7632856369,          -0.5,          -0.5,          -0.5,          -0.5, -0.00491733010858, -0.00150008301716, 2.77040529251, -0.00532564288005, -0.00260469364002, 0.0414783619344, -0.0403848774731, -0.00237093679607
         0.23, -0.00211697490886, -0.00203179428354,  1.0006506443, 0.350185930729, 0.000372986716684, -0.0411404520273, 62.6937255859,  62.664806366, 62.6966629028, 62.6496162415, 5.77187538147, 5.77187538147, 5.77187538147, 5.77187538147,          -0.5,          -0.5,          -0.5,          -0.5, -0.00556792877614, -0.00211459654383, 2.77026700974, -0.00545910792425, -0.00257361028343, 0.0432338602841, -0.0403775796294, -0.00257476163097
        0.235, -0.00210877321661, -0.00170688994695, 1.00064265728, 0.347786217928, -0.00165076414123, -0.0417276322842, 62.6887893677, 62.6643257141, 62.6942977905, 62.6469421387, 5.78089141846, 5.78089141846, 5.78089141846, 5.78089141846,          -0.5,          -0.5,          -0.5,          -0.5, -0.00621983129531, -0.00273532466963, 2.77012872696, -0.00557865109295, -0.00254197511822, 0.0449792519212, -0.0403806902468, -0.00278202444315
         0.24, -0.0020962364506, -0.0013714277884, 1.00057756901, 0.344524055719, -0.00344407302327, -0.0421233922243,  62.683795929, 62.6642036438, 62.6918029785, 62.6443099976, 5.79033613205, 5.79033613205, 5.79033613205, 5.79033613205,          -0.5,          -0.5,          -0.5,          -0.5, -0.00687306933105, -0.00335934595205, 2.76999115944, -0.0056833429262, -0.00251225009561, 0.0467106439173, -0.0403934232891, -0.00299173570238
        0.245, -0.00208491226658, -0.00101572519634, 1.00054132938, 0.340190470219, -0.00492144189775, -0.0423476397991, 62.6789016724,   62.66431427, 62.6891403198, 62.6416854858, 5.80019807816, 5.80019807816, 5.80019807816, 5.80019807816,          -0.5,          -0.5,          -0.5,          -0.5, -0.00752755207941, -0.00398171180859, 2.76985406876, -0.00577253149822, -0.00248579424806, 0.0484230406582, -0.0404142700136, -0.00320300832391
         0.25, -0.00207573524676, -0.000639377336483, 1.00052821636, 0.33480578661, -0.00619618222117, -0.0423902310431, 62.6739692688, 62.6645584106, 62.6863479614, 62.6390838623, 5.81046628952, 5.81046628952, 5.81046628952, 5.81046628952,          -0.5,          -0.5,          -0.5,          -0.5, -0.0081824241206, -0.00459824176505, 2.76971745491, -0.00584518583491, -0.00246076472104, 0.0501111410558, -0.0404419563711, -0.00341495801695
        0.255, -0.0020670464728, -0.000244163471507, 1.00051760674, 0.328358888626, -0.0073049091734, -0.0422455333173, 62.6689109802,  62.664894104, 62.6834487915, 62.6365394592, 5.82113599777, 5.82113599777, 5.82113599777, 5.82113599777,          -0.5,          -0.5,          -0.5,          -0.5, -0.00883665587753, -0.00520678190514,  2.7695813179, -0.0059003601782, -0.00243653729558, 0.0517696738243, -0.0404755957425, -0.00362666021101
         0.26, -0.00205769739114, 0.000168440426933,  1.0004979372, 0.320816904306, -0.00823732279241, -0.0419109873474, 62.6636581421, 62.6652946472,  62.680431366, 62.6340484619, 5.83220243454, 5.83220243454, 5.83220243454, 5.83220243454,          -0.5,          -0.5,          -0.5,          -0.5, -0.00948916375637, -0.00580639578402, 2.76944565773, -0.00593718513846, -0.00241326540709, 0.0533932484686, -0.0405143387616, -0.00383717054501
        0.265, -0.00204769801348, 0.000597160717007, 1.00046336651, 0.312134295702, -0.00895896367729, -0.0413858555257, 62.6581764221, 62.6657409668,  62.677280426, 62.6315956116,  5.8436589241,  5.8436589241,  5.8436589241,  5.8436589241,          -0.5,          -0.5,          -0.5,          -0.5, -0.0101388273761, -0.00639677094296, 2.76931023598, -0.00595485279337, -0.0023915132042, 0.0549762845039, -0.0405572354794, -0.00404553674161
         0.27, -0.00203702202998, 0.00104086729698, 1.00041210651,  0.3022582829, -0.00942614860833, -0.0406707525253, 62.6524467468, 62.6662101746,  62.673992157, 62.6291770935, 5.85549449921, 5.85549449921, 5.85549449921, 5.85549449921,          -0.5,          -0.5,          -0.5,          -0.5, -0.0107844108716, -0.00697772949934, 2.76917529106, -0.00595261016861, -0.002372010611, 0.0565129444003, -0.04060311988, -0.004250805825
        0.275, -0.00202579540201, 0.00149852014147, 1.00034511089, 0.291131913662, -0.00959565397352, -0.0397672951221, 62.6464653015, 62.6666870117, 62.6705474854, 62.6267852783, 5.86769723892, 5.86769723892, 5.86769723892, 5.86769723892,          -0.5,          -0.5,          -0.5,          -0.5, -0.0114245265722, -0.00754893897101,  2.7690410614, -0.00592975178733, -0.00235549523495, 0.057997122407, -0.0406506098807, -0.0044520306401
         0.28, -0.00201472011395, 0.00196913443506, 1.00026464462, 0.278695702553, -0.00943021196872, -0.0386780649424, 62.6402206421, 62.6671676636,  62.666934967, 62.6244010925, 5.88025331497, 5.88025331497, 5.88025331497, 5.88025331497,          -0.5,          -0.5,          -0.5,          -0.5, -0.0120576964691, -0.00810981262475, 2.76890707016, -0.00588561501354, -0.00234261597507, 0.0594224184752, -0.0406981296837, -0.00464827334508
        0.285, -0.0020042010583, 0.00245177629404, 1.00017368793, 0.264888733625, -0.00890162214637, -0.0374064408243, 62.6337242126, 62.6676750183, 62.6631469727, 62.6220283508, 5.89314937592, 5.89314937592, 5.89314937592, 5.89314937592,          -0.5,          -0.5,          -0.5,          -0.5, -0.0126824565232, -0.008659533225, 2.76877379417, -0.00581957865506, -0.00233387690969, 0.0607821270823, -0.0407439209521, -0.00483861193061
         0.29, -0.00199455488473, 0.00294557772577, 1.00007593632, 0.249649256468, -0.00799232255667, -0.0359562374651,  62.626991272, 62.6682128906, 62.6591720581, 62.6196517944, 5.90637350082, 5.90637350082, 5.90637350082, 5.90637350082,          -0.5,          -0.5,          -0.5,          -0.5, -0.0132973864675, -0.00919704791158, 2.76864099503, -0.00573105877265, -0.00232961354777, 0.0620692446828, -0.0407861284912, -0.00502214115113
        0.295, -0.00198619440198, 0.00344973057508, 0.999974608421, 0.232915490866, -0.00669555133209, -0.034331612289, 62.6200256348, 62.6687927246, 62.6550064087,  62.617275238, 5.91991710663, 5.91991710663, 5.91991710663, 5.91991710663,          -0.5,          -0.5,          -0.5,          -0.5, -0.0139011330903, -0.00972109101713,  2.7685084343, -0.00561950588599, -0.0023299891036, 0.0632764473557, -0.0408228263259, -0.0051979762502
          0.3, -0.00197960087098, 0.00396348303184, 0.999872982502, 0.214625954628, -0.00501467520371, -0.0325370579958, 62.6128501892,  62.669418335, 62.6506538391, 62.6148986816, 5.93377351761, 5.93377351761, 5.93377351761, 5.93377351761,          -0.5,          -0.5,          -0.5,          -0.5, -0.0144924679771, -0.0102302618325,  2.7683763504, -0.00548440078273, -0.00233500194736, 0.0643961131573, -0.0408520810306, -0.00536525435746
        0.305, -0.00197516218759, 0.00448613939807, 0.999773979187, 0.194720059633, -0.0029620975256, -0.0305773112923, 62.6054801941, 62.6701087952, 62.6461105347, 62.6125183105, 5.94794034958, 5.94794034958, 5.94794034958, 5.94794034958,          -0.5,          -0.5,          -0.5,          -0.5, -0.0150703564286, -0.0107231317088, 2.76824426651, -0.00532525125891, -0.00234450399876, 0.0654203146696, -0.0408720038831, -0.00552313402295
         0.31, -0.00197246158496, 0.00501832971349, 0.999667286873, 0.173146188259, -0.000549363845494, -0.0284562278539, 62.5979309082,  62.670879364, 62.6413764954, 62.6101417542, 5.96241855621, 5.96241855621, 5.96241855621, 5.96241855621,          -0.5,          -0.5,          -0.5,          -0.5, -0.0156340189278, -0.0111983353272, 2.76811265945, -0.00514157721773, -0.00235835951753, 0.0663408115506, -0.0408807769418, -0.00567079894245
        0.315, -0.00197170814499, 0.00555899739265, 0.999558389187, 0.149898469448, 0.00225291284733, -0.0261717941612, 62.5902137756, 62.6718139648, 62.6364517212, 62.6077613831, 5.97721338272, 5.97721338272, 5.97721338272, 5.97721338272,          -0.5,          -0.5,          -0.5,          -0.5, -0.016183424741, -0.0116545585915,  2.7679810524, -0.00493284501135, -0.0023770944681, 0.0671492666006, -0.0408765226603, -0.00580743467435
         0.32, -0.00197508279234, 0.00610724044964, 0.99947822094, 0.124914422631, 0.00540353404358, -0.0237301848829, 62.5823364258, 62.6728935242, 62.6313247681,  62.605381012, 5.99233055115, 5.99233055115, 5.99233055115, 5.99233055115,          -0.5,          -0.5,          -0.5,          -0.5, -0.016719199717, -0.0120906950906, 2.76784920692, -0.00469865649939, -0.00240010675043, 0.067837163806, -0.0408573746681, -0.00593223422766
        0.325, -0.00199219002388, 0.00667616212741, 0.999565720558, 0.098417006433, 0.00853436812758, -0.0211003664881, 62.5739364624, 62.6741256714,  62.626083374,  62.603061676, 6.00778770447, 6.00778770447, 6.00778770447, 6.00778770447,          -0.5,          -0.5,          -0.5,          -0.5, -0.0172413289547, -0.0125070987269, 2.76771712303, -0.00443815393373, -0.00242155836895, 0.068396165967, -0.0408222936094, -0.00604436080903
         0.33, -0.00201140041463, 0.00724366866052, 0.99961322546, 0.0704579055309, 0.0114969611168, -0.0182748567313, 62.5649604797, 62.6755256653, 62.6207885742, 62.6009063721,   6.023624897,   6.023624897,   6.023624897,   6.023624897,          -0.5,          -0.5,          -0.5,          -0.5, -0.0177492760122, -0.0129087269306, 2.76758408546, -0.00415086466819, -0.00243906164542, 0.0688191056252, -0.0407720468938, -0.00614281883463
        0.335, -0.00203047366813, 0.00781031651422, 0.999640882015, 0.0408778712153, 0.014382568188, -0.0152774387971, 62.5556678772, 62.6771087646, 62.6154212952, 62.5988883972, 6.03988170624, 6.03988170624, 6.03988170624, 6.03988170624,          -0.5,          -0.5,          -0.5,          -0.5, -0.0182423070073, -0.013298785314, 2.76745009422, -0.00383677170612, -0.00245410692878, 0.0690982341766, -0.0407072231174, -0.00622669234872
         0.34, -0.00263078906573, 0.00886017922312, 0.999996483326, 0.00959132704884, 0.0171134267002, -0.0119931530207, 62.5461463928, 62.6813087463, 62.6099472046, 62.5969696045, 6.05665445328, 6.05665445328, 6.05665445328, 6.05665445328,          -0.5,          -0.5,          -0.5,          -0.5, -0.0187262240797, -0.0136800184846, 2.76730799675, -0.00349032552913, -0.00246398407035, 0.0692252218723, -0.0406281724572, -0.00629505608231
        0.345, -0.0051998840645, 0.0120229590684, 1.00252234936, -0.0256371814758, 0.0170012433082, -0.00709254853427, 62.5290870667,  62.709815979, 62.6040344238, 62.5952720642, 6.07557678223, 6.07557678223, 6.07557678223, 6.07557678223,          -0.5,          -0.5,          -0.5,          -0.5, -0.0194831676781, -0.0142322815955, 2.76709318161, -0.00304441363551, -0.00241255247965, 0.0691885948181, -0.0405402630568, -0.0063437144272
         0.35, -0.0117247607559, 0.0168730709702, 1.00995755196, -0.0771201476455, 0.00543749378994, -0.000299700623145, 62.4924278259, 62.7810058594, 62.5963478088, 62.5942344666, 6.10273361206, 6.10273361206, 6.10273361206, 6.10273361206,          -0.5,          -0.5,          -0.5,          -0.5, -0.0217650420964, -0.0159448832273, 2.76666498184, -0.00239903689362, -0.00213346700184, 0.0689423903823, -0.040476128459, -0.00636251317337
        0.355, -0.0215640999377, 0.0212997738272,  1.0205167532, -0.160794258118, -0.0309636350721, 0.00455519556999, 62.4317054749, 62.8839187622, 62.5861129761, 62.5930290222, 6.15191602707, 6.15191602707, 6.15191602707, 6.15191602707,          -0.5,          -0.5,          -0.5,          -0.5, -0.0279121287167, -0.0208772681653, 2.76581430435, -0.00151462608483, -0.0013765397016, 0.0683646574616, -0.0405279397964, -0.00634970050305
         0.36, -0.0280600115657, 0.0232148058712, 1.02744555473, -0.284652769566, -0.0895001664758, 0.00228382623754, 62.3535118103, 62.9668731689, 62.5722198486, 62.5867385864, 6.24103069305, 6.24103069305, 6.24103069305, 6.24103069305,          -0.5,          -0.5,          -0.5,          -0.5, -0.0403503254056, -0.0315243341029, 2.76454210281, -0.00047295447439, -0.000195855769562,  0.0672692433, -0.0408213697374, -0.00632924772799
        0.365, -0.0323631279171, 0.02425744012, 1.02935862541, -0.446506857872, -0.158635184169, -0.00828812737018,  62.266204834,  63.013999939, 62.5568580627, 62.5748939514, 6.38002300262, 6.38002300262, 6.38002300262, 6.38002300262,          -0.5,          -0.5,          -0.5,          -0.5, -0.059458643198, -0.0488603375852, 2.76302051544, 0.000636792508885, 0.00118737260345, 0.0654561072588, -0.0414402708411, -0.00634138006717
         0.37, -0.0342840403318, 0.0266259964556, 1.02717745304, -0.638997077942, -0.225044190884, -0.0248726643622, 62.1751174927, 63.0303916931, 62.5403938293, 62.5587654114, 6.57213783264, 6.57213783264, 6.57213783264, 6.57213783264,          -0.5,          -0.5,          -0.5,          -0.5, -0.0839425623417, -0.0723001733422,  2.7613401413, 0.00182182132266, 0.00254088058136, 0.0627549886703, -0.0424028299749, -0.00642454298213
        0.375, -0.0353024490178, 0.0305255372077, 1.02522611618, -0.861761212349, -0.283310353756, -0.040589813143, 62.0866241455, 63.0678977966, 62.5189704895, 62.5381164551, 6.81569051743, 6.81569051743, 6.81569051743, 6.81569051743,          -0.5,          -0.5,          -0.5,          -0.5, -0.111764766276, -0.100024104118, 2.75959730148, 0.00317553710192, 0.00375530030578, 0.0590169727802, -0.0436761938035, -0.00659067323431
         0.38, -0.0363122485578, 0.0347223766148, 1.02551460266, -1.11776506901, -0.338948339224, -0.0534642189741, 62.0047416687, 63.1941490173, 62.4929275513, 62.5171508789, 7.10722494125, 7.10722494125, 7.10722494125, 7.10722494125,          -0.5,          -0.5,          -0.5,          -0.5, -0.140782505274, -0.129629850388, 2.75780296326, 0.00473754387349, 0.00491324160248, 0.0540836192667, -0.0452311523259, -0.00682864058763
        0.385, -0.0365132689476, 0.0388153977692, 1.02834284306, -1.40929067135, -0.399911701679, -0.0632427185774,  61.940574646, 63.4237861633, 62.4654769897, 62.4986343384, 7.44363117218, 7.44363117218, 7.44363117218, 7.44363117218,          -0.5,          -0.5,          -0.5,          -0.5, -0.169084355235, -0.158846825361, 2.75597214699, 0.00651117274538, 0.00613566767424, 0.0477818511426, -0.0470738895237, -0.00712346192449
         0.39, -0.0348854400218, 0.0426372773945, 1.03313803673, -1.73550975323, -0.47410017252, -0.0695621669292,  61.896068573, 63.6908149719, 62.4396400452,  62.485042572, 7.82042694092, 7.82042694092, 7.82042694092, 7.82042694092,          -0.5,          -0.5,          -0.5,          -0.5, -0.194893747568, -0.185572430491, 2.75417041779, 0.00848679244518, 0.00753279402852, 0.0399346277118, -0.0492513626814, -0.00745880650356
        0.395, -0.0324718393385, 0.046291667968, 1.03886318207, -2.0919482708, -0.567081749439, -0.0719399526715, 61.8655395508,  63.898311615, 62.4189033508,  62.480342865, 8.22978115082, 8.22978115082, 8.22978115082, 8.22978115082,          -0.5,          -0.5,          -0.5,          -0.5, -0.216520965099, -0.207862764597, 2.75247979164, 0.0106529304758, 0.00917352456599, 0.0303782168776, -0.0518453046679, -0.00781570374966
          0.4, -0.0304382089525, 0.049817442894, 1.04446935654, -2.47154593468, -0.679965734482, -0.0715455785394, 61.8383369446, 64.0818939209, 62.4052352905, 62.4869918823, 8.66300678253, 8.66300678253, 8.66300678253, 8.66300678253,          -0.5,          -0.5,          -0.5,          -0.5, -0.232786625624, -0.224415525794, 2.75089216232, 0.0130040701479, 0.0110727772117, 0.0189780332148, -0.0549543760717, -0.00817673653364
        0.405, -0.0279964320362, 0.053194463253, 1.04884958267, -2.8653318882, -0.808889806271, -0.0690041929483, 61.8079833984, 64.2359008789, 62.3985443115, 62.5053443909, 9.11297893524, 9.11297893524, 9.11297893524, 9.11297893524,          -0.5,          -0.5,          -0.5,          -0.5, -0.243364036083, -0.23495900631, 2.74940752983, 0.0155321164057, 0.0131932515651, 0.00564034795389, -0.0586706064641, -0.00852994155139
         0.41, -0.0258065070957, 0.057027194649, 1.05101454258, -3.26404905319, -0.948143482208, -0.0627008527517, 61.7721939087, 64.3072891235, 62.3962249756, 62.5315551758, 9.57248878479, 9.57248878479, 9.57248878479, 9.57248878479,          -0.5,          -0.5,          -0.5,          -0.5, -0.248282298446, -0.239718258381, 2.74804401398, 0.0182458199561, 0.0154462801293, -0.0096823554486, -0.0630602613091, -0.00886126887053
        0.415, -0.0252195931971, 0.06128417328, 1.05056214333, -3.66065454483, -1.08950710297, -0.0503972992301, 61.7322540283, 64.3212585449, 62.3952445984, 62.5626907349, 10.0356531143, 10.0356531143, 10.0356531143, 10.0356531143,          -0.5,          -0.5,          -0.5,          -0.5, -0.247463822365, -0.238929629326, 2.74674415588, 0.0211694538593, 0.0177103858441, -0.0269958246499, -0.0681556463242, -0.00914540421218
         0.42, -0.0255623292178, 0.0657871365547, 1.04695093632, -4.05137872696, -1.22321033478, -0.0301551166922, 61.6983146667, 64.2970428467, 62.3934783936, 62.5971260071, 10.5002756119, 10.5002756119, 10.5002756119, 10.5002756119,          -0.5,          -0.5,          -0.5,          -0.5, -0.240660190582, -0.232761785388, 2.74544286728, 0.0243186410517, 0.0198459904641, -0.0462787039578, -0.0739431902766, -0.00934698339552
        0.425, -0.0265376642346, 0.0703398510814, 1.04081952572, -4.43603229523, -1.33834266663, -0.000590588897467, 61.6691017151, 64.2388000488, 62.3835830688, 62.6319732666, 10.9664039612, 10.9664039612, 10.9664039612, 10.9664039612,          -0.5,          -0.5,          -0.5,          -0.5, -0.22735247016, -0.221155881882, 2.74410271645, 0.0277006868273, 0.0217123236507, -0.0674992203712, -0.0803575739264, -0.00942162424326
         0.43, -0.0273926984519, 0.0747776702046, 1.03190898895, -4.81741666794, -1.42555594444, 0.0381404273212, 61.6344947815, 64.1579742432,  62.358581543, 62.6616096497, 11.4351654053, 11.4351654053, 11.4351654053, 11.4351654053,          -0.5,          -0.5,          -0.5,          -0.5, -0.207089498639, -0.204101726413, 2.74271011353, 0.0313133709133, 0.0231856219471, -0.0906336531043, -0.0872810930014, -0.00932198949158
        0.435, -0.0277690477669, 0.0789802968502, 1.02133309841, -5.19846868515, -1.47853565216, 0.0845736637712, 61.5918045044, 64.0543136597, 62.3166007996, 62.6815681458, 11.9073867798, 11.9073867798, 11.9073867798, 11.9073867798,          -0.5,          -0.5,          -0.5,          -0.5, -0.179853901267, -0.181912690401, 2.74128055573, 0.0351472273469, 0.0241614188999, -0.115673601627, -0.0945565700531, -0.00900500174612
         0.44, -0.027432071045, 0.0830484628677, 1.01064252853, -5.58021211624, -1.49528610706, 0.136368051171, 61.5474891663, 63.9365501404, 62.2606925964, 62.6912193298, 12.3829593658, 12.3829593658, 12.3829593658, 12.3829593658,          -0.5,          -0.5,          -0.5,          -0.5, -0.146519169211, -0.155580237508, 2.73984336853, 0.0391926467419, 0.0246037039906, -0.142621144652, -0.102005459368, -0.00843769591302
        0.445, -0.0266233198345, 0.0871694460511, 1.00132250786, -5.96091079712, -1.47867715359, 0.191358193755, 61.5090713501, 63.8159790039, 62.1952819824, 62.6920433044,  12.860657692,  12.860657692,  12.860657692,  12.860657692,          -0.5,          -0.5,          -0.5,          -0.5, -0.109166517854, -0.127024099231, 2.73843121529, 0.0434473268688, 0.0245542805642, -0.171476647258, -0.109451539814, -0.00759915448725
         0.45, -0.0257990341634, 0.091566182673, 0.993966460228, -6.33730268478, -1.43442153931, 0.249052926898, 61.4768676758, 63.6969108582, 62.1232299805, 62.6855163574, 13.3386583328, 13.3386583328, 13.3386583328, 13.3386583328,          -0.5,          -0.5,          -0.5,          -0.5, -0.0706643313169, -0.0987557321787,  2.7370531559, 0.0479223765433, 0.0241062175483, -0.202227011323, -0.116741366684, -0.00647559482604
        0.455, -0.0250547546893, 0.096100859344, 0.988749980927, -6.70629644394, -1.36900961399, 0.309649795294, 61.4511451721, 63.5783004761, 62.0453720093, 62.6724510193,  13.815246582,  13.815246582,  13.815246582,  13.815246582,          -0.5,          -0.5,          -0.5,          -0.5, -0.033920597285, -0.0732744410634, 2.73570847511, 0.0526306144893, 0.0233669634908, -0.234842807055, -0.123752363026, -0.00505341589451
         0.46, -0.0245444830507, 0.10050329566, 0.985668301582, -7.06581878662, -1.28911936283, 0.372983276844, 61.4348945618, 63.4618225098, 61.9623565674, 62.6538162231, 14.2890405655, 14.2890405655, 14.2890405655, 14.2890405655,          -0.5,          -0.5,          -0.5,          -0.5, -0.00139125913847, -0.0526274368167,  2.7343890667, 0.0575713291764, 0.0224474854767, -0.269281417131, -0.130395039916, -0.00331875751726
        0.465, -0.0243593435735, 0.104722693563, 0.984450161457, -7.41458654404, -1.20086193085, 0.43870267272, 61.4268836975, 63.3558273315, 61.8761482239, 62.6312294006, 14.7592525482, 14.7592525482, 14.7592525482, 14.7592525482,          -0.5,          -0.5,          -0.5,          -0.5, 0.0252823438495, -0.0380825735629, 2.73308181763, 0.0627392753959, 0.0214491542429, -0.3054921031, -0.136612191796, -0.00125928316265
         0.47, -0.0243447683752, 0.108506262302, 0.984775722027, -7.75236225128, -1.10948288441, 0.506128668785, 61.4230690002, 63.2690467834, 61.7894058228, 62.6066017151, 15.2257871628, 15.2257871628, 15.2257871628, 15.2257871628,          -0.5,          -0.5,          -0.5,          -0.5, 0.0451776869595, -0.0302495323122, 2.73177337646, 0.0681203752756, 0.0204575918615, -0.343419998884, -0.142374917865, 0.00113485811744
        0.475, -0.024446470663, 0.111495725811, 0.986358344555, -8.08030509949, -1.0193901062, 0.574191808701, 61.4189147949, 63.1940193176, 61.7040405273,  62.581577301, 15.6888637543, 15.6888637543, 15.6888637543, 15.6888637543,          -0.5,          -0.5,          -0.5,          -0.5, 0.0582087151706, -0.0289789121598, 2.73045921326, 0.0736852735281, 0.0195421483368, -0.383012413979, -0.147678509355, 0.00386935984716
         0.48, -0.0247697681189, 0.11374232918, 0.988658666611, -8.40051078796, -0.933657646179, 0.641401171684, 61.4105377197, 63.1337051392, 61.6208343506, 62.5572814941,  16.148853302,  16.148853302,  16.148853302,  16.148853302,          -0.5,          -0.5,          -0.5,          -0.5, 0.0652171298862, -0.0332788303494,  2.7291302681, 0.0793974325061, 0.0187514647841, -0.42422541976, -0.152537181973, 0.00694331992418
        0.485, -0.0251537729055, 0.115191400051, 0.991272330284, -8.71536159515, -0.854153335094, 0.706317484379, 61.3954086304, 63.0897140503, 61.5400352478, 62.5340538025, 16.6064395905, 16.6064395905, 16.6064395905, 16.6064395905,          -0.5,          -0.5,          -0.5,          -0.5, 0.0676228925586, -0.0416594073176,  2.7277803421, 0.085220515728, 0.0181092955172, -0.467026084661, -0.15697735548, 0.0103485258296
         0.49, -0.0255970805883, 0.115862935781, 0.993825256824, -9.02746963501, -0.781757354736, 0.767640471458, 61.3725967407, 63.0569152832, 61.4620094299, 62.5119285583, 17.0623378754, 17.0623378754, 17.0623378754, 17.0623378754,          -0.5,          -0.5,          -0.5,          -0.5, 0.0672071054578, -0.0523384697735, 2.72640728951, 0.0911176875234, 0.017621146515, -0.5113940835, -0.161032319069, 0.0140700051561
        0.495, -0.026086717844, 0.115829929709, 0.995983600616, -9.3396024704, -0.716658174992, 0.824226081371, 61.3422050476, 63.0343513489, 61.3869361877, 62.4909362793, 17.5172576904, 17.5172576904, 17.5172576904, 17.5172576904,          -0.5,          -0.5,          -0.5,          -0.5, 0.065888851881, -0.0634486079216,  2.7250084877, 0.0970545262098, 0.0172725003213, -0.55732268095, -0.164737939835, 0.0180866792798
          0.5, -0.0265224706382, 0.115194775164, 0.997600257397, -9.65401172638, -0.658045589924, 0.87518543005, 61.3055953979, 63.0186576843, 61.3150978088, 62.4709587097, 17.9718933105, 17.9718933105, 17.9718933105, 17.9718933105,          -0.5,          -0.5,          -0.5,          -0.5, 0.0654902607203, -0.0732528939843, 2.72358417511, 0.10300168395, 0.0170405171812, -0.604817688465, -0.168128922582, 0.022372437641
        0.505, -0.0268978737295, 0.114090144634, 0.998666405678, -9.97247982025, -0.604452252388, 0.919882655144, 61.2646598816,   63.00598526, 61.2463302612, 62.4515647888, 18.4267730713, 18.4267730713, 18.4267730713, 18.4267730713,          -0.5,          -0.5,          -0.5,          -0.5, 0.0675559341908, -0.0803018882871, 2.72213840485, 0.108935244381, 0.0168952662498, -0.653895318508, -0.171233713627, 0.0268973056227
         0.51, -0.0271911248565, 0.112629935145, 0.999196052551, -10.2958908081, -0.554668962955, 0.958024501801, 61.2209091187, 62.9939994812, 61.1801605225, 62.4321060181, 18.8822498322, 18.8822498322, 18.8822498322, 18.8822498322,          -0.5,          -0.5,          -0.5,          -0.5, 0.0732095837593, -0.0835661888123, 2.72067403793, 0.11483810842, 0.0168102346361, -0.704578220844, -0.174074217677, 0.0316289700568
        0.515, -0.0273772943765, 0.110900387168, 0.999203085899, -10.6246461868, -0.507491290569, 0.989580571651, 61.1760368347, 62.9791183472, 61.1162223816, 62.4119567871, 19.3384780884, 19.3384780884, 19.3384780884, 19.3384780884,          -0.5,          -0.5,          -0.5,          -0.5, 0.0830821320415, -0.0825010463595, 2.71919631958, 0.120697923005, 0.0167588368058, -0.756892204285, -0.176666393876, 0.0365342982113
         0.52, -0.0274661257863, 0.108937889338, 0.998768508434, -10.9587688446, -0.461840033531,  1.0146933794, 61.1319160461, 62.9575119019, 61.0544052124, 62.3906898499, 19.7954025269, 19.7954025269, 19.7954025269, 19.7954025269,          -0.5,          -0.5,          -0.5,          -0.5, 0.0973134636879, -0.0770359635353, 2.71771073341, 0.126505449414, 0.0167171545327, -0.810864090919, -0.179020434618, 0.0415804423392
        0.525, -0.0274798963219, 0.106835059822, 0.997964501381, -11.2979393005, -0.416810303926, 1.03363025188, 61.0903587341, 62.9271278381, 60.9946289062, 62.3680725098, 20.2528057098, 20.2528057098, 20.2528057098, 20.2528057098,          -0.5,          -0.5,          -0.5,          -0.5, 0.115623950958, -0.067498922348, 2.71622157097, 0.13225440681, 0.0166654251516, -0.866519987583, -0.181141749024, 0.0467354767025
         0.53, -0.0274303797632, 0.104630053043, 0.996894776821, -11.6414995193, -0.371678650379, 1.04678463936, 61.0529174805, 62.8878555298, 60.9365921021, 62.3438911438, 20.7103672028, 20.7103672028, 20.7103672028, 20.7103672028,          -0.5,          -0.5,          -0.5,          -0.5, 0.137351617217, -0.0545773096383, 2.71473193169, 0.137941882014, 0.0165883377194, -0.92388343811, -0.183031618595, 0.0519691221416
        0.535, -0.027316795662, 0.102343171835, 0.995664894581, -11.9885988235, -0.32596513629, 1.05460453033, 61.0207595825,  62.839931488,  60.879825592, 62.3179397583, 21.1677112579, 21.1677112579, 21.1677112579, 21.1677112579,          -0.5,          -0.5,          -0.5,          -0.5, 0.161541819572, -0.0392292290926, 2.71324563026, 0.143566250801, 0.0164759512991, -0.982974290848, -0.184688359499, 0.0572531297803
         0.54, -0.0271590370685, 0.0999979376793, 0.994181036949, -12.3380222321, -0.279648423195, 1.05753755569, 60.9946060181,  62.783164978, 60.8239746094, 62.2897338867, 21.6244068146, 21.6244068146, 21.6244068146, 21.6244068146,          -0.5,          -0.5,          -0.5,          -0.5, 0.18707947433, -0.0225547198206, 2.71176505089, 0.149127036333, 0.0163188073784, -1.04380738735, -0.186108931899, 0.0625614970922
        0.545, -0.0269758496433, 0.0975487902761, 0.992741942406, -12.6886138916, -0.232847198844, 1.05596339703, 60.9747314453, 62.7177619934, 60.7689933777, 62.2590827942,  22.079990387,  22.079990387,  22.079990387,  22.079990387,          -0.5,          -0.5,          -0.5,          -0.5, 0.212818160653, -0.00567142525688, 2.71029233932, 0.154622629285, 0.0161119457334, -1.10639095306, -0.187291011214, 0.0678702443838
         0.55, -0.0267921220511, 0.0950148180127, 0.991407632828, -13.039557457, -0.185527577996,  1.0503320694, 60.9609146118, 62.6451187134, 60.7149658203, 62.2265167236, 22.5340251923, 22.5340251923, 22.5340251923, 22.5340251923,          -0.5,          -0.5,          -0.5,          -0.5, 0.237688615918, 0.0103886993602, 2.70882821083, 0.160051137209, 0.0158599559218, -1.17072868347, -0.188232302666, 0.073157414794
        0.555, -0.0266144685447, 0.0923893451691, 0.990199685097, -13.3900594711, -0.13779297471, 1.04108321667, 60.9525604248, 62.5675354004,  60.661819458, 62.1925544739, 22.9861412048, 22.9861412048, 22.9861412048, 22.9861412048,          -0.5,          -0.5,          -0.5,          -0.5, 0.26079082489, 0.0247659403831, 2.70737266541, 0.165410712361, 0.0155690247193, -1.23682034016, -0.188930720091, 0.0784032791853
         0.56, -0.0264403279871, 0.0896644741297, 0.989121079445, -13.7394132614, -0.0898392647505, 1.02862632275, 60.9487495422, 62.4872131348, 60.6093177795, 62.1576271057, 23.4360332489, 23.4360332489, 23.4360332489, 23.4360332489,          -0.5,          -0.5,          -0.5,          -0.5, 0.281457990408, 0.0368322432041, 2.70592546463, 0.170699030161, 0.0152458976954,   -1.30466187, -0.189384952188, 0.0835902243853
        0.565, -0.0262674950063, 0.0868343561888, 0.98815202713, -14.0870008469, -0.0419096276164, 1.01333558559, 60.9483680725, 62.4057273865, 60.5572967529, 62.1221199036, 23.8834533691, 23.8834533691, 23.8834533691, 23.8834533691,          -0.5,          -0.5,          -0.5,          -0.5, 0.299291551113, 0.0462229885161, 2.70448637009, 0.17591330409, 0.0148970037699, -1.37424564362, -0.189594820142, 0.0887026041746
         0.57, -0.0260955262929, 0.0838951915503, 0.987202882767, -14.4321393967, 0.00590803753585, 0.995553016663, 60.9502220154,  62.324546814, 60.5057907104, 62.0863761902, 24.3281860352, 24.3281860352, 24.3281860352, 24.3281860352,          -0.5,          -0.5,          -0.5,          -0.5, 0.314162284136, 0.0528367832303, 2.70305609703, 0.181050494313, 0.0145252896473,  -1.445561409, -0.18956117332, 0.0937265455723
        0.575, -0.025928914547, 0.0808207169175, 0.986301004887, -14.7744016647, 0.0535015612841, 0.975583851337, 60.9532318115,  62.245136261, 60.4549407959, 62.0507202148, 24.7700595856, 24.7700595856, 24.7700595856, 24.7700595856,          -0.5,          -0.5,          -0.5,          -0.5, 0.326180696487, 0.0568073987961, 2.70163440704, 0.186106562614, 0.0141329588369, -1.51859533787, -0.189285114408, 0.0986497923732
         0.58, -0.0257640127093, 0.0776469558477, 0.985477626324, -15.1134738922, 0.100655809045, 0.953698515892,  60.956413269, 62.1686401367, 60.4047927856, 62.0153656006, 25.2089347839, 25.2089347839, 25.2089347839, 25.2089347839,          -0.5,          -0.5,          -0.5,          -0.5, 0.335652828217, 0.0584592372179, 2.70022106171, 0.191077783704, 0.0137232886627, -1.59333229065, -0.188768640161, 0.103461533785
        0.585, -0.0255940891802, 0.0743819922209, 0.984703719616, -15.4489402771, 0.14714178443, 0.930156171322, 60.9588775635,  62.095500946, 60.3553276062, 61.9803848267, 25.6447029114, 25.6447029114, 25.6447029114, 25.6447029114,          -0.5,          -0.5,          -0.5,          -0.5, 0.343025684357, 0.0582513213158, 2.69881629944, 0.195961385965, 0.0132995173335, -1.66975545883, -0.188014984131, 0.108152285218
         0.59, -0.0254137981683, 0.0710355639458, 0.983956694603, -15.7803821564, 0.192800462246, 0.905210494995, 60.9599952698, 62.0255279541, 60.3065376282, 61.9458122253,  26.077249527,  26.077249527,  26.077249527,  26.077249527,          -0.5,          -0.5,          -0.5,          -0.5,  0.3488291502, 0.056719571352, 2.69742107391, 0.200754955411, 0.0128635186702, -1.74784553051, -0.187028303742, 0.112713873386
        0.595, -0.0252243354917, 0.0676188990474, 0.98322314024, -16.1073741913, 0.237533628941, 0.879116654396, 60.9594306946, 61.9584541321, 60.2584991455, 61.9116668701, 26.5064563751, 26.5064563751, 26.5064563751, 26.5064563751,          -0.5,          -0.5,          -0.5,          -0.5, 0.353617846966, 0.0544207282364, 2.69603538513, 0.205456539989, 0.0124162444845, -1.82758140564, -0.185813426971, 0.117139391601
          0.6, -0.0250247083604, 0.0641412809491, 0.982483744621, -16.429485321, 0.281290382147, 0.852125406265, 60.9570808411, 61.8941841125, 60.2112998962, 61.8779373169, 26.9322071075, 26.9322071075, 26.9322071075, 26.9322071075,          -0.5,          -0.5,          -0.5,          -0.5, 0.357919514179, 0.0518822483718, 2.69466042519, 0.21006461978, 0.011958074756, -1.90893959999, -0.184375524521, 0.121423237026
        0.605, -0.0248096790165, 0.060610357672, 0.981706023216, -16.7463684082, 0.32395747304, 0.82449400425, 60.9530410767, 61.8325386047, 60.1647872925, 61.8445930481, 27.3543834686, 27.3543834686, 27.3543834686, 27.3543834686,          -0.5,          -0.5,          -0.5,          -0.5, 0.362191051245, 0.0495600365102, 2.69329667091, 0.214577928185, 0.0114872297272, -1.99189484119, -0.182720154524, 0.125561073422
         0.61, -0.0245709363371, 0.0570428371429, 0.980928778648, -17.0575256348, 0.365499436855, 0.796468853951, 60.9475021362, 61.7729568481, 60.1189002991, 61.8115272522, 27.7728557587, 27.7728557587, 27.7728557587, 27.7728557587,          -0.5,          -0.5,          -0.5,          -0.5, 0.366788327694, 0.0478099547327, 2.69194531441, 0.218995824456, 0.0110030611977, -2.07641983032, -0.180853277445, 0.129549846053
        0.615, -0.0242944359779, 0.0533884465694, 0.979967296124, -17.3626441956, 0.406220942736, 0.76822000742,  60.941078186, 61.7146339417, 60.0736274719, 61.7786254883, 28.1874732971, 28.1874732971, 28.1874732971, 28.1874732971,          -0.5,          -0.5,          -0.5,          -0.5, 0.371950238943, 0.0468746572733,  2.6906080246, 0.223316922784, 0.0105015076697, -2.16248488426, -0.178780511022, 0.133387625217
         0.62, -0.0240036584437, 0.0497059337795, 0.97904676199, -17.6616077423, 0.446601003408, 0.739884197712, 60.9345359802, 61.6568450928, 60.0289535522, 61.7458229065, 28.5980529785, 28.5980529785, 28.5980529785, 28.5980529785,          -0.5,          -0.5,          -0.5,          -0.5, 0.377792000771, 0.04688763991, 2.68928647041, 0.227539375424, 0.00997755490243, -2.25005984306, -0.176504746079, 0.137072995305
        0.625, -0.0237085577101, 0.0460080876946, 0.978202342987, -17.9538040161, 0.486564278603, 0.711722612381,  60.927936554, 61.5992088318, 59.9849090576, 61.7130813599,   29.00440979,   29.00440979,   29.00440979,   29.00440979,          -0.5,          -0.5,          -0.5,          -0.5, 0.384319454432, 0.0478757694364, 2.68798089027, 0.231663689017, 0.00943499896675, -2.3391122818, -0.174028247595, 0.140605553985
         0.63, -0.0234143398702, 0.0422976762056, 0.977428019047, -18.238653183, 0.52604830265, 0.683985412121, 60.9213867188, 61.5416107178,  59.941493988, 61.6804580688,  29.406375885,  29.406375885,  29.406375885,  29.406375885,          -0.5,          -0.5,          -0.5,          -0.5, 0.391450017691, 0.0497734025121,  2.6866915226, 0.235690414906, 0.00887739099562, -2.42960691452, -0.171353548765, 0.143986240029
        0.635, -0.0231221225113, 0.0385756269097, 0.976718068123, -18.5156326294, 0.56500595808, 0.656912207603, 60.9150657654, 61.4840316772, 59.8986740112, 61.6480979919, 29.8038005829, 29.8038005829, 29.8038005829, 29.8038005829,          -0.5,          -0.5,          -0.5,          -0.5, 0.399040043354, 0.0524486340582,  2.6854186058, 0.239620059729, 0.00830797012895, -2.52150583267, -0.16848346591, 0.147217184305
         0.64, -0.0228305514902, 0.0348418802023, 0.976065814495, -18.7842712402, 0.603404223919, 0.630720257759, 60.9091072083, 61.4264411926, 59.8564147949, 61.6161689758, 30.1965656281, 30.1965656281, 30.1965656281, 30.1965656281,          -0.5,          -0.5,          -0.5,          -0.5, 0.406910896301, 0.0557291992009, 2.68416237831, 0.243453145027, 0.0077296406962, -2.61476826668, -0.165420934558, 0.150301709771
        0.645, -0.0225368030369, 0.0310958251357, 0.975456297398,  -19.04413414, 0.641225218773, 0.605600655079,  60.903553009, 61.3688735962, 59.8146781921,  61.584815979, 30.5845680237, 30.5845680237, 30.5845680237, 30.5845680237,          -0.5,          -0.5,          -0.5,          -0.5, 0.414870768785, 0.0594245642424,  2.6829226017, 0.247189998627, 0.00714494427666, -2.70935153961, -0.162168964744, 0.153244137764
         0.65, -0.022229263559, 0.0273331422359, 0.974724054337, -19.294549942, 0.678777337074, 0.581719815731, 60.8983001709, 61.3118629456, 59.7733879089,  61.554069519,  30.967716217,  30.967716217,  30.967716217,  30.967716217,          -0.5,          -0.5,          -0.5,          -0.5, 0.42273068428, 0.0633441358805, 2.68170046806, 0.250830799341, 0.0065510859713, -2.80521059036, -0.158730015159, 0.156049668789
        0.655, -0.0219257418066, 0.0235686227679, 0.974141001701, -19.5350017548, 0.716141223907, 0.559221088886, 60.8930892944, 61.2559356689,  59.732460022, 61.5239601135, 31.3459300995, 31.3459300995, 31.3459300995, 31.3459300995,          -0.5,          -0.5,          -0.5,          -0.5, 0.430314689875, 0.0673102214932, 2.68049573898, 0.254375725985, 0.00594878708944, -2.90229606628, -0.155104920268, 0.158724203706
         0.66, -0.0216207876801, 0.0197940170765, 0.973650991917, -19.7651081085, 0.75301450491, 0.538250267506, 60.8874969482, 61.2012138367, 59.6918792725, 61.4945831299, 31.7191333771, 31.7191333771, 31.7191333771, 31.7191333771,          -0.5,          -0.5,          -0.5,          -0.5, 0.437477976084, 0.0711694285274,  2.6793088913, 0.257825553417, 0.00534484209493, -3.00055789948, -0.15129545331, 0.161274433136
        0.665, -0.021305449307, 0.0159983281046, 0.97320073843, -19.9846343994, 0.789360702038,    0.51888448, 60.8812942505, 61.1474571228,  59.651676178,  61.466053009,    32.0872612,    32.0872612,    32.0872612,    32.0872612,          -0.5,          -0.5,          -0.5,          -0.5, 0.444112837315, 0.0748012214899, 2.67814016342, 0.261179924011, 0.00474172225222, -3.09994316101, -0.147304177284, 0.163707599044
         0.67, -0.0209769215435, 0.0121799865738, 0.972783923149, -20.1933345795, 0.825197041035, 0.501181840897, 60.8742752075, 61.0943603516, 59.6119003296, 61.4384918213, 32.4502372742, 32.4502372742, 32.4502372742, 32.4502372742,          -0.5,          -0.5,          -0.5,          -0.5, 0.450150519609, 0.0781242921948, 2.67699074745, 0.264438390732, 0.00414096936584, -3.20039892197, -0.143133580685, 0.166031345725
        0.675, -0.0206366833299, 0.00832118093967, 0.972403585911, -20.3909873962, 0.860551357269, 0.485195308924, 60.8661766052, 61.0419769287, 59.5726051331,   61.41198349,  32.807975769,  32.807975769,  32.807975769,  32.807975769,          -0.5,          -0.5,          -0.5,          -0.5, 0.455559313297, 0.0810959562659, 2.67586088181, 0.267599880695, 0.00354406516999, -3.30186986923, -0.138786002994, 0.168253526092
         0.68, -0.0202841535211, 0.00443607615307, 0.972058773041, -20.5773563385, 0.895441889763, 0.470948517323, 60.8567047119, 60.9906806946, 59.5337677002, 61.3865699768, 33.1603851318, 33.1603851318, 33.1603851318, 33.1603851318,          -0.5,          -0.5,          -0.5,          -0.5, 0.460336357355, 0.0837052091956, 2.67475175858, 0.270663201809, 0.00295251468197, -3.40430092812, -0.134263575077, 0.170382246375
