Time,AxG_S1,AyG_S1,AzG_S1,AVx_S1,AVy_S1,AVz_S1,AVy_L1,AVy_R1,AVy_L2,AVy_R2,My_Dr_L1,My_Dr_R1,My_Dr_L2,My_Dr_R2,My_Bk_L1,My_Bk_R1,My_Bk_L2,My_Bk_R2,StrK_L1,StrK_R1,sv_vx,sv_vy,sv_vz,Roll_E,Pitch,Yaw
            0, -0.0110649447888, -1.64824608563e-18, 1.00287914276,             0,             0,             0, 314.287017822, 314.287017822, 314.287017822, 314.287017822,             0,             0,             0,             0,          -0.5,          -0.5,          -0.5,          -0.5, -9.87841267488e-05, 9.87841267488e-05, 13.8888845444,             0, -0.0108303884044,             0, -0.0446785651147,             0
        0.025, -0.0118825305253, 0.000130400454509, 1.00251948833, 0.00174688221887, 0.012440145947, 0.000474258733448,  314.19519043, 314.204864502, 314.181488037, 314.181518555, 12.0579767227, 12.0579767227, 12.0579767227, 12.0579767227,          -0.5,          -0.5,          -0.5,          -0.5, 0.00466318614781, 0.00501732900739, 13.8854150772, 8.57702798385e-06, -0.0101008946076, 1.42773269545e-05, -0.0444527044892, 1.72182524238e-06
         0.05, -0.00813274737448, 0.000413801986724, 1.00148522854, 0.00688006682321, -0.00321902241558, 0.00468875374645, 314.243377686, 314.248291016, 314.213470459,  314.21496582, 18.5218009949, 18.5218009949, 18.5218009949, 18.5218009949,          -0.5,          -0.5,          -0.5,          -0.5, 0.00851873867214, 0.00896247196943, 13.8828172684, 6.4068386564e-05, -0.00956102088094, 0.000116925977636, -0.0443030484021, 5.72482786083e-05
        0.075, -0.00632229587063, 0.000415202899603, 1.00037312508, 0.0117323677987, -0.0238141827285, 0.0110761709511, 314.253967285,  314.25491333, 314.214111328, 314.218536377, 21.2811431885, 21.2811431885, 21.2811431885, 21.2811431885,          -0.5,          -0.5,          -0.5,          -0.5, 0.00662350188941, 0.00684441113845, 13.8808860779, 0.000123341567814, -0.00942386500537, 0.000355363736162, -0.0446489080787, 0.000254984683124
          0.1, -0.00561745930463, 0.000267658033408, 0.999613285065, 0.0130835929886, -0.0358375348151, 0.0155486864969, 314.233062744, 314.239837646,   314.1925354, 314.199279785, 22.1420440674, 22.1420440674, 22.1420440674, 22.1420440674,          -0.5,          -0.5,          -0.5,          -0.5, 0.00512479804456, 0.00483528990299, 13.8792457581, 0.000121886820125, -0.00962015148252, 0.00067237165058, -0.0454197153449, 0.000593573902734
        0.125, -0.00545184034854, 0.000266104441835, 0.999254345894, 0.0125084919855, -0.0359096936882, 0.0180432815105, 314.197387695, 314.209381104, 314.157897949,  314.16595459, 22.1627731323, 22.1627731323, 22.1627731323, 22.1627731323,          -0.5,          -0.5,          -0.5,          -0.5, 0.00655330577865, 0.00555191328749,  13.877699852, 7.77099994593e-05, -0.00998959131539, 0.000992765533738, -0.0463390760124, 0.00101538572926
         0.15, -0.00552238291129, 0.000365743035218, 0.999230623245, 0.0123233329505, -0.0281684752554, 0.02037098445, 314.157714844, 314.169158936, 314.116851807, 314.126068115, 21.8970985413, 21.8970985413, 21.8970985413, 21.8970985413,          -0.5,          -0.5,          -0.5,          -0.5, 0.00776834087446, 0.00599246285856, 13.8761568069, 3.39839607477e-05, -0.010377026163, 0.00130121340044, -0.047149643302, 0.00149504817091
        0.175, -0.00566462660208, 0.000407328247093, 0.999393641949, 0.0124212997034, -0.0188801288605, 0.0225279293954, 314.116699219, 314.127044678, 314.074188232, 314.084564209, 21.6104679108, 21.6104679108, 21.6104679108, 21.6104679108,          -0.5,          -0.5,          -0.5,          -0.5, 0.00729646906257, 0.00480563612655, 13.8745822906, -5.9783492361e-06, -0.0106896022335, 0.00161063089035, -0.0477352924645, 0.00203276542015
          0.2, -0.00578993558884, 0.000398581672926, 0.999597787857, 0.0119621045887, -0.0123676173389, 0.0235738828778, 314.075592041, 314.087188721, 314.032836914, 314.043884277, 21.4131774902, 21.4131774902, 21.4131774902, 21.4131774902,          -0.5,          -0.5,          -0.5,          -0.5, 0.00665615964681, 0.00357107655145, 13.8729724884, -5.49073447473e-05, -0.0109054120257, 0.00191631552298, -0.0481177344918, 0.00261178868823
        0.225, -0.00585689488798, 0.00041406188393, 0.999752283096, 0.0111086219549, -0.00982587132603, 0.0235296133906, 314.036651611, 314.049255371, 313.993804932, 314.004943848, 21.3363952637, 21.3363952637, 21.3363952637, 21.3363952637,          -0.5,          -0.5,          -0.5,          -0.5, 0.00666231662035, 0.00310356123373,  13.871336937, -0.00010789600492, -0.011048765853, 0.00220440048724, -0.0483874082565, 0.00320218969136
         0.25, -0.0058551481925, 0.000448073929874, 0.999829530716, 0.0103097660467, -0.0102167064324, 0.0229804310948, 314.000518799, 314.012451172, 313.956878662, 313.967803955, 21.3743095398, 21.3743095398, 21.3743095398, 21.3743095398,          -0.5,          -0.5,          -0.5,          -0.5, 0.00660140812397, 0.00265441345982, 13.8696918488, -0.000153061497258, -0.0111580258235, 0.00247142510489, -0.0486336648464, 0.00378422695212
        0.275, -0.00579258147627, 0.000459773727925, 0.999845683575, 0.00945670995861, -0.0117991231382, 0.0220701638609, 313.966278076, 313.977081299, 313.921630859, 313.932159424,  21.506860733,  21.506860733,  21.506860733,  21.506860733,          -0.5,          -0.5,          -0.5,          -0.5, 0.00607523461804, 0.00178477948066,   13.86805439, -0.000188834601431, -0.0112632326782, 0.00271851033904, -0.0489080697298, 0.00434827525169
          0.3, -0.00568454060704, 0.000449533166829, 0.999832987785, 0.00826699566096, -0.0132513511926, 0.0206487793475, 313.933135986,  313.94329834, 313.887756348, 313.897644043, 21.7113342285, 21.7113342285, 21.7113342285, 21.7113342285,          -0.5,          -0.5,          -0.5,          -0.5, 0.00547847291455, 0.000861313368659, 13.8664369583, -0.000218837463763, -0.0113783124834, 0.00294040585868, -0.0492223463953, 0.00488336430863
        0.325, -0.00554627506062, 0.00043817027472, 0.999818563461, 0.00675716716796, -0.0140499444678, 0.0187802035362, 313.901245117, 313.910675049, 313.855072021, 313.864135742, 21.9675807953, 21.9675807953, 21.9675807953, 21.9675807953,          -0.5,          -0.5,          -0.5,          -0.5, 0.00506431935355, 0.000125891412608, 13.8648481369, -0.000242578229518, -0.0115040177479, 0.00312827550806, -0.0495650693774, 0.00537691032514
         0.35, -0.00538923125714, 0.000426663522376, 0.999815940857, 0.0050728903152, -0.0142909856513, 0.0166774243116, 313.870819092, 313.878967285, 313.823547363, 313.831604004, 22.2597007751, 22.2597007751, 22.2597007751, 22.2597007751,          -0.5,          -0.5,          -0.5,          -0.5, 0.00466238567606, -0.00059152423637, 13.8632946014, -0.000257518258877, -0.0116349365562, 0.00327605055645, -0.0499201901257, 0.00582043454051
        0.375, -0.00522050261497, 0.000404991413234, 0.999826312065, 0.00323905795813, -0.0143129918724, 0.0144348563626, 313.841644287, 313.848388672, 313.793151855, 313.800201416,  22.575963974,  22.575963974,  22.575963974,  22.575963974,          -0.5,          -0.5,          -0.5,          -0.5, 0.00414884183556, -0.00141019118018,  13.861779213, -0.000263755471678, -0.0117654548958, 0.00337996403687, -0.0502778664231, 0.00620960863307
          0.4, -0.00504397973418, 0.000372950336896, 0.999844312668, 0.00123091752175, -0.0143978651613, 0.0120486663654,  313.81362915, 313.819061279, 313.763946533, 313.769927979, 22.9080505371, 22.9080505371, 22.9080505371, 22.9080505371,          -0.5,          -0.5,          -0.5,          -0.5, 0.00361294299364, -0.00223738723435, 13.8603048325, -0.000263013964286, -0.0118925757706, 0.00343589205295, -0.050636459142, 0.00654092151672
        0.425, -0.00486185541376, 0.000336371129379, 0.999863803387, -0.000902856234461, -0.0146524999291, 0.0095538655296, 313.786743164, 313.790863037, 313.735931396, 313.740783691,  23.250169754,  23.250169754,  23.250169754,  23.250169754,          -0.5,          -0.5,          -0.5,          -0.5, 0.00312602054328, -0.00300131365657, 13.8588724136, -0.000256092578638, -0.0120159937069, 0.00343992258422, -0.050999250263, 0.00681108282879
         0.45, -0.00467576552182, 0.000296184094623, 0.999879956245, -0.00307975849137, -0.0150377284735, 0.00701999478042, 313.761047363,  313.76373291, 313.709014893, 313.712738037, 23.5983104706, 23.5983104706, 23.5983104706, 23.5983104706,          -0.5,          -0.5,          -0.5,          -0.5, 0.00264884787612, -0.00374308577739, 13.8574848175, -0.000243180373218, -0.0121368430555, 0.00338998599909, -0.0513702109456, 0.00701825832948
        0.475, -0.00448730122298, 0.000250401411904, 0.999888539314, -0.00529388198629, -0.0154969738796, 0.00448682531714, 313.736419678, 313.737640381, 313.683105469,  313.68572998, 23.9497184753, 23.9497184753, 23.9497184753, 23.9497184753,          -0.5,          -0.5,          -0.5,          -0.5, 0.00214638980106, -0.00450045289472, 13.8561401367, -0.000225143929129, -0.0122573720291, 0.00328522734344, -0.0517518222332, 0.00716206803918
          0.5, -0.00429742923006, 0.0001996132778, 0.999893307686, -0.00751364091411, -0.0159619059414, 0.00195144466124, 313.712799072, 313.712585449, 313.658294678, 313.659790039, 24.3025093079, 24.3025093079, 24.3025093079, 24.3025093079,          -0.5,          -0.5,          -0.5,          -0.5, 0.00163949478883, -0.00525486189872, 13.8548412323, -0.000203051429708, -0.0123790167272, 0.00312506896444, -0.0521450936794, 0.00724252825603
        0.525, -0.00410719029605, 0.00014530106273, 0.999895393848, -0.00971900857985, -0.0164093580097, -0.000579557614401, 313.690185547, 313.688568115, 313.634521484, 313.634887695, 24.6554012299, 24.6554012299, 24.6554012299, 24.6554012299,          -0.5,          -0.5,          -0.5,          -0.5, 0.00114757975098, -0.00598829751834, 13.8535871506, -0.000177737194463, -0.0125026777387, 0.00290956092067, -0.0525497831404, 0.00725963152945
         0.55, -0.00391703564674, 8.80934821907e-05, 0.999899804592, -0.0118521461263, -0.0168226137757, -0.00309308967553, 313.668548584, 313.665527344, 313.611724854, 313.610992432, 25.0075340271, 25.0075340271, 25.0075340271, 25.0075340271,          -0.5,          -0.5,          -0.5,          -0.5, 0.000660334189888, -0.00671168090776, 13.8523778915, -0.000149785060785, -0.0126282135025, 0.00263975164853, -0.0529652796686, 0.00721365818754
        0.575, -0.00372732826509, 2.74888716376e-05, 0.999907672405, -0.0138641810045, -0.0171776581556, -0.00558618828654, 313.647888184, 313.643463135, 313.589935303,  313.58807373, 25.3583164215, 25.3583164215, 25.3583164215, 25.3583164215,          -0.5,          -0.5,          -0.5,          -0.5, 0.000166352707311, -0.00743657443672, 13.8512125015, -0.000119860073028, -0.0127545520663, 0.00231811194681, -0.053390417248, 0.00710511114448
          0.6, -0.00353839900345, -3.64712905139e-05, 0.999917805195, -0.0157287195325, -0.0174629483372, -0.00806489121169, 313.628204346, 313.622406006, 313.569091797, 313.566162109, 25.7073497772, 25.7073497772, 25.7073497772, 25.7073497772,          -0.5,          -0.5,          -0.5,          -0.5, -0.000330917479005, -0.00815955456346, 13.8500928879, -8.87039641384e-05, -0.0128805739805, 0.00194803264458, -0.0538235642016, 0.00693443324417
        0.625, -0.00335048232228, -0.000103163780295, 0.999928772449, -0.0174278914928, -0.017680151388, -0.0105340136215, 313.609436035, 313.602294922, 313.549224854, 313.545196533, 26.0543422699, 26.0543422699, 26.0543422699, 26.0543422699,          -0.5,          -0.5,          -0.5,          -0.5, -0.000826867704745, -0.00887608714402, 13.8490171432, -5.69398944208e-05, -0.0130054904148, 0.00153343298007, -0.054262984544, 0.0067019155249
         0.65, -0.00316372630186, -0.000172178464709, 0.99993956089, -0.0189486611634, -0.0178355388343, -0.0129955634475, 313.591583252, 313.583129883, 313.530334473,  313.52520752, 26.3990840912, 26.3990840912, 26.3990840912, 26.3990840912,          -0.5,          -0.5,          -0.5,          -0.5, -0.00132430635858, -0.00958916731179, 13.8479852676, -2.50521679845e-05, -0.0131288366392, 0.0010786249768, -0.0547070465982, 0.00640777219087
        0.675, -0.00297823618166, -0.000243363814661, 0.999949634075, -0.0202862247825, -0.0179348345846, -0.0154529968277, 313.574707031, 313.564941406, 313.512420654, 313.506164551, 26.7414112091, 26.7414112091, 26.7414112091, 26.7414112091,          -0.5,          -0.5,          -0.5,          -0.5, -0.001826683525, -0.0103025315329,  13.846997261, 6.53224333291e-06, -0.0132503770292, 0.000588147842791, -0.0551542825997, 0.00605215551332
          0.7, -0.00279410346411, -0.000316449993988, 0.999958574772, -0.0214427821338, -0.0179827194661, -0.0179115664214,  313.55871582, 313.547668457, 313.495422363, 313.488067627, 27.0811843872, 27.0811843872, 27.0811843872, 27.0811843872,          -0.5,          -0.5,          -0.5,          -0.5, -0.00233337236568, -0.0110158938915, 13.8460521698, 3.74407463823e-05, -0.0133700212464, 6.65654879413e-05, -0.055603351444, 0.00563510321081
        0.725, -0.00261141592637, -0.000391034700442, 0.999966263771, -0.0224238969386, -0.0179839823395, -0.0203756224364, 313.543670654, 313.531311035, 313.479400635, 313.470916748, 27.4182834625, 27.4182834625, 27.4182834625, 27.4182834625,          -0.5,          -0.5,          -0.5,          -0.5, -0.0028429471422, -0.0117281684652, 13.8451509476, 6.73980175634e-05, -0.0134877571836, -0.000481660594232, -0.0560530275106, 0.00515652960166
         0.75, -0.00243025575764, -0.000466789788334, 0.999972879887, -0.0232375189662, -0.0179442372173, -0.0228479206562, 313.529510498, 313.515899658, 313.464324951, 313.454681396, 27.7525939941, 27.7525939941, 27.7525939941, 27.7525939941,          -0.5,          -0.5,          -0.5,          -0.5, -0.00335575267673, -0.0124400081113,  13.844291687, 9.62238773354e-05, -0.0136036127806, -0.0010522371158, -0.0565022192895, 0.00461626052856
        0.775, -0.00225069816224, -0.000543485919479, 0.999978363514, -0.0238944347948, -0.0178697947413, -0.025330690667, 313.516235352, 313.501373291, 313.450164795, 313.439331055, 28.0840072632, 28.0840072632, 28.0840072632, 28.0840072632,          -0.5,          -0.5,          -0.5,          -0.5, -0.00387236406095, -0.0131522491574, 13.8434753418, 0.000123801553855, -0.0137176355347, -0.00164110446349, -0.0569499731064, 0.00401406222954
          0.8, -0.00207281042822, -0.000620893901214, 0.999982893467, -0.0244075842202, -0.0177670698613, -0.0278258509934, 313.503875732, 313.487762451, 313.436920166, 313.424926758, 28.4124145508, 28.4124145508, 28.4124145508, 28.4124145508,          -0.5,          -0.5,          -0.5,          -0.5, -0.00439224857837, -0.0138645796105, 13.8427009583, 0.000150065112393, -0.0138298841193, -0.00224450253882, -0.0573955103755, 0.00334964739159
        0.825, -0.00189663923811, -0.00069136248203, 0.999986588955, -0.0246266257018, -0.0176419671625, -0.0303401276469, 313.491333008, 313.476074219, 313.424621582, 313.411407471, 28.7377128601, 28.7377128601, 28.7377128601, 28.7377128601,          -0.5,          -0.5,          -0.5,          -0.5, -0.0043100239709, -0.0139718046412, 13.8419675827, 0.000175261142431, -0.0139404227957, -0.00285832141526, -0.0578381940722, 0.00262263487093
         0.85, -0.00172212766483, -0.000432882516179, 0.999989569187, -0.0198301114142, -0.0174996219575, -0.0315236188471, 313.465179443, 313.479797363, 313.413146973, 313.398803711, 29.0597934723, 29.0597934723, 29.0597934723, 29.0597934723,          -0.5,          -0.5,          -0.5,          -0.5, 0.00879603158683, -0.00105236284435, 13.8412752151, 0.000223392577027, -0.0140493251383, -0.00343801570125, -0.0582775399089, 0.00184060144238
        0.875, -0.00155025359709, 0.001570718945, 0.999977707863, 0.0127222975716, -0.0172997321934, -0.0176221486181, 313.409820557, 313.514373779,  313.40057373, 313.389068604, 29.3785495758, 29.3785495758, 29.3785495758, 29.3785495758,          -0.5,          -0.5,          -0.5,          -0.5, 0.0689472928643, 0.0589154325426, 13.8406238556, 0.000486132601509, -0.0141572235152, -0.00362337194383, -0.0587130114436, 0.00116389978211
          0.9, -0.00139696872793, 0.00681473268196, 0.999929368496, 0.113064497709, -0.0168113876134, 0.0494945347309, 313.338867188, 313.565979004, 313.379180908,  313.38949585, 29.6939525604, 29.6939525604, 29.6939525604, 29.6939525604,          -0.5,          -0.5,          -0.5,          -0.5, 0.193875536323, 0.183676451445, 13.8400115967, 0.00139967177529, -0.0142699154094, -0.0022338856943, -0.0591390952468, 0.0013998845825
        0.925, -0.00129309762269, 0.0150109780952, 0.999885201454, 0.311670213938, -0.0170179717243, 0.216052338481, 313.259399414, 313.625549316,  313.33782959, 313.410858154, 30.0066394806, 30.0066394806, 30.0066394806, 30.0066394806,          -0.5,          -0.5,          -0.5,          -0.5, 0.366890490055, 0.35653039813, 13.8394289017, 0.00328424246982, -0.0143944472075, 0.00285278703086, -0.0595594495535, 0.00447244057432
         0.95, -0.0012564198114, 0.0250761117786, 0.999679267406, 0.612148821354, -0.0185333117843, 0.511379301548, 313.153747559, 313.711914062, 313.269287109,   313.4609375, 30.3186435699, 30.3186435699, 30.3186435699, 30.3186435699,          -0.5,          -0.5,          -0.5,          -0.5, 0.573247015476, 0.562694549561, 13.8388624191, 0.00600141054019, -0.0145504027605, 0.014189152047, -0.0600030124187, 0.0132793914527
        0.975, -0.00130595383234, 0.036853171885, 0.999339997768, 1.00518286228, -0.0204754378647, 0.948430657387, 313.007537842, 313.841644287, 313.169219971, 313.542999268, 30.6334114075, 30.6334114075, 30.6334114075, 30.6334114075,          -0.5,          -0.5,          -0.5,          -0.5, 0.814393460751, 0.803700327873, 13.8382949829, 0.00911500491202, -0.0147898858413, 0.0342046916485, -0.0604971721768, 0.031222531572
            1, -0.00145949108992, 0.0505386739969, 0.998870611191, 1.48056292534, -0.0222931690514, 1.53329181671, 312.823272705, 314.008728027, 313.034973145, 313.658660889, 30.9558010101, 30.9558010101, 30.9558010101, 30.9558010101,          -0.5,          -0.5,          -0.5,          -0.5,  1.0900683403,  1.0793390274, 13.8377037048, 0.0121583258733, -0.0151410261169, 0.065084643662, -0.0610608570278, 0.0619352199137
        1.025, -0.00172462360933, 0.0663336291909, 0.998484611511,   2.027364254, -0.0221022795886, 2.26372385025,  312.60748291, 314.205474854, 312.866149902, 313.806640625,   31.29205513,   31.29205513,   31.29205513,   31.29205513,          -0.5,          -0.5,          -0.5,          -0.5, 1.39051651955, 1.37980723381, 13.8370637894, 0.0146697238088, -0.0156306698918, 0.108740083873, -0.0616950392723, 0.109098359942
         1.05, -0.00217874976806, 0.0841806605458, 0.998910725117, 2.64449357986, -0.0183342434466, 3.13213825226, 312.361358643, 314.434814453, 312.668121338, 313.985351562,    31.6497612,    31.6497612,    31.6497612,    31.6497612,          -0.5,          -0.5,          -0.5,          -0.5, 1.70609104633,  1.6953625679, 13.8363409042, 0.0162613224238, -0.0160887092352, 0.166920006275, -0.0623600073159,  0.1762688905
        1.075, -0.00270492606796, 0.103623911738, 1.00006961823, 3.32416915894, -0.013654185459, 4.12348985672,   312.0859375, 314.697143555, 312.435333252, 314.193054199, 32.0388031006, 32.0388031006, 32.0388031006, 32.0388031006,          -0.5,          -0.5,          -0.5,          -0.5, 2.03206253052,  2.0209941864, 13.8355016708, 0.0165267046541, -0.0163764897734, 0.241310447454, -0.0630884617567, 0.266729146242
          1.1, -0.00337799056433, 0.124808132648, 1.00281715393,  4.0654630661, -0.00969483796507, 5.21385478973, 311.776062012, 314.980987549, 312.182525635, 314.423950195, 32.4685211182, 32.4685211182, 32.4685211182, 32.4685211182,          -0.5,          -0.5,          -0.5,          -0.5, 2.36640119553, 2.35449385643, 13.8345193863, 0.0150997024029, -0.0161040537059, 0.333423912525, -0.0639564543962, 0.383256465197
        1.125, -0.00416506640613, 0.147913783789, 1.00554680824, 4.86149978638, -0.00805812049657, 6.38525247574, 311.448455811,  315.27532959, 311.907531738, 314.672363281, 32.9493865967, 32.9493865967, 32.9493865967, 32.9493865967,          -0.5,          -0.5,          -0.5,          -0.5, 2.70262503624,  2.6889424324, 13.8333539963, 0.0118371993303, -0.0151578709483, 0.444746345282, -0.0651601329446, 0.528090715408
         1.15, -0.00501177366823, 0.172227591276, 1.00823271275, 5.69631195068, -0.00718034710735, 7.61537885666, 311.110626221, 315.575256348, 311.615478516, 314.933380127,   33.49243927,   33.49243927,   33.49243927,   33.49243927,          -0.5,          -0.5,          -0.5,          -0.5, 3.03064537048, 3.01414322853, 13.8319768906, 0.00662988005206, -0.0135176014155, 0.576462447643, -0.06690890342, 0.702998161316
        1.175, -0.00588403502479, 0.197586730123, 1.00993275642, 6.54263353348, -0.00423520430923, 8.87438869476,  310.76385498, 315.882232666, 311.318878174, 315.199310303, 34.1078872681, 34.1078872681, 34.1078872681, 34.1078872681,          -0.5,          -0.5,          -0.5,          -0.5, 3.35232710838, 3.33150744438, 13.8303613663, -0.000650317815598, -0.0112987477332, 0.729201674461, -0.0694107785821, 0.909067749977
          1.2, -0.00677173770964, 0.224720224738, 1.01070511341, 7.38435840607, 0.00593554228544, 10.1462926865, 310.413909912, 316.180847168, 311.019500732, 315.463623047, 34.8050384521, 34.8050384521, 34.8050384521, 34.8050384521,          -0.5,          -0.5,          -0.5,          -0.5, 3.66916179657,  3.6419634819, 13.8284845352, -0.00980245042592, -0.00871398113668,  0.9030200243, -0.0727953985333, 1.14678561687
        1.225, -0.00762336654589, 0.252447396517, 1.01089453697, 8.20073413849, 0.0258933398873, 11.4174051285, 310.070678711, 316.455963135, 310.716430664, 315.722015381, 35.5925636292, 35.5925636292, 35.5925636292, 35.5925636292,          -0.5,          -0.5,          -0.5,          -0.5, 3.96616339684, 3.93004536629, 13.8263263702, -0.0206634458154, -0.0058785751462, 1.09756422043, -0.0771283507347, 1.41632509232
         1.25, -0.00841012503952, 0.280225425959, 1.01028597355, 8.96167564392, 0.0582186765969, 12.6601333618, 309.731750488, 316.714813232, 310.418670654,  315.96786499, 36.4775390625, 36.4775390625, 36.4775390625, 36.4775390625,          -0.5,          -0.5,          -0.5,          -0.5, 4.24058294296, 4.19260263443, 13.8238792419, -0.0331812277436, -0.0028624185361, 1.31182050705, -0.0824381634593,  1.7173371315
        1.275, -0.00916158035398, 0.308763444424, 1.00893247128, 9.64753913879, 0.105829484761, 13.8556642532, 309.408966064, 316.950531006, 310.137542725, 316.196228027, 37.4658699036, 37.4658699036, 37.4658699036, 37.4658699036,          -0.5,          -0.5,          -0.5,          -0.5,  4.5011973381, 4.43825387955, 13.8211250305, -0.0470867007971, 0.000234995022765, 1.54410994053, -0.0886865854263, 2.04883885384
          1.3, -0.00976639520377, 0.336790919304,  1.0066151619, 10.2384681702, 0.171582117677, 14.9972496033,  309.11819458, 317.144592285, 309.866027832,  316.40447998, 38.5629501343, 38.5629501343, 38.5629501343, 38.5629501343,          -0.5,          -0.5,          -0.5,          -0.5, 4.73934412003, 4.65812778473, 13.8180627823, -0.062062650919, 0.00333906081505, 1.79234111309, -0.0957675725222, 2.40956926346
        1.325, -0.0101845627651, 0.363805413246, 1.00338375568, 10.6958789825, 0.258588075638, 16.0716438293, 308.862182617, 317.301849365, 309.603210449, 316.587463379, 39.7709121704, 39.7709121704, 39.7709121704, 39.7709121704,          -0.5,          -0.5,          -0.5,          -0.5, 4.94561767578, 4.84268569946, 13.8147106171, -0.0780568793416, 0.00632304511964,  2.0536506176, -0.103478133678, 2.79805135727
         1.35, -0.0103990575299, 0.38979139924, 0.999243021011, 10.9964838028, 0.365817815065, 17.0575771332, 308.639099121,  317.42565918, 309.354125977,  316.74206543, 41.0882110596, 41.0882110596, 41.0882110596, 41.0882110596,          -0.5,          -0.5,          -0.5,          -0.5, 5.12224626541, 4.99418973923, 13.8110990524, -0.0948822125793, 0.00912600755692, 2.32437205315, -0.11154768616, 3.21236658096
        1.375, -0.0105733908713, 0.415062010288, 0.994460582733, 11.1310462952, 0.490480691195,  17.946811676, 308.464172363, 317.508178711, 309.136230469, 316.866149902, 42.5113792419, 42.5113792419, 42.5113792419, 42.5113792419,          -0.5,          -0.5,          -0.5,          -0.5, 5.27287197113, 5.11640167236, 13.8072366714, -0.112170092762, 0.0116634741426, 2.60042858124, -0.119704924524, 3.65016961098
          1.4, -0.0104670180008, 0.438256204128, 0.989288210869, 11.0872983932, 0.627915084362, 18.7415180206, 308.348297119, 317.546386719, 308.957183838, 316.962860107, 44.0375213623, 44.0375213623, 44.0375213623, 44.0375213623,          -0.5,          -0.5,          -0.5,          -0.5, 5.39240312576, 5.20450973511, 13.8031520844, -0.129749983549, 0.0139103950933, 2.87755346298, -0.127694576979, 4.10912466049
        1.425, -0.0101520279422, 0.460091263056, 0.983811616898, 10.8609304428, 0.772646486759, 19.4323654175, 308.289581299, 317.546142578,  308.80770874, 317.035766602, 45.6591262817, 45.6591262817, 45.6591262817, 45.6591262817,          -0.5,          -0.5,          -0.5,          -0.5, 5.47657394409, 5.25462388992, 13.7988967896, -0.147413760424, 0.0158350560814, 3.15118432045, -0.135337457061, 4.58678531647
         1.45, -0.00961312837899, 0.480079561472, 0.978240787983, 10.4607028961, 0.920552253723, 20.0107517242, 308.291534424, 317.511871338, 308.692382812, 317.081481934, 47.3657951355, 47.3657951355, 47.3657951355, 47.3657951355,          -0.5,          -0.5,          -0.5,          -0.5,  5.5259809494, 5.26796197891, 13.7945241928, -0.16485889256, 0.0174138210714, 3.41686105728, -0.142481654882, 5.08046770096
        1.475, -0.00883543025702, 0.497374773026, 0.972509682178, 9.88900947571, 1.06807804108, 20.4807872772, 308.356750488, 317.446044922, 308.617584229, 317.103637695, 49.1445198059, 49.1445198059, 49.1445198059, 49.1445198059,          -0.5,          -0.5,          -0.5,          -0.5, 5.54228210449, 5.24689292908, 13.7900943756, -0.181977853179, 0.0186016298831, 3.67029500008, -0.148980408907, 5.58740377426
          1.5, -0.00783131457865, 0.512887895107, 0.966709673405, 9.15958881378, 1.21299743652, 20.8402938843,  308.48526001, 317.351470947, 308.594451904, 317.103027344, 50.9800071716, 50.9800071716, 50.9800071716, 50.9800071716,          -0.5,          -0.5,          -0.5,          -0.5, 5.52562522888, 5.19232320786, 13.7856693268, -0.198579758406, 0.0193437393755, 3.90733599663, -0.154684260488, 6.10491609573
        1.525, -0.00662411097437, 0.526533424854, 0.960802972317, 8.29607391357, 1.35089206696,   21.08152771,   308.6769104, 317.230041504,  308.61618042, 317.078887939, 52.8550720215, 52.8550720215, 52.8550720215, 52.8550720215,          -0.5,          -0.5,          -0.5,          -0.5, 5.47590875626, 5.10501432419, 13.7813205719, -0.214350566268, 0.0195690505207, 4.12434768677, -0.159426823258, 6.63015079498
         1.55, -0.00522109679878, 0.536938428879, 0.954817533493, 7.31333303452, 1.47587513924, 21.2089138031,  308.92477417, 317.086242676, 308.684448242, 317.035858154, 54.7512664795, 54.7512664795, 54.7512664795, 54.7512664795,          -0.5,          -0.5,          -0.5,          -0.5, 5.39258003235, 4.98535490036, 13.7771120071, -0.229101657867, 0.019154407084, 4.31822109222, -0.163109630346, 7.16017341614
        1.575, -0.00357982493006, 0.544860064983, 0.949118435383, 6.21726560593,  1.5893458128, 21.2285690308, 309.221954346, 316.925537109,    308.796875, 316.976654053, 56.6484489441, 56.6484489441, 56.6484489441, 56.6484489441,          -0.5,          -0.5,          -0.5,          -0.5, 5.27531099319, 4.83427810669, 13.7731266022, -0.242805212736, 0.0180090796202, 4.48604631424, -0.165635153651, 7.69225215912
          1.6, -0.00174655532464, 0.550640583038, 0.94369995594, 5.02868795395, 1.68746209145, 21.1340522766, 309.555450439, 316.751556396, 308.937408447, 316.900909424, 58.5244255066, 58.5244255066, 58.5244255066, 58.5244255066,          -0.5,          -0.5,          -0.5,          -0.5, 5.12567520142, 4.65443325043, 13.7694416046, -0.255250602961, 0.0161048918962, 4.62524080276, -0.166871413589, 8.22361469269
        1.625, 0.000263465830358, 0.554308712482, 0.938932001591, 3.77754974365, 1.76880574226,  20.921497345, 309.901611328, 316.565948486, 309.093322754, 316.804168701,  60.356098175,  60.356098175,  60.356098175,  60.356098175,          -0.5,          -0.5,          -0.5,          -0.5, 4.94499921799, 4.44782924652, 13.7661371231, -0.266115397215, 0.0134035013616, 4.73388051987, -0.166710287333, 8.75133228302
         1.65, 0.00239074788988, 0.554791688919, 0.934762120247, 2.48864555359, 1.83032846451, 20.5960197449, 310.227142334, 316.371856689, 309.261260986, 316.689208984, 62.1196746826, 62.1196746826, 62.1196746826, 62.1196746826,          -0.5,          -0.5,          -0.5,          -0.5, 4.73254728317, 4.21464109421, 13.7632875443, -0.275229275227, 0.00996599253267, 4.81075429916, -0.165041878819, 9.27248001099
        1.675, 0.00463316449896, 0.552505493164, 0.931196331978,  1.1841930151, 1.86383593082, 20.1608791351, 310.506439209, 316.174713135, 309.420410156, 316.561340332, 63.7918739319, 63.7918739319, 63.7918739319, 63.7918739319,          -0.5,          -0.5,          -0.5,          -0.5, 4.48830461502,  3.9556825161, 13.7609586716, -0.282520115376, 0.00572822056711, 4.85521411896, -0.161933451891, 9.78425502777
          1.7, 0.00694737676531, 0.548001766205, 0.930127024651, -0.105058602989, 1.86220192909, 19.6171226501,  310.70916748, 315.979217529, 309.559814453, 316.428985596, 65.3502044678, 65.3502044678, 65.3502044678, 65.3502044678,          -0.5,          -0.5,          -0.5,          -0.5, 4.21402025223, 3.67314934731, 13.7592077255, -0.287841826677, 0.00075979687972, 4.86720752716, -0.157617673278, 10.2838697433
        1.725, 0.00953439343721, 0.541689991951, 0.932751715183, -1.31452596188, 1.82536542416, 18.9617023468, 310.762969971, 315.789489746, 309.675964355, 316.295043945, 66.7724456787, 66.7724456787, 66.7724456787, 66.7724456787,          -0.5,          -0.5,          -0.5,          -0.5, 3.91234922409, 3.36827754974, 13.7581205368, -0.290851384401, -0.00422464124858, 4.84791564941, -0.15249542892,  10.768535614
         1.75, 0.0121052805334, 0.532789766788, 0.936552643776, -2.3973429203, 1.76616203785, 18.1748638153, 310.645599365, 315.604492188, 309.693145752, 316.138824463, 68.0321578979, 68.0321578979, 68.0321578979, 68.0321578979,          -0.5,          -0.5,          -0.5,          -0.5, 3.58931326866, 3.04685020447, 13.7577896118, -0.291232138872, -0.00886660721153, 4.80002117157, -0.14680737257, 11.2351636887
        1.775, 0.0139728588983, 0.520333349705, 0.942252159119, -3.35182666779, 1.69469428062, 17.2539043427, 310.490386963, 315.404602051, 309.624481201, 315.960174561,  69.110206604,  69.110206604,  69.110206604,  69.110206604,          -0.5,          -0.5,          -0.5,          -0.5, 3.24637246132, 2.71214604378, 13.7581472397, -0.288810670376, -0.0128384307027, 4.72678947449, -0.140496462584, 11.6803607941
          1.8, 0.0154479024932, 0.503277540207, 0.946228384972, -4.2172870636, 1.62315928936,  16.204788208, 310.396911621, 315.190246582, 309.608184814, 315.755187988, 70.0061721802, 70.0061721802, 70.0061721802, 70.0061721802,          -0.5,          -0.5,          -0.5,          -0.5, 2.88667464256, 2.36604833603, 13.7590923309, -0.283728331327, -0.0161570943892, 4.63105535507, -0.133324712515, 12.1008472443
        1.825, 0.0166701301932, 0.483886063099, 0.949312508106, -5.03654766083,  1.5476962328, 15.0441293716, 310.385803223, 314.962463379, 309.662750244, 315.530273438, 70.7261123657, 70.7261123657, 70.7261123657, 70.7261123657,          -0.5,          -0.5,          -0.5,          -0.5, 2.52420449257, 2.02123570442, 13.7605819702, -0.276046216488, -0.0192240923643, 4.51440906525, -0.124962426722, 12.4935846329
         1.85, 0.017555758357, 0.462027072906, 0.952752530575, -5.81280088425, 1.45568609238, 13.7907238007, 310.470458984,  314.71887207, 309.757904053, 315.295837402, 71.2769088745, 71.2769088745, 71.2769088745, 71.2769088745,          -0.5,          -0.5,          -0.5,          -0.5, 2.15241599083, 1.67061853409, 13.7625722885, -0.265581309795, -0.0221180636436, 4.37794542313, -0.115462735295, 12.8560314178
        1.875, 0.0183372665197, 0.436100155115, 0.956398546696, -6.57107210159, 1.34450960159, 12.4555473328, 310.645111084, 314.483673096, 309.886444092, 315.052062988, 71.6667175293, 71.6667175293, 71.6667175293, 71.6667175293,          -0.5,          -0.5,          -0.5,          -0.5, 1.76864635944, 1.31139028072, 13.7650327682, -0.252618253231, -0.0248719677329, 4.22250127792, -0.105149403214, 13.1859703064
          1.9, 0.0189026687294, 0.408192515373, 0.960173487663, -7.32377099991, 1.21462154388, 11.0540981293, 310.880279541, 314.245147705, 310.052124023, 314.803405762,  71.902015686,  71.902015686,  71.902015686,  71.902015686,          -0.5,          -0.5,          -0.5,          -0.5, 1.38434422016, 0.954824864864, 13.7679347992, -0.237322002649, -0.02749119699, 4.04828977585, -0.0944242700934, 13.4815092087
        1.925, 0.0191462375224, 0.378012120724, 0.964263141155, -8.07627677917, 1.06628596783, 9.59672164917, 311.211212158, 313.987670898, 310.261810303, 314.552307129, 71.9918899536, 71.9918899536, 71.9918899536, 71.9918899536,          -0.5,          -0.5,          -0.5,          -0.5, 0.995803833008, 0.596142590046, 13.7711992264, -0.219756126404, -0.0300789158791,  3.8553917408, -0.0837593898177, 13.7411117554
         1.95, 0.0193070601672, 0.344193607569, 0.96860986948, -8.8437871933, 0.900702357292, 8.09799003601, 311.598724365, 313.725891113, 310.530578613, 314.306427002, 71.9489135742, 71.9489135742, 71.9489135742, 71.9489135742,          -0.5,          -0.5,          -0.5,          -0.5, 0.601758182049, 0.233186796308, 13.7747802734, -0.200284838676, -0.0326583199203, 3.64363837242, -0.0736734569073, 13.9634895325
        1.975, 0.0194140709937, 0.308277964592, 0.97373175621, -9.63621234894, 0.716959655285, 6.57238912582, 312.008453369,  313.48147583, 310.835449219, 314.068786621, 71.7843856812, 71.7843856812, 71.7843856812, 71.7843856812,          -0.5,          -0.5,          -0.5,          -0.5, 0.201801970601, -0.134825095534,  13.778635025, -0.17933498323, -0.0351616889238, 3.41246032715, -0.0647604912519, 14.1478300095
            2, 0.0192162301391, 0.270109444857, 0.979075193405, -10.4439535141, 0.520961582661, 5.01635694504, 312.469665527, 313.235015869, 311.162506104,   313.8359375, 71.5104675293, 71.5104675293, 71.5104675293, 71.5104675293,          -0.5,          -0.5,          -0.5,          -0.5, -0.201970934868, -0.50633919239, 13.7826929092, -0.157120615244, -0.0375557914376, 3.16133022308, -0.0576242171228, 14.2934017181
        2.025, 0.0189943816513, 0.229025751352, 0.984732627869, -11.2698993683, 0.322595894337, 3.43930721283, 312.972259521, 312.978607178, 311.538513184, 313.601654053, 71.1434402466, 71.1434402466, 71.1434402466, 71.1434402466,          -0.5,          -0.5,          -0.5,          -0.5, -0.609650552273, -0.882152616978, 13.7868766785, -0.134099915624, -0.0398054532707, 2.88984799385, -0.052699662745, 14.3995456696
         2.05, 0.0186529289931, 0.186291143298, 0.990531563759, -12.109079361, 0.131855666637, 1.83865630627,    313.484375, 312.712127686, 311.941986084, 313.371582031, 70.6988754272, 70.6988754272, 70.6988754272, 70.6988754272,          -0.5,          -0.5,          -0.5,          -0.5, -1.02251493931, -1.26436209679, 13.7911376953, -0.110580943525, -0.041820064187, 2.59756278992, -0.0502304770052, 14.4657773972
        2.075, 0.0181489568204, 0.140596285462, 0.996426820755, -12.9549179077, -0.0458500497043, 0.21311815083,  314.00302124, 312.438323975, 312.360168457, 313.144226074, 70.1937789917, 70.1937789917, 70.1937789917, 70.1937789917,          -0.5,          -0.5,          -0.5,          -0.5, -1.43910300732, -1.65212595463, 13.7953929901, -0.086859934032, -0.0434977225959, 2.28426098824, -0.0503000766039, 14.4914875031
          2.1, 0.0174300614744, 0.0932183042169, 1.00249946117, -13.8065052032, -0.205258339643, -1.43415606022, 314.523193359, 312.150177002, 312.789886475, 312.908599854, 69.6476135254, 69.6476135254, 69.6476135254, 69.6476135254,          -0.5,          -0.5,          -0.5,          -0.5,  -1.857863307, -2.04451394081, 13.7995586395, -0.0633227527142, -0.0446640439332, 1.94975113869, -0.0529394038022, 14.4761724472
        2.125, 0.0165127944201, 0.0446856841445, 1.00827252865, -14.6422586441, -0.340583235025, -3.10544133186, 315.038513184, 311.845184326, 313.249694824, 312.655761719, 69.0830612183, 69.0830612183, 69.0830612183, 69.0830612183,          -0.5,          -0.5,          -0.5,          -0.5, -2.27871060371, -2.44211626053, 13.8035297394, -0.0400305986404, -0.0451930426061, 1.59414410591, -0.0580810122192, 14.4192829132
         2.15, 0.015164911747, -0.0052517959848, 1.01373338699, -15.4463100433, -0.44624710083, -4.7965927124, 315.554260254, 311.554199219, 313.715911865, 312.397735596, 68.5262069702, 68.5262069702, 68.5262069702, 68.5262069702,          -0.5,          -0.5,          -0.5,          -0.5, -2.70267438889, -2.84658384323, 13.8071870804, -0.0171126257628, -0.0449864789844, 1.21806466579, -0.0655787959695, 14.3203363419
        2.175, 0.0138470409438, -0.0559482574463, 1.01803028584, -16.1994228363, -0.517203092575, -6.50308227539, 316.069274902, 311.246002197, 314.182189941, 312.136627197, 68.0059967041, 68.0059967041, 68.0059967041, 68.0059967041,          -0.5,          -0.5,          -0.5,          -0.5, -3.13204407692, -3.2608730793, 13.8104505539, 0.005385722965, -0.0439793504775, 0.822531878948, -0.0752109363675, 14.1789216995
          2.2, 0.0121713848785, -0.108183734119, 1.02152144909, -16.8871421814, -0.547425508499, -8.22193717957, 316.551940918, 310.919799805, 314.642974854, 311.859558105, 67.5475311279, 67.5475311279, 67.5475311279, 67.5475311279,          -0.5,          -0.5,          -0.5,          -0.5, -3.57052731514, -3.68911600113, 13.8132419586, 0.0273111220449, -0.0422153696418, 0.409068584442, -0.0866438597441, 13.9947528839
        2.225, 0.0100718848407, -0.161537587643, 1.02354288101, -17.4988574982, -0.53804063797, -9.95112609863, 317.007568359, 310.611328125, 315.097412109, 311.562469482,  67.180267334,  67.180267334,  67.180267334,  67.180267334,          -0.5,          -0.5,          -0.5,          -0.5, -4.01898241043, -4.13292360306, 13.8154163361, 0.0485303588212, -0.0396626479924, -0.0205562822521, -0.0995480492711, 13.7675657272
         2.25, 0.00765355397016, -0.216756820679, 1.02482163906, -18.0364952087, -0.491055876017, -11.6953868866, 317.439605713, 310.298797607, 315.540802002, 311.252166748, 66.9382858276, 66.9382858276, 66.9382858276, 66.9382858276,          -0.5,          -0.5,          -0.5,          -0.5, -4.47957420349, -4.59514141083, 13.8168554306, 0.0687398016453, -0.0363707244396, -0.464392662048, -0.113649196923, 13.4970750809
        2.275, 0.00468831323087, -0.272970378399, 1.02506673336, -18.5023880005, -0.409953683615, -13.456202507, 317.831604004,  310.01953125, 315.970611572, 310.930450439, 66.8572540283, 66.8572540283, 66.8572540283, 66.8572540283,          -0.5,          -0.5,          -0.5,          -0.5, -4.95023727417, -5.07418775558, 13.8174190521, 0.0877549424767, -0.0323400683701, -0.920611739159, -0.128797605634, 13.1828804016
          2.3, 0.00135993515141, -0.32857170701, 1.02441263199, -18.8860054016, -0.29938980937, -15.2353954315, 318.192260742, 309.777374268,  316.38482666, 310.596252441, 66.9764480591, 66.9764480591, 66.9764480591, 66.9764480591,          -0.5,          -0.5,          -0.5,          -0.5, -5.4289393425, -5.56851148605, 13.8169765472, 0.105650879443, -0.027573518455, -1.38731122017, -0.14497795701,  12.824511528
        2.325, -0.00224863155745, -0.383363842964, 1.02275037766, -19.1731700897, -0.154489934444, -17.0286598206,  318.50302124, 309.630371094,  316.78729248, 310.292572021, 67.3369445801, 67.3369445801, 67.3369445801, 67.3369445801,          -0.5,          -0.5,          -0.5,          -0.5, -5.90614700317, -6.06911802292, 13.8153791428, 0.122608609498, -0.022121347487, -1.86220729351, -0.162183046341, 12.4215316772
         2.35, -0.00551262823865, -0.433457911015, 1.02001297474, -19.3012218475, 0.021169392392, -18.7959651947, 318.757171631, 309.567016602, 317.161621094, 309.992401123, 67.9727325439, 67.9727325439, 67.9727325439, 67.9727325439,          -0.5,          -0.5,          -0.5,          -0.5, -6.36571741104, -6.5604557991, 13.8126621246, 0.139547258615, -0.0159955769777, -2.34218287468, -0.180372193456, 11.9740009308
        2.375, -0.00868554599583, -0.480327099562, 1.01590287685, -19.223651886, 0.229562625289, -20.4949398041, 318.943328857, 309.629882812, 317.494628906, 309.722320557, 68.9028167725, 68.9028167725, 68.9028167725, 68.9028167725,          -0.5,          -0.5,          -0.5,          -0.5, -6.79492282867, -7.03017759323,  13.808842659, 0.157066896558, -0.00933050643653, -2.82256555557, -0.199478670955, 11.4830522537
          2.4, -0.0114667061716, -0.522342860699, 1.01010107994, -18.9103298187, 0.471722662449, -22.0973148346, 319.062408447,  309.87109375, 317.782684326, 309.545196533, 70.1411743164, 70.1411743164, 70.1411743164, 70.1411743164,          -0.5,          -0.5,          -0.5,          -0.5, -7.19205617905, -7.4764456749, 13.8039283752, 0.17561994493, -0.00228955829516, -3.29782104492, -0.219261497259,  10.950712204
        2.425, -0.0139428628609, -0.561849117279,  1.0029321909, -18.3556022644, 0.748092293739, -23.5760478973, 319.102966309, 310.352478027, 318.028320312, 309.450531006, 71.6944198608, 71.6944198608, 71.6944198608, 71.6944198608,          -0.5,          -0.5,          -0.5,          -0.5, -7.55974149704, -7.90168762207, 13.7979755402, 0.195326477289, 0.00496901711449, -3.76185774803, -0.239325284958, 10.3796405792
         2.45, -0.016342362389, -0.597212314606, 0.994115293026, -17.5651092529, 1.05606329441, -24.9166469574, 319.063079834, 311.147003174, 318.218841553, 309.501159668, 73.5647125244, 73.5647125244, 73.5647125244, 73.5647125244,          -0.5,          -0.5,          -0.5,          -0.5, -7.89902925491, -8.3065032959, 13.7910060883, 0.216178566217, 0.0122611373663, -4.20871543884, -0.25907099247, 9.77309036255
        2.475, -0.0184900704771, -0.629636764526, 0.984151005745, -16.5619277954, 1.39059829712, -26.1068954468, 318.947540283, 312.333374023,   318.3515625, 309.760070801,  75.754486084,  75.754486084,  75.754486084,  75.754486084,          -0.5,          -0.5,          -0.5,          -0.5, -8.20943069458, -8.68943119049, 13.7830457687, 0.238003671169, 0.0193885974586, -4.63271522522, -0.277863055468, 9.13452529907
          2.5, -0.0206833090633, -0.657753407955, 0.973336935043, -15.3613739014, 1.74442911148, -27.1602993011, 318.764709473, 313.995178223, 318.441375732, 310.249420166, 78.2643737793, 78.2643737793, 78.2643737793, 78.2643737793,          -0.5,          -0.5,          -0.5,          -0.5, -8.49179840088, -9.04981136322, 13.7741107941, 0.260883897543, 0.0262132119387, -5.02879524231, -0.294981718063, 8.46748065948
        2.525, -0.0227492339909, -0.681785941124, 0.960928380489, -14.0091218948, 2.10540413857, -28.0838413239, 318.518920898, 316.220947266, 318.475738525, 311.050598145, 81.0990753174, 81.0990753174, 81.0990753174, 81.0990753174,          -0.5,          -0.5,          -0.5,          -0.5, -8.74779129028, -9.38778877258, 13.7641801834, 0.284674108028, 0.0324737876654, -5.39256238937, -0.309844195843, 7.77512407303
         2.55, -0.0249437205493, -0.70204102993, 0.948793113232, -12.5250349045, 2.45992803574, -28.8886203766,  318.21282959, 319.100250244, 318.467803955, 312.239257812, 84.2638244629, 84.2638244629, 84.2638244629, 84.2638244629,          -0.5,          -0.5,          -0.5,          -0.5, -8.97716712952, -9.70131587982, 13.7532567978, 0.309605747461, 0.0379884280264, -5.72053670883, -0.322046011686, 7.06053304672
        2.575, -0.0273048095405, -0.719055533409, 0.93660312891, -10.9510889053, 2.79264354706, -29.5878582001, 317.861358643, 322.705444336, 318.429168701, 313.933898926,  87.767829895,  87.767829895,  87.767829895,  87.767829895,          -0.5,          -0.5,          -0.5,          -0.5, -9.17933559418, -9.98797988892, 13.7412891388, 0.335591495037, 0.0426350496709, -6.00995206833, -0.331442803144, 6.32648992538
          2.6, -0.0296366885304, -0.734124302864, 0.924719512463, -9.32964801788, 3.10085105896, -30.2009735107, 317.485198975, 327.080322266, 318.355102539, 316.232666016, 91.6235351562, 91.6235351562, 91.6235351562, 91.6235351562,          -0.5,          -0.5,          -0.5,          -0.5, -9.35433006287, -10.2457304001, 13.7282629013, 0.362642079592, 0.0462610684335, -6.25908613205, -0.3380856812, 5.57534074783
        2.625, -0.0313987880945, -0.745876789093, 0.913290202618, -7.71904706955, 3.37547016144, -30.7347812653, 317.093414307, 332.156677246, 318.232147217, 319.235137939, 95.8404312134, 95.8404312134, 95.8404312134, 95.8404312134,          -0.5,          -0.5,          -0.5,          -0.5, -9.50219726562, -10.4720115662,  13.714222908, 0.390670984983, 0.048621352762, -6.4675693512, -0.342024028301, 4.80920696259
         2.65, -0.0326206088066, -0.756516396999, 0.906185626984, -6.17220163345, 3.59653568268, -31.217086792, 316.688476562, 337.564178467, 318.108917236, 323.034088135, 100.412475586, 100.412475586, 100.412475586, 100.412475586,          -0.5,          -0.5,          -0.5,          -0.5, -9.61601924896, -10.6547603607, 13.6993541718, 0.419572681189, 0.0501699149609, -6.63635206223, -0.343739897013, 4.02980804443
        2.675, -0.0335626900196, -0.766760647297, 0.901784360409, -4.71888637543,   3.755828619, -31.6660671234, 316.295166016, 343.245452881, 317.990081787, 327.687347412, 105.325141907, 105.325141907, 105.325141907, 105.325141907,          -0.5,          -0.5,          -0.5,          -0.5, -9.69338321686, -10.7882518768, 13.6837205887, 0.44925147295, 0.0513253882527, -6.76751232147, -0.344138860703, 3.23831605911
          2.7, -0.034155793488, -0.77741008997, 0.898758888245, -3.40655255318, 3.85644245148, -32.0754699707, 315.935241699, 349.201049805, 317.836395264, 333.185638428, 110.565139771, 110.565139771, 110.565139771, 110.565139771,          -0.5,          -0.5,          -0.5,          -0.5, -9.73951148987, -10.876950264, 13.6673974991, 0.479118078947, 0.0521258413792, -6.86393117905, -0.344142645597, 2.43576622009
        2.725, -0.0329053588212, -0.785477876663, 0.897026240826, -2.25347685814,   3.906229496, -32.4336471558, 315.608001709, 355.430938721, 317.651428223, 339.273071289, 116.111244202, 116.111244202, 116.111244202, 116.111244202,          -0.5,          -0.5,          -0.5,          -0.5, -9.75493907928, -10.9234743118,  13.650636673, 0.509113907814, 0.0526152402163, -6.92945575714, -0.344613909721, 1.62342715263
         2.75, -0.0309354774654, -0.789504468441, 0.894806206226, -1.26175677776, 3.93554735184, -32.7251586914, 315.300445557, 361.950469971, 317.463806152, 345.665527344, 121.914070129, 121.914070129, 121.914070129, 121.914070129,          -0.5,          -0.5,          -0.5,          -0.5, -9.7372713089, -10.9291810989, 13.6337795258, 0.539547502995, 0.0526713058352, -6.96812868118, -0.345881462097, 0.802917838097
        2.775, -0.0286064054817, -0.791489958763, 0.891891658306, -0.428305119276, 3.95823264122, -32.9588775635, 315.010253906, 368.770202637, 317.274688721,  352.40512085, 127.922798157, 127.922798157, 127.922798157, 127.922798157,          -0.5,          -0.5,          -0.5,          -0.5, -9.68389606476, -10.895234108, 13.6169433594, 0.570757687092, 0.0520590171218, -6.98391532898, -0.34768936038, -0.0241673886776
          2.8, -0.0260444283485, -0.792080700397, 0.887700080872, 0.256106674671, 3.98180532455, -33.1412010193, 314.740692139, 375.911865234, 317.075164795, 359.508605957, 134.097427368, 134.097427368, 134.097427368, 134.097427368,          -0.5,          -0.5,          -0.5,          -0.5, -9.59334373474, -10.8233146667, 13.6001987457, 0.602679431438, 0.0504580251873, -6.98072052002, -0.349653422832, -0.856462776661
        2.825, -0.0233346819878, -0.791861712933, 0.883645832539, 0.813386619091, 4.00951480865, -33.2841110229, 314.493774414, 383.394561768, 316.864532471,  366.98840332, 140.407791138, 140.407791138, 140.407791138, 140.407791138,          -0.5,          -0.5,          -0.5,          -0.5, -9.46591567993, -10.7145576477, 13.5835895538, 0.635255396366, 0.0478205420077, -6.96199607849, -0.351304769516, -1.69285106659
         2.85, -0.0205515827984, -0.791058182716, 0.879070281982, 1.27011692524, 4.02892112732, -33.3963546753, 314.270599365, 391.230194092,  316.66116333, 374.835662842,  146.83190918,  146.83190918,  146.83190918,  146.83190918,          -0.5,          -0.5,          -0.5,          -0.5, -9.3009595871, -10.5682048798, 13.5671386719, 0.668353319168, 0.0440596081316, -6.93061590195, -0.35235235095, -2.53246283531
        2.875, -0.0176174230874, -0.789719760418, 0.874938070774, 1.65503466129, 4.02858638763, -33.4904823303, 314.073028564, 399.427185059, 316.457061768, 383.044586182, 153.353424072, 153.353424072, 153.353424072, 153.353424072,          -0.5,          -0.5,          -0.5,          -0.5, -9.09698677063, -10.3824510574, 13.5508756638, 0.701971411705, 0.039080388844, -6.8887386322, -0.352920293808, -3.3746445179
          2.9, -0.0145020596683, -0.788609087467, 0.871680855751, 1.98455011845, 4.00591754913, -33.5710983276, 313.901397705, 407.990844727, 316.257659912, 391.617492676, 159.958023071, 159.958023071, 159.958023071, 159.958023071,          -0.5,          -0.5,          -0.5,          -0.5, -8.85275554657, -10.1557016373, 13.5348415375, 0.735966324806, 0.0329423099756, -6.83793878555, -0.353348702192, -4.21895599365
        2.925, -0.0111812641844, -0.787478744984, 0.869389295578, 2.27591300011, 3.95972394943, -33.6433982849, 313.754119873, 416.925354004, 316.067718506, 400.557617188, 166.631790161, 166.631790161, 166.631790161, 166.631790161,          -0.5,          -0.5,          -0.5,          -0.5, -8.56729984283, -9.88664531708,  13.519080162, 0.770225822926, 0.0257323924452, -6.77939939499, -0.354049623013, -5.06505155563
         2.95, -0.00759041914716, -0.786642491817, 0.868106901646, 2.54561781883, 3.89099645615, -33.7075996399, 313.629577637, 426.233795166, 315.889984131,  409.86807251, 173.360198975, 173.360198975, 173.360198975, 173.360198975,          -0.5,          -0.5,          -0.5,          -0.5, -8.23941993713, -9.57374286652, 13.5036478043, 0.804635882378, 0.0175599567592, -6.71385240555, -0.355464190245, -5.91267967224
        2.975, 0.000753859581891, -0.785992503166, 0.86971861124, 2.80369114876, 3.80042886734, -33.7590942383, 313.522827148, 435.918182373, 315.726074219, 419.278930664, 180.125228882, 180.125228882, 180.125228882, 180.125228882,          -0.5,          -0.5,          -0.5,          -0.5, -7.86794042587, -9.21553325653, 13.4887561798, 0.839068710804, 0.00856240931898, -6.64165401459, -0.358008563519, -6.76154565811
            3, 0.0174019690603, -0.789520204067, 0.887609899044, 2.87771773338, 3.77407765388, -33.7064170837, 313.433807373,   445.9637146,  315.58605957, 424.530456543, 186.761138916, 186.761138916, 186.761138916, 186.761138916,          -0.5,          -0.5,          -0.5,          -0.5, -7.45253181458, -8.81175518036, 13.4770412445, 0.872677385807, 0.00163366133347, -6.56473731995, -0.361241459846, -7.61043643951
        3.025, 0.024182330817, -0.792028963566, 0.899447143078, 2.74139928818, 3.86445188522, -33.5523300171, 313.328186035, 456.349945068, 315.436431885, 427.610137939, 193.023635864, 193.023635864, 193.023635864, 193.023635864,          -0.5,          -0.5,          -0.5,          -0.5, -6.99115276337, -8.36057376862, 13.4676942825, 0.904292285442, -0.00136737152934, -6.48891496658, -0.362104654312, -8.45668506622
         3.05, 0.0281552355736, -0.791214287281, 0.903779804707, 2.59302520752, 3.95877313614, -33.3842544556, 313.193786621, 467.071899414, 315.307159424, 431.045837402, 198.944458008, 198.944458008, 198.944458008, 198.944458008,          -0.5,          -0.5,          -0.5,          -0.5, -6.47985029221, -7.85775756836, 13.4591293335, 0.934327363968, -0.00190684746485, -6.41703462601, -0.358853280544, -9.29907608032
        3.075, 0.0347050204873, -0.789084732533, 0.907642960548, 2.50533294678, 3.98407912254, -33.2284355164, 313.072875977, 478.112213135, 315.221893311, 434.565673828, 204.608673096, 204.608673096, 204.608673096, 204.608673096,          -0.5,          -0.5,          -0.5,          -0.5, -5.9197511673, -7.30422544479, 13.4513711929, 0.963371217251, -0.00123253581114, -6.34821605682, -0.352591067553, -10.1376399994
          3.1, 0.0549262687564, -0.787184596062, 0.928268194199, 2.33597207069,  3.8028113842, -33.0191345215, 313.013763428, 485.665802002, 315.224304199, 437.625396729,  209.93560791,  209.93560791,  209.93560791,  209.93560791,          -0.5,          -0.5,          -0.5,          -0.5, -5.28871822357, -6.66820049286, 13.4470090866, 0.991494774818, 0.00201821350493, -6.28218173981, -0.346243202686, -10.9716796875
        3.125, 0.0614532232285, -0.779960691929, 0.93863171339, 2.03972768784, 3.38958525658, -32.7176513672,  313.10647583, 490.709259033, 315.330596924, 440.128356934, 214.682281494, 214.682281494, 214.682281494, 214.682281494,          -0.5,          -0.5,          -0.5,          -0.5, -4.56975650787, -5.92232131958, 13.4455652237, 1.01881337166, 0.00778375705704, -6.22246932983, -0.346223503351, -11.7985744476
         3.15, 0.0652291551232, -0.764009714127, 0.931929767132, 1.85056495667, 3.05666208267, -32.233997345, 313.233886719, 497.491851807, 315.390258789,  442.11050415, 218.923233032, 218.923233032, 218.923233032, 218.923233032,          -0.5,          -0.5,          -0.5,          -0.5, -3.86805653572, -5.19426679611,   13.44490242,  1.0465297699, 0.0114681702107, -6.16930055618, -0.35421076417, -12.6149101257
        3.175, 0.0720307603478, -0.745303153992, 0.923617184162, 1.89546608925,  2.9339196682, -31.4831924438, 313.176300049, 505.908325195, 315.345855713, 443.610198975, 222.771820068, 222.771820068, 222.771820068, 222.771820068,          -0.5,          -0.5,          -0.5,          -0.5, -3.18633031845, -4.4962105751, 13.4453573227, 1.07478296757, 0.0117153590545, -6.11795330048, -0.365454941988, -13.4153642654
          3.2, 0.0808606594801, -0.724985122681, 0.919993460178, 2.16881370544, 2.93777489662, -30.461019516, 312.951599121, 514.519897461,  315.24130249, 444.617248535, 226.216400146, 226.216400146, 226.216400146, 226.216400146,          -0.5,          -0.5,          -0.5,          -0.5, -2.44152641296, -3.73888444901, 13.4477577209,  1.1023799181, 0.0100667607039, -6.06258916855, -0.374826848507, -14.1936540604
        3.225, 0.090093895793, -0.699890196323, 0.919770002365, 2.67239999771, 2.95691108704, -29.1482543945, 312.692749023, 522.493591309, 315.116241455, 445.033996582, 229.178390503, 229.178390503, 229.178390503, 229.178390503,          -0.5,          -0.5,          -0.5,          -0.5, -1.6218585968, -2.90311717987, 13.4525566101, 1.12846529484, 0.00787829048932, -5.99763631821, -0.379860758781, -14.943063736
         3.25, 0.0997097715735, -0.669974923134, 0.920316040516,  3.4193983078, 2.93460679054, -27.4914150238, 312.464752197, 529.442871094, 314.971679688, 444.622039795, 231.567565918, 231.567565918, 231.567565918, 231.567565918,          -0.5,          -0.5,          -0.5,          -0.5, -0.781536698341, -2.03960132599, 13.4600667953, 1.15239131451, 0.0054323291406, -5.91724729538, -0.380086302757, -15.6556682587
        3.275, 0.11018152535, -0.637807071209, 0.921217083931, 4.38191223145, 2.85705137253, -25.4555988312, 312.256988525, 534.994873047,  314.79876709, 443.001159668, 233.284240723, 233.284240723, 233.284240723, 233.284240723,          -0.5,          -0.5,          -0.5,          -0.5, 0.0387748517096, -1.1880158186, 13.4707155228, 1.17284977436, 0.00236499356106, -5.81571531296, -0.375710129738, -16.3222484589
          3.3, 0.121692046523, -0.60578674078, 0.922730207443, 5.49463415146, 2.72531580925, -23.0494060516, 312.108734131, 538.704650879, 314.606719971, 439.719177246, 234.208816528, 234.208816528, 234.208816528, 234.208816528,          -0.5,          -0.5,          -0.5,          -0.5, 0.827803909779, -0.359523147345, 13.4850101471, 1.18782031536, -0.00165974267293, -5.68852376938, -0.367052018642, -16.9332542419
        3.325, 0.133731767535, -0.575458824635, 0.925342917442, 6.68042993546, 2.54202508926, -20.3091640472, 311.973388672, 540.198486328, 314.403594971, 434.324493408, 234.202453613, 234.202453613, 234.202453613, 234.202453613,          -0.5,          -0.5,          -0.5,          -0.5, 1.58475387096, 0.445521742105, 13.5034914017, 1.19487297535, -0.00676425825804, -5.53294610977, -0.354490548372, -17.4797554016
         3.35, 0.145950004458, -0.547360122204, 0.93033516407, 7.85831689835, 2.30538105965, -17.2648105621,  311.93460083,  539.20526123, 314.177978516, 426.484466553, 233.125839233, 233.125839233, 233.125839233, 233.125839233,          -0.5,          -0.5,          -0.5,          -0.5, 2.31038236618, 1.22702586651, 13.5264787674, 1.19139039516, -0.012823196128, -5.34827709198, -0.338708668947, -17.9537029266
        3.375, 0.158795297146, -0.520170688629, 0.936108827591, 8.98216915131, 2.02104926109, -13.9223060608,  311.93951416, 535.387084961, 313.916442871, 415.931488037, 230.846328735, 230.846328735, 230.846328735, 230.846328735,          -0.5,          -0.5,          -0.5,          -0.5, 3.00682020187, 1.98578929901,  13.554356575, 1.17516422272, -0.0197354145348, -5.1353354454, -0.320464521646, -18.3474769592
          3.4, 0.171714439988, -0.49162825942, 0.941956400871, 10.0152711868, 1.68938779831, -10.2884283066, 311.955047607, 528.436401367, 313.631134033, 402.340332031,  227.23248291,  227.23248291,  227.23248291,  227.23248291,          -0.5,          -0.5,          -0.5,          -0.5, 3.67292428017, 2.71929931641, 13.5874271393, 1.14425039291, -0.0275289919227, -4.89601278305, -0.300722926855, -18.6536254883
        3.425, 0.184014216065, -0.461380571127, 0.946590423584, 10.9463968277, 1.31667101383, -6.3649353981, 312.089538574, 518.067687988, 313.340515137, 385.539367676, 222.172454834, 222.172454834, 222.172454834, 222.172454834,          -0.5,          -0.5,          -0.5,          -0.5, 4.30451250076, 3.42166018486, 13.6257266998, 1.09719610214, -0.036510489881, -4.63268852234, -0.28057834506, -18.8647994995
         3.45, 0.194052696228, -0.430265307426, 0.94943100214,   11.75502491, 0.907501518726, -2.15267968178,  312.26083374, 503.950500488, 313.050292969, 365.888549805, 215.593063354, 215.593063354, 215.593063354, 215.593063354,          -0.5,          -0.5,          -0.5,          -0.5, 4.89528417587, 4.08491373062, 13.6690177917, 1.03241658211, -0.047112673521, -4.34811639786, -0.261226773262, -18.9737415314
        3.475, 0.196391806006, -0.397853285074, 0.950760424137, 12.4080305099, 0.476736843586, 2.35541582108, 312.427764893, 485.711212158, 312.744689941, 345.200744629, 207.506500244, 207.506500244, 207.506500244, 207.506500244,          -0.5,          -0.5,          -0.5,          -0.5, 5.43922042847, 4.70155191422, 13.7160892487, 0.947942733765, -0.0597642064095, -4.0457611084, -0.243854105473, -18.9730548859
