Time,AxG_S1,AyG_S1,AzG_S1,AVx_S1,AVy_S1,AVz_S1,AVy_L1,AVy_R1,AVy_L2,AVy_R2,My_Dr_L1,My_Dr_R1,My_Dr_L2,My_Dr_R2,My_Bk_L1,My_Bk_R1,My_Bk_L2,My_Bk_R2,StrK_L1,StrK_R1,sv_vx,sv_vy,sv_vz,Roll_E,Pitch,Yaw
            0, 0.000326993176714, -1.68903384465e-18, 0.999602615833,             0,             0,             0, 62.8574028015, 62.8574028015, 62.8574028015, 62.8574028015,             0,             0,             0,             0,          -0.5,          -0.5,          -0.5,          -0.5, -9.87841267488e-05, 9.87841267488e-05, 2.77777695656,             0, -0.00216607772745,             0, -0.0446785651147,             0
        0.005, -0.00265203043818, -4.75244709542e-18, 0.999804496765, -2.99408217715e-18, 0.00173041841481, 2.00005505778e-17, 62.7733192444, 62.7733192444, 62.7593345642, 62.7593345642, 0.115204460919, 0.115204460919, 0.115204460919, 0.115204460919,          -0.5,          -0.5,          -0.5,          -0.5, -0.000103957267129, 0.000103957267129, 2.77770400047, -8.63886170624e-20, -0.00218020635657, 7.98754421556e-20, -0.0446749143302, 4.84302164058e-20
         0.01, -0.0071400240995, -1.5105727501e-17, 0.999925792217, -1.10256940779e-18, 0.00575970718637, 4.59556600567e-17, 62.7709312439, 62.7709312439, 62.7631874084, 62.7631874084, 0.457805395126, 0.457805395126, 0.457805395126, 0.457805395126,          -0.5,          -0.5,          -0.5,          -0.5, -0.000118022820971, 0.000118022820971,  2.7774169445, -8.21614617609e-19, -0.00218555983156, 7.11204526924e-20, -0.0446572452784, 1.99511168685e-19
        0.015, -0.00700767105445, -1.92645772157e-16, 0.999960482121, -1.61934858884e-16, 0.0108565827832, 1.71914429015e-16,  62.824016571,  62.824016571, 62.8301467896, 62.8301467896, 1.03112232685, 1.03112232685, 1.03112232685, 1.03112232685,          -0.5,          -0.5,          -0.5,          -0.5, -0.00013899152691, 0.00013899152691, 2.77699947357, -1.35452169474e-18, -0.00218593794852, -2.70874276103e-19, -0.0446154214442, 7.58408247739e-19
         0.02, -0.00407930556685, -2.70730407681e-17, 0.999953627586, -1.57726521269e-16, 0.0137905403972, 3.36468327006e-16, 62.8410263062, 62.8410263062, 62.8472938538, 62.8472938538, 1.66227829456, 1.66227829456, 1.66227829456, 1.66227829456,          -0.5,          -0.5,          -0.5,          -0.5, -0.000163385950145, 0.000163385950145, 2.77670025826, -4.48591130408e-18, -0.00218498287722, -1.20834223349e-18, -0.0445528514683, 1.85944059886e-18
        0.025, -0.00224834494293, -3.03993738935e-17, 0.999931931496, -1.86190467891e-16, 0.0150008788332, 3.38083539427e-16, 62.8238487244, 62.8238487244, 62.8208389282, 62.8208389282, 2.21738839149, 2.21738839149, 2.21738839149, 2.21738839149,          -0.5,          -0.5,          -0.5,          -0.5, -0.000187902798643, 0.000187902798643, 2.77650928497, -7.16141293331e-18, -0.00218417635188, -2.16045265774e-18, -0.0444803237915, 3.70192689029e-18
         0.03, -0.00267184269615, -4.87352185255e-17, 0.999905467033, -2.94638875455e-16, 0.015522309579, 1.6459668639e-16, 62.7934684753, 62.7934684753, 62.7826805115, 62.7826805115, 2.67069411278, 2.67069411278, 2.67069411278, 2.67069411278,          -0.5,          -0.5,          -0.5,          -0.5, -0.000211126811337, 0.000211126811337, 2.77636146545, -9.22962337222e-18, -0.00218444038182, -3.33255579841e-18, -0.0444041416049, 4.87418947002e-18
        0.035, -0.00399516755715, -6.90498280752e-17, 0.999870121479, -4.04898980614e-16, 0.0166697148234, 3.23195108964e-16, 62.7850379944, 62.7850379944, 62.7776031494, 62.7776031494,  3.0528280735,  3.0528280735,  3.0528280735,  3.0528280735,          -0.5,          -0.5,          -0.5,          -0.5, -0.000233291633776, 0.000233291633776, 2.77615857124, -1.12486264909e-17, -0.002185997786, -5.06853969084e-18, -0.0443239845335, 5.95040645446e-18
         0.04, -0.00411186693236, -6.77525706467e-17, 0.99982625246, -6.47610421829e-16, 0.0181915890425, 6.47215280959e-16, 62.7961044312, 62.7961044312, 62.7969055176, 62.7969055176, 3.39991879463, 3.39991879463, 3.39991879463, 3.39991879463,          -0.5,          -0.5,          -0.5,          -0.5, -0.000255099846981, 0.000255099846981, 2.77591276169, -1.5973089239e-17, -0.00218916893937, -7.65633246459e-18, -0.0442367829382, 8.4644688979e-18
        0.045, -0.00267436006106, -7.58803877886e-17, 0.999783873558, -7.72194092353e-16, 0.0189033765346, 9.04248540534e-16, 62.7983474731, 62.7983474731, 62.7957649231, 62.7957649231, 3.71666121483, 3.71666121483, 3.71666121483, 3.71666121483,          -0.5,          -0.5,          -0.5,          -0.5, -0.000276516831946, 0.000276516831946, 2.77571034431, -1.86335320452e-17, -0.00219426560216, -1.11147547533e-17, -0.0441435202956, 1.25865398465e-17
         0.05, -0.00260001211427, -1.00110810801e-16, 0.999759852886, -1.18094402885e-15, 0.0189445931464, 1.2637975095e-15,  62.787399292,  62.787399292, 62.7806472778, 62.7806472778,  3.9900970459,  3.9900970459,  3.9900970459,  3.9900970459,          -0.5,          -0.5,          -0.5,          -0.5, -0.000297117803711, 0.000297117803711, 2.77554821968, -2.07923311688e-17, -0.00220090872608, -1.60162432515e-17, -0.0440488494933, 1.79514306402e-17
        0.055, -0.00295970914885, -8.14078865744e-17, 0.999744474888, -1.7169503954e-15, 0.0190300550312, 1.35425776953e-15, 62.7813301086, 62.7813301086, 62.7761650085, 62.7761650085, 4.22500658035, 4.22500658035, 4.22500658035, 4.22500658035,          -0.5,          -0.5,          -0.5,          -0.5, -0.000317275407724, 0.000317275407724, 2.77537417412, -2.56494017225e-17, -0.00220847735181, -2.32939950021e-17, -0.0439539588988, 2.46493949558e-17
         0.06, -0.00298462528735, -9.27410352074e-17, 0.999735057354, -2.13350997568e-15, 0.0191283840686, 1.15183023591e-15, 62.7815589905, 62.7815589905, 62.7802429199, 62.7802429199, 4.43138408661, 4.43138408661, 4.43138408661, 4.43138408661,          -0.5,          -0.5,          -0.5,          -0.5, -0.000337513891282, 0.000337513891282, 2.77518796921, -3.04757325902e-17, -0.00221662060358, -3.29792311101e-17, -0.0438585095108, 3.09621379515e-17
        0.065, -0.00250959815457, -9.63749719872e-17, 0.99973243475, -2.55832643312e-15, 0.0188777465373, 1.04095150553e-15, 62.7803688049, 62.7803688049, 62.7778396606, 62.7778396606, 4.61339998245, 4.61339998245, 4.61339998245, 4.61339998245,          -0.5,          -0.5,          -0.5,          -0.5, -0.000358010205673, 0.000358010205673, 2.77501606941, -3.63216231199e-17, -0.00222509400919, -4.48181709092e-17, -0.0437632836401, 3.63682132408e-17
         0.07, -0.00245144497603, -9.48398174146e-17, 0.999740183353, -2.83436367096e-15, 0.0183180607855, 1.12566464701e-15, 62.7753486633, 62.7753486633, 62.7709007263, 62.7709007263, 4.77068567276, 4.77068567276, 4.77068567276, 4.77068567276,          -0.5,          -0.5,          -0.5,          -0.5, -0.000378697994165, 0.000378697994165, 2.77485871315, -4.12288191643e-17, -0.00223353761248, -5.81720787653e-17, -0.0436702370644, 4.17186788318e-17
        0.075, -0.00253396946937, -1.03876017835e-16, 0.999753713608, -3.20115328932e-15, 0.0176919475198, 1.41651574995e-15, 62.7717018127, 62.7717018127, 62.7676391602, 62.7676391602, 4.90613651276, 4.90613651276, 4.90613651276, 4.90613651276,          -0.5,          -0.5,          -0.5,          -0.5, -0.000399676704546, 0.000399676704546, 2.77469921112, -4.55540274734e-17, -0.00224158843048, -7.31320438074e-17, -0.0435801967978, 4.80990570774e-17
         0.08, -0.00248227128759, -7.95301336443e-17, 0.999770641327, -3.46214341037e-15, 0.0169970057905, 1.66360510742e-15, 62.7696533203, 62.7696533203, 62.7668991089, 62.7668991089, 5.02364778519, 5.02364778519, 5.02364778519, 5.02364778519,          -0.5,          -0.5,          -0.5,          -0.5, -0.000421032513259, 0.000421032513259, 2.77453780174, -5.15803426383e-17, -0.00224904343486, -8.99375149707e-17, -0.0434934236109, 5.5823084349e-17
        0.085, -0.0023279141169, -7.99570978067e-17, 0.999790668488, -3.69868879583e-15, 0.0161369293928, 1.96704682572e-15, 62.7668151855, 62.7668151855, 62.7636642456, 62.7636642456, 5.12544298172, 5.12544298172, 5.12544298172, 5.12544298172,          -0.5,          -0.5,          -0.5,          -0.5, -0.000442691525677, 0.000442691525677, 2.77438306808, -5.57742674579e-17, -0.00225578527898, -1.07763760097e-16, -0.04341051355, 6.49212108192e-17
         0.09, -0.00231498805806, -7.15868042487e-17, 0.999813616276, -3.83118423054e-15, 0.0151769965887, 2.20167685793e-15, 62.7634277344, 62.7634277344, 62.7596130371, 62.7596130371, 5.21280908585, 5.21280908585, 5.21280908585, 5.21280908585,          -0.5,          -0.5,          -0.5,          -0.5, -0.000464504788397, 0.000464504788397, 2.77423262596, -6.05836345057e-17, -0.00226168823428, -1.26727775612e-16, -0.0433322116733, 7.5353036987e-17
        0.095, -0.00231676083058, -6.34606216157e-17, 0.999837398529, -3.97135039562e-15, 0.0141947306693, 2.54066516089e-15, 62.7606048584, 62.7606048584,  62.756893158,  62.756893158, 5.28772830963, 5.28772830963, 5.28772830963, 5.28772830963,          -0.5,          -0.5,          -0.5,          -0.5, -0.000486368429847, 0.000486368429847,   2.774081707, -6.44333727812e-17, -0.00226667616516, -1.46211280405e-16, -0.0432587750256, 8.70998884229e-17
          0.1, -0.00225929403678, -6.66045630704e-17, 0.999861061573, -4.03664223629e-15, 0.0131859593093, 2.89600183501e-15, 62.7578353882, 62.7578353882, 62.7544326782, 62.7544326782,  5.3520450592,  5.3520450592,  5.3520450592,  5.3520450592,          -0.5,          -0.5,          -0.5,          -0.5, -0.000508159107994, 0.000508159107994, 2.77393245697, -6.66532939347e-17, -0.00227074022405, -1.66229765912e-16, -0.0431903079152, 1.00644070981e-16
        0.105, -0.00222019082867, -2.25295199739e-16, 0.999884665012, -4.34604261962e-15, 0.0121517470106, 3.12799293608e-15,  62.754825592,  62.754825592, 62.7511444092, 62.7511444092, 5.40702724457, 5.40702724457, 5.40702724457, 5.40702724457,          -0.5,          -0.5,          -0.5,          -0.5, -0.00052971515106, 0.00052971515106, 2.77378582954, -6.98808335709e-17, -0.0022738922853, -1.87202725203e-16, -0.043126963079, 1.15689414297e-16
         0.11, -0.00221147458069, -5.15255038724e-17, 0.999907553196, -4.4653103643e-15, 0.0111359739676, 3.25583265419e-15, 62.7518806458, 62.7518806458, 62.7480735779, 62.7480735779, 5.45385408401, 5.45385408401, 5.45385408401, 5.45385408401,          -0.5,          -0.5,          -0.5,          -0.5, -0.000550891389139, 0.000550891389139, 2.77364039421, -7.38806422618e-17, -0.00227614957839, -2.09502376317e-16, -0.0430687554181, 1.31640249069e-16
        0.115, -0.00218807114288, -4.06424804589e-17, 0.999929308891, -4.58440743185e-15, 0.0101558500901, 3.51312314709e-15, 62.7490005493, 62.7490005493,  62.745262146,  62.745262146, 5.49371290207, 5.49371290207, 5.49371290207, 5.49371290207,          -0.5,          -0.5,          -0.5,          -0.5, -0.000571568845771, 0.000571568845771, 2.77349567413, -7.59317259261e-17, -0.00227755354717, -2.32187374482e-16, -0.0430155433714, 1.48465446835e-16
         0.12, -0.00216386350803, -2.12564456669e-17, 0.999949812889, -4.73529830459e-15, 0.00921589508653, 3.53350445386e-15, 62.7460441589, 62.7460441589, 62.7422332764, 62.7422332764, 5.52757024765, 5.52757024765, 5.52757024765, 5.52757024765,          -0.5,          -0.5,          -0.5,          -0.5, -0.000591636344325, 0.000591636344325, 2.77335214615, -7.85560523724e-17, -0.0022781540174, -2.55553387137e-16, -0.042967133224, 1.66065004769e-16
        0.125, -0.00215138169006, -5.7225053744e-18, 0.999969124794, -4.74807494957e-15, 0.00833246018738, 3.83352034741e-15, 62.7430648804, 62.7430648804, 62.7391891479, 62.7391891479, 5.55625486374, 5.55625486374, 5.55625486374, 5.55625486374,          -0.5,          -0.5,          -0.5,          -0.5, -0.000611003313679, 0.000611003313679, 2.77320957184, -8.1606211398e-17, -0.00227799965069, -2.79455783406e-16, -0.0429232902825, 1.84300605037e-16
         0.13, -0.00213807122782, -7.09120184292e-18, 0.999987006187, -4.65606133699e-15, 0.00751637434587, 4.34946336217e-15, 62.7400970459, 62.7400970459, 62.7362327576, 62.7362327576, 5.58053922653, 5.58053922653, 5.58053922653, 5.58053922653,          -0.5,          -0.5,          -0.5,          -0.5, -0.000629607122391, 0.000629607122391, 2.77306771278, -8.27333409356e-17, -0.00227714050561, -3.02848504068e-16, -0.0428836978972, 2.04760672643e-16
        0.135, -0.00212400895543, -1.23917537015e-17, 1.00000357628, -4.55694874129e-15, 0.0067706448026, 4.39981523572e-15, 62.7371025085, 62.7371025085, 62.7332191467, 62.7332191467, 5.60109186172, 5.60109186172, 5.60109186172, 5.60109186172,          -0.5,          -0.5,          -0.5,          -0.5, -0.000647406035569, 0.000647406035569, 2.77292656898, -8.36173720173e-17, -0.00227562664077, -3.25838778202e-16, -0.0428480133414, 2.26648414282e-16
         0.14, -0.0021138722077, 8.87143348747e-18, 1.00001883507, -4.43037110226e-15, 0.00609914725646, 5.12511557241e-15, 62.7340812683, 62.7340812683, 62.7301750183, 62.7301750183, 5.61848926544, 5.61848926544, 5.61848926544, 5.61848926544,          -0.5,          -0.5,          -0.5,          -0.5, -0.000664378749207, 0.000664378749207, 2.77278614044, -8.53244345736e-17, -0.00227350532077, -3.48437431946e-16, -0.0428158715367, 2.50379868714e-16
        0.145, -0.00210501556285, 5.65704850458e-18, 1.00003278255, -4.29838176974e-15, 0.00550393434241, 5.55662507245e-15, 62.7310447693, 62.7310447693, 62.7271499634, 62.7271499634, 5.63324546814, 5.63324546814, 5.63324546814, 5.63324546814,          -0.5,          -0.5,          -0.5,          -0.5, -0.000680524564814, 0.000680524564814, 2.77264595032, -8.59374548168e-17, -0.00227082008496, -3.70266529788e-16, -0.0427868962288, 2.77275838237e-16
         0.15, -0.00209638103843, 2.1499320784e-17, 1.00004553795, -4.14649520977e-15, 0.00498341955245, 5.41589435991e-15, 62.7280006409, 62.7280006409,  62.724105835,  62.724105835, 5.64581108093, 5.64581108093, 5.64581108093, 5.64581108093,          -0.5,          -0.5,          -0.5,          -0.5, -0.000695859198458, 0.000695859198458, 2.77250647545, -8.60008962611e-17, -0.0022676133085, -3.91445635722e-16, -0.0427607111633, 3.04915052702e-16
        0.155, -0.00208922149613, 3.83527816577e-17, 1.00005722046, -4.03787297516e-15, 0.00453492160887, 5.13445792231e-15,  62.724937439,  62.724937439, 62.7210426331, 62.7210426331, 5.65657711029, 5.65657711029, 5.65657711029, 5.65657711029,          -0.5,          -0.5,          -0.5,          -0.5, -0.000710411462933, 0.000710411462933,   2.772367239, -8.73760476335e-17, -0.00226392550394, -4.12008260489e-16, -0.0427369475365, 3.31203805481e-16
         0.16, -0.00208335509524, 2.14335715059e-17, 1.00006353855, -3.71090385796e-15, 0.00414969958365, 5.65321859217e-15,  62.721862793,  62.721862793, 62.7179756165, 62.7179756165, 5.66588592529, 5.66588592529, 5.66588592529, 5.66588592529,          -0.5,          -0.5,          -0.5,          -0.5, -0.000724220240954, 0.000724220240954, 2.77222847939, -8.63190960991e-17, -0.00225989683531, -4.31361745724e-16, -0.0427152588964, 3.57987834306e-16
        0.165, -0.00207790313289, 2.0361861415e-17, 1.00007033348, -3.48223545539e-15, 0.00381917483173, 6.02933467855e-15, 62.7187805176, 62.7187805176, 62.7148971558, 62.7148971558, 5.67403745651, 5.67403745651, 5.67403745651, 5.67403745651,          -0.5,          -0.5,          -0.5,          -0.5, -0.000737330177799, 0.000737330177799, 2.77208971977, -8.5849819994e-17, -0.00225564115681, -4.49402965166e-16, -0.0426953621209, 3.87285089295e-16
         0.17, -0.0020729934331, 1.9105111352e-16, 1.00007736683, -3.42898079993e-15, 0.00354181532748, 6.29768064547e-15, 62.7156906128, 62.7156906128,  62.711807251,  62.711807251,  5.6812915802,  5.6812915802,  5.6812915802,  5.6812915802,          -0.5,          -0.5,          -0.5,          -0.5, -0.000749791797716, 0.000749791797716,   2.771951437, -8.42495299112e-17, -0.00225111702457, -4.66678308004e-16, -0.0426769815385, 4.18281492376e-16
        0.175, -0.00206860061735, 4.17900777536e-17, 1.00008392334, -3.38844815582e-15, 0.00331377075054, 6.18319101364e-15, 62.7125968933, 62.7125968933, 62.7087135315, 62.7087135315, 5.68787288666, 5.68787288666, 5.68787288666, 5.68787288666,          -0.5,          -0.5,          -0.5,          -0.5, -0.000761658360716, 0.000761658360716, 2.77181339264, -8.27886627749e-17, -0.00224631954916, -4.83817913812e-16, -0.0426598638296, 4.49662633703e-16
         0.18, -0.00206456216983, -1.21036402421e-16, 1.00008964539, -3.48535952466e-15, 0.00312959984876, 6.17470247296e-15, 62.7094993591, 62.7094993591, 62.7056236267, 62.7056236267, 5.69397544861, 5.69397544861, 5.69397544861, 5.69397544861,          -0.5,          -0.5,          -0.5,          -0.5, -0.000772983476054, 0.000772983476054,  2.7716755867, -7.96130502289e-17, -0.0022412694525, -5.00873822178e-16, -0.0426437705755, 4.80555460537e-16
        0.185, -0.00206084852107, 4.63808639788e-17, 1.00009429455, -3.58413648356e-15, 0.00298302923329, 6.05710507724e-15, 62.7063980103, 62.7063980103, 62.7025337219, 62.7025337219, 5.69976615906, 5.69976615906, 5.69976615906, 5.69976615906,          -0.5,          -0.5,          -0.5,          -0.5, -0.000783818599302, 0.000783818599302, 2.77153801918, -7.91907315128e-17, -0.00223600352183, -5.18651243796e-16, -0.0426285043359, 5.1090306285e-16
         0.19, -0.00205741100945, 3.95582319643e-17, 1.00009787083, -3.66600984121e-15, 0.0028675745707, 6.26034216261e-15, 62.7032966614, 62.7032966614, 62.6994476318, 62.6994476318, 5.70538806915, 5.70538806915, 5.70538806915, 5.70538806915,          -0.5,          -0.5,          -0.5,          -0.5, -0.000794211868197, 0.000794211868197, 2.77140045166, -7.84988445612e-17, -0.00223056762479, -5.36800989334e-16, -0.042613890022, 5.41879640067e-16
        0.195, -0.00205415324308, 4.45798072351e-17, 1.00010025501, -3.66606447484e-15, 0.00277692172676, 5.83545222506e-15, 62.7001953125, 62.7001953125, 62.6963691711, 62.6963691711, 5.71096420288, 5.71096420288, 5.71096420288, 5.71096420288,          -0.5,          -0.5,          -0.5,          -0.5, -0.000804207229521, 0.000804207229521, 2.77126336098, -7.66541590034e-17, -0.00222501042299, -5.55045549622e-16, -0.0425997897983, 5.72517033527e-16
          0.2, -0.00205101422034, 4.94431593984e-17, 1.00010168552, -3.61168538314e-15, 0.00270522362553, 5.28068757274e-15, 62.6970977783, 62.6970977783, 62.6932983398, 62.6932983398, 5.71659708023, 5.71659708023, 5.71659708023, 5.71659708023,          -0.5,          -0.5,          -0.5,          -0.5, -0.000813843682408, 0.000813843682408, 2.77112627029, -7.57342018133e-17, -0.00221937918104, -5.73311285734e-16, -0.0425860919058, 5.99968683133e-16
        0.205, -0.0020479389932, 6.15671257842e-17, 1.00010216236, -3.48691234781e-15, 0.00264730048366, 5.02815528743e-15, 62.6940040588, 62.6940040588, 62.6902313232, 62.6902313232, 5.72237539291, 5.72237539291, 5.72237539291, 5.72237539291,          -0.5,          -0.5,          -0.5,          -0.5, -0.000823155511171, 0.000823155511171, 2.77098917961, -7.47794368631e-17, -0.00221371697262, -5.91015968397e-16, -0.0425727143884, 6.25799852832e-16
         0.21, -0.00204486260191, 5.31431217347e-17, 1.00010204315, -3.32637313453e-15, 0.00259872479364, 4.87995755594e-15, 62.6909103394, 62.6909103394,  62.687171936,  62.687171936, 5.72837162018, 5.72837162018, 5.72837162018, 5.72837162018,          -0.5,          -0.5,          -0.5,          -0.5, -0.000832171936054, 0.000832171936054, 2.77085256577, -7.08682026721e-17, -0.00220806035213, -6.07882511959e-16, -0.0425596013665, 6.50877480846e-16
        0.215, -0.00204173289239, 4.95165567885e-17, 1.00010120869, -3.2148248246e-15, 0.00255584274419, 4.42742046299e-15, 62.6878242493, 62.6878242493, 62.6841201782, 62.6841201782, 5.73464679718, 5.73464679718, 5.73464679718, 5.73464679718,          -0.5,          -0.5,          -0.5,          -0.5, -0.000840917578898, 0.000840917578898, 2.77071595192, -6.88733474371e-17, -0.00220244028606, -6.24223577457e-16, -0.0425467193127, 6.73859443468e-16
         0.22, -0.00203850748949, 5.02274953639e-17, 1.00010001659, -3.03986699297e-15, 0.00251575186849, 4.77985350817e-15, 62.6847419739, 62.6847419739, 62.6810760498, 62.6810760498, 5.74125003815, 5.74125003815, 5.74125003815, 5.74125003815,          -0.5,          -0.5,          -0.5,          -0.5, -0.000849412521347, 0.000849412521347, 2.77057957649, -6.8876662777e-17, -0.00219688029028, -6.39950861705e-16, -0.0425340384245, 6.96791219389e-16
        0.225, -0.00203514588065, 5.18666894053e-17, 1.00009846687, -2.73455142604e-15, 0.0024762370158, 4.22069317837e-15, 62.6816711426, 62.6816711426, 62.6780357361, 62.6780357361, 5.74822187424, 5.74822187424, 5.74822187424, 5.74822187424,          -0.5,          -0.5,          -0.5,          -0.5, -0.000857672886923, 0.000857672886923, 2.77044320107, -6.84608093046e-17, -0.00219139875844, -6.54475994443e-16, -0.042521558702, 7.19600916686e-16
         0.23, -0.00203161523677, 2.10084684998e-16, 1.00009667873, -2.40623489118e-15, 0.00243568280712, 3.58574754023e-15, 62.6786003113, 62.6786003113, 62.6750030518, 62.6750030518, 5.75559282303, 5.75559282303, 5.75559282303, 5.75559282303,          -0.5,          -0.5,          -0.5,          -0.5, -0.000865711364895, 0.000865711364895, 2.77030706406, -6.72068961402e-17, -0.00218600849621, -6.67312090544e-16, -0.0425092801452, 7.38925814559e-16
        0.235, -0.0020278908778, 4.05447474152e-17, 1.00009477139, -2.09399017121e-15, 0.00239298306406, 3.38364547901e-15, 62.6755409241, 62.6755409241, 62.6719779968, 62.6719779968, 5.76338768005, 5.76338768005, 5.76338768005, 5.76338768005,          -0.5,          -0.5,          -0.5,          -0.5, -0.000873537326697, 0.000873537326697, 2.77017116547, -6.43646439984e-17, -0.00218071881682, -6.78549041381e-16, -0.0424972064793, 7.56268496517e-16
         0.24, -0.0020239520818, 2.0407435758e-17, 1.00009274483, -1.87367478405e-15, 0.00234744395129, 3.31373646174e-15, 62.6724853516, 62.6724853516, 62.6689567566, 62.6689567566, 5.77162408829, 5.77162408829, 5.77162408829, 5.77162408829,          -0.5,          -0.5,          -0.5,          -0.5, -0.000881157582626, 0.000881157582626, 2.77003550529, -6.05586271814e-17, -0.00217553577386, -6.88520895571e-16, -0.0424853526056, 7.72896441485e-16
        0.245, -0.00201978394762, -1.29631854542e-16, 1.00009071827, -1.80326834668e-15, 0.00229869177565, 2.77265753251e-15, 62.6694412231, 62.6694412231, 62.6659431458, 62.6659431458,  5.7803144455,  5.7803144455,  5.7803144455,  5.7803144455,          -0.5,          -0.5,          -0.5,          -0.5, -0.000888576789293, 0.000888576789293, 2.76990008354, -6.042607976e-17, -0.00217046285979, -6.97828411233e-16, -0.0424737371504, 7.87997768386e-16
         0.25, -0.00201537646353, 2.99080517707e-17, 1.00008869171, -1.62787556364e-15, 0.00224659242667, 2.45510615113e-15, 62.6664009094, 62.6664009094, 62.6629333496, 62.6629333496,  5.7894654274,  5.7894654274,  5.7894654274,  5.7894654274,          -0.5,          -0.5,          -0.5,          -0.5, -0.000895798031706, 0.000895798031706, 2.76976466179, -6.15670066702e-17, -0.00216550310142, -7.06428707323e-16, -0.0424623712897, 8.00842864212e-16
        0.255, -0.00201072311029, 1.86555764085e-16, 1.00008654594, -1.32151666387e-15, 0.00219117943197, 2.34994150502e-15, 62.6633720398, 62.6633720398, 62.6599349976, 62.6599349976, 5.79908132553, 5.79908132553, 5.79908132553, 5.79908132553,          -0.5,          -0.5,          -0.5,          -0.5, -0.000902822765056, 0.000902822765056, 2.76962971687, -6.097164177e-17, -0.00216065789573, -7.13845592507e-16, -0.0424512773752, 8.12818533658e-16
         0.26, -0.00200582086109, 7.17844758065e-19, 1.00008451939, -1.1889150324e-15, 0.00213259551674, 2.02491103448e-15, 62.6603469849, 62.6603469849, 62.6569404602, 62.6569404602, 5.80916213989, 5.80916213989, 5.80916213989, 5.80916213989,          -0.5,          -0.5,          -0.5,          -0.5, -0.000909651862457, 0.000909651862457, 2.76949501038, -5.9609645878e-17, -0.0021559286397, -7.19975993463e-16, -0.0424404665828, 8.2395029359e-16
        0.265, -0.0020006694831, -1.86154432595e-17, 1.00008237362, -1.05310769887e-15, 0.00207104650326, 1.7892383047e-15,  62.657333374,  62.657333374, 62.6539497375, 62.6539497375, 5.81970453262, 5.81970453262, 5.81970453262, 5.81970453262,          -0.5,          -0.5,          -0.5,          -0.5, -0.000916285265703, 0.000916285265703, 2.76936030388, -6.06534485494e-17, -0.00215131719597, -7.25650267177e-16, -0.0424299538136, 8.33299631504e-16
         0.27, -0.00199527083896, -1.11631200038e-17, 1.00008022785, -9.42953711058e-16, 0.00200676475652, 1.79855291427e-15, 62.6543235779, 62.6543235779,  62.650970459,  62.650970459, 5.83070373535, 5.83070373535, 5.83070373535, 5.83070373535,          -0.5,          -0.5,          -0.5,          -0.5, -0.000922722858377, 0.000922722858377, 2.76922607422, -6.11012444283e-17, -0.00214682449587, -7.30730876673e-16, -0.0424197614193, 8.42220106048e-16
        0.275, -0.00198962842114, -1.49766509295e-17, 1.00007808208, -8.52344373229e-16, 0.0019399857847, 1.99321972027e-15, 62.6513252258, 62.6513252258, 62.6479949951, 62.6479949951, 5.84215211868, 5.84215211868, 5.84215211868, 5.84215211868,          -0.5,          -0.5,          -0.5,          -0.5, -0.000928964116611, 0.000928964116611, 2.76909208298, -5.92073714025e-17, -0.0021424528677, -7.35101301983e-16, -0.0424098931253, 8.51680458217e-16
         0.28, -0.00198374688625, 1.23251499457e-16, 1.00007593632, -1.04652392353e-15, 0.00187093031127, 1.82159729263e-15, 62.6483345032, 62.6483345032, 62.6450309753, 62.6450309753, 5.85404157639, 5.85404157639, 5.85404157639, 5.85404157639,          -0.5,          -0.5,          -0.5,          -0.5, -0.000935008749366, 0.000935008749366, 2.76895833015, -5.83327834147e-17, -0.00213820394129, -7.3982520473e-16, -0.0424003638327, 8.61070083135e-16
        0.285, -0.00197763205506, -3.9994444006e-17, 1.00007367134, -1.48570425981e-15, 0.00179979566019, 1.73087275832e-15, 62.6453552246, 62.6453552246, 62.6420707703, 62.6420707703,  5.8663611412,  5.8663611412,  5.8663611412,  5.8663611412,          -0.5,          -0.5,          -0.5,          -0.5, -0.000940856523812, 0.000940856523812, 2.76882505417, -5.81938369241e-17, -0.00213407981209, -7.46251643701e-16, -0.0423911847174, 8.6984285631e-16
         0.29, -0.00197129021399, -3.24482307876e-17, 1.00007140636, -1.87384397888e-15, 0.00172675144859, 1.58958247464e-15, 62.6423797607, 62.6423797607, 62.6391220093, 62.6391220093, 5.87910032272, 5.87910032272, 5.87910032272, 5.87910032272,          -0.5,          -0.5,          -0.5,          -0.5, -0.000946507614572, 0.000946507614572, 2.76869177818, -5.92288582461e-17, -0.00213008280843, -7.54736425673e-16, -0.0423823706806, 8.78149920182e-16
        0.295, -0.0019647278823, -2.2908136753e-17, 1.00006914139, -2.25891278e-15, 0.00165193912107, 1.47530470692e-15,  62.639415741,  62.639415741, 62.6361808777, 62.6361808777, 5.89224720001, 5.89224720001, 5.89224720001, 5.89224720001,          -0.5,          -0.5,          -0.5,          -0.5, -0.000951962370891, 0.000951962370891, 2.76855921745, -6.05296163029e-17, -0.00212621456012, -7.65171553946e-16, -0.0423739217222, 8.85832297255e-16
          0.3, -0.00195795227773, -2.57805181214e-17, 1.00006687641, -2.65599399062e-15, 0.00157547474373, 1.13378144611e-15, 62.6364631653, 62.6364631653, 62.6332473755, 62.6332473755, 5.90578889847, 5.90578889847, 5.90578889847, 5.90578889847,          -0.5,          -0.5,          -0.5,          -0.5, -0.00095722154947, 0.00095722154947, 2.76842665672, -6.2252560727e-17, -0.00212247739546, -7.77426903083e-16, -0.0423658527434, 8.92453183227e-16
        0.305, -0.00195097026881, -3.81886458631e-17, 1.00006449223, -2.8192722967e-15, 0.00149745354429, 1.31281149451e-15,  62.633518219,  62.633518219, 62.6303215027, 62.6303215027, 5.91971302032, 5.91971302032, 5.91971302032, 5.91971302032,          -0.5,          -0.5,          -0.5,          -0.5, -0.000962286139838, 0.000962286139838, 2.76829457283, -6.29012953204e-17, -0.00211887224577, -7.91037134359e-16, -0.0423581674695, 8.9834609732e-16
         0.31, -0.00194378872402, -1.6546772081e-17, 1.00006222725, -3.00200864364e-15, 0.00141795421951, 1.32624607233e-15, 62.6305809021, 62.6305809021, 62.6274032593, 62.6274032593, 5.93400621414, 5.93400621414, 5.93400621414, 5.93400621414,          -0.5,          -0.5,          -0.5,          -0.5, -0.000967157597188, 0.000967157597188, 2.76816296577, -6.50045840075e-17, -0.00211540097371, -8.05550832152e-16, -0.0423508808017, 9.05427928034e-16
        0.315, -0.00193641486112, -3.9058819188e-18, 1.00005984306, -2.99519807523e-15, 0.00133704463951, 9.69749492466e-16, 62.6276550293, 62.6276550293,   62.62449646,   62.62449646, 5.94865512848, 5.94865512848, 5.94865512848, 5.94865512848,          -0.5,          -0.5,          -0.5,          -0.5, -0.000971837667748, 0.000971837667748, 2.76803159714, -6.85452280492e-17, -0.00211206381209, -8.20553109136e-16, -0.0423439927399, 9.11009239881e-16
         0.32, -0.0019288554322, -3.89350175472e-17, 1.00005745888, -2.69640148561e-15, 0.0012547862716, 1.08579046514e-15, 62.6247367859, 62.6247367859,   62.62159729,   62.62159729,  5.9636464119,  5.9636464119,  5.9636464119,  5.9636464119,          -0.5,          -0.5,          -0.5,          -0.5, -0.000976328214165, 0.000976328214165, 2.76790046692, -6.81229424203e-17, -0.00210886169225, -8.34539370101e-16, -0.0423375107348, 9.15719590101e-16
        0.325, -0.00192111707292, 1.36834731558e-16,  1.0000551939, -2.63075982033e-15, 0.00117123895325, 1.13495045745e-15, 62.6218338013, 62.6218338013, 62.6187095642, 62.6187095642, 5.97896718979, 5.97896718979, 5.97896718979, 5.97896718979,          -0.5,          -0.5,          -0.5,          -0.5, -0.000980631448328, 0.000980631448328, 2.76776981354, -7.21631373775e-17, -0.00210579414852, -8.47900467811e-16, -0.0423314459622, 9.21475284857e-16
         0.33, -0.00191320641898, -5.11803478726e-17, 1.00005280972, -2.54635764582e-15, 0.00108646391891, 1.3706045525e-15,  62.618938446,  62.618938446, 62.6158294678, 62.6158294678, 5.99460458755, 5.99460458755, 5.99460458755, 5.99460458755,          -0.5,          -0.5,          -0.5,          -0.5, -0.000984749756753, 0.000984749756753, 2.76763963699, -7.1912667088e-17, -0.00210286071524, -8.60604003256e-16, -0.0423258021474, 9.28021790748e-16
        0.335, -0.00190512987319, -4.55128537312e-17, 1.00005054474, -2.5986320724e-15, 0.00100052647758, 1.59238922419e-15, 62.6160507202, 62.6160507202, 62.6129608154, 62.6129608154, 6.01054477692, 6.01054477692, 6.01054477692, 6.01054477692,          -0.5,          -0.5,          -0.5,          -0.5, -0.000988685642369, 0.000988685642369, 2.76750993729, -7.32514357483e-17, -0.00210006069392, -8.73380754112e-16, -0.0423205830157, 9.35522161617e-16
         0.34, -0.00189689348917, -4.07864892949e-17, 1.00004827976, -2.76949577028e-15, 0.000913497817237, 1.30897994097e-15, 62.6131782532, 62.6131782532, 62.6100997925, 62.6100997925, 6.02677631378, 6.02677631378, 6.02677631378, 6.02677631378,          -0.5,          -0.5,          -0.5,          -0.5, -0.000992441666313, 0.000992441666313,   2.767380476, -7.50549343292e-17, -0.00209739268757, -8.86804055804e-16, -0.0423157960176, 9.42734647162e-16
        0.345, -0.00188850355335, -4.001227802e-17,   1.000046134, -2.86699349767e-15, 0.000825456110761, 1.67311527571e-15, 62.6103134155, 62.6103134155, 62.6072502136, 62.6072502136, 6.04328680038, 6.04328680038, 6.04328680038, 6.04328680038,          -0.5,          -0.5,          -0.5,          -0.5, -0.000996020506136, 0.000996020506136, 2.76725149155, -7.77034409191e-17, -0.00209485506639, -9.00960464512e-16, -0.0423114486039, 9.50042318036e-16
         0.35, -0.00187996577006, -3.87052102295e-17, 1.00004398823, -2.952541496e-15, 0.000736486807, 2.11930777425e-15,  62.607460022,  62.607460022, 62.6044082642, 62.6044082642, 6.06006336212, 6.06006336212, 6.06006336212, 6.06006336212,          -0.5,          -0.5,          -0.5,          -0.5, -0.000999424955808, 0.000999424955808, 2.76712274551, -7.87506780444e-17, -0.00209244596772, -9.15495338128e-16, -0.0423075444996, 9.59704316986e-16
        0.355, -0.00187128596008, -5.29000729097e-17, 1.00004184246, -3.17004409851e-15, 0.00064668233972, 2.03700348859e-15, 62.6046142578, 62.6046142578, 62.6015777588, 62.6015777588, 6.07709550858, 6.07709550858, 6.07709550858, 6.07709550858,          -0.5,          -0.5,          -0.5,          -0.5, -0.00100265792571, 0.00100265792571, 2.76699471474, -7.92066994073e-17, -0.00209016283043, -9.30736107827e-16, -0.0423040874302, 9.70108316798e-16
         0.36, -0.00186246971134, -6.75197226129e-17,  1.0000398159, -3.5307520203e-15, 0.00055614154553, 2.14138632329e-15, 62.6017837524, 62.6017837524, 62.5987548828, 62.5987548828, 6.09437084198, 6.09437084198, 6.09437084198, 6.09437084198,          -0.5,          -0.5,          -0.5,          -0.5, -0.00100572197698, 0.00100572197698, 2.76686692238, -8.04789759814e-17, -0.00208800332621, -9.47399786999e-16, -0.0423010773957, 9.80485317435e-16
        0.365, -0.00185352237895, -5.30903707727e-17, 1.00003778934, -3.90267804645e-15, 0.000464968703454, 2.30940060234e-15, 62.5989646912, 62.5989646912, 62.5959472656, 62.5959472656, 6.11187982559, 6.11187982559, 6.11187982559, 6.11187982559,          -0.5,          -0.5,          -0.5,          -0.5, -0.00100862013642, 0.00100862013642, 2.76673960686, -8.21952764907e-17, -0.00208596512675, -9.65921115302e-16, -0.0422985255718, 9.91727032832e-16
         0.37, -0.00184444931801, -3.02449094947e-17,   1.000035882, -4.2648257125e-15, 0.000373272458091, 2.36220103638e-15, 62.5961532593, 62.5961532593, 62.5931472778, 62.5931472778, 6.12961101532, 6.12961101532, 6.12961101532, 6.12961101532,          -0.5,          -0.5,          -0.5,          -0.5, -0.00101135508157, 0.00101135508157, 2.76661276817, -8.43276951703e-17, -0.00208404497243, -9.86307821914e-16, -0.0422964319587, 1.00348713239e-15
        0.375, -0.00183525553439, -8.73035287092e-18, 1.00003397465, -4.38489940904e-15, 0.000281164364424, 2.4372182976e-15, 62.5933570862, 62.5933570862, 62.5903549194, 62.5903549194, 6.14755487442, 6.14755487442, 6.14755487442, 6.14755487442,          -0.5,          -0.5,          -0.5,          -0.5, -0.00101392960642, 0.00101392960642, 2.76648640633, -8.57358212707e-17, -0.00208224006929, -1.00796497207e-15, -0.0422947928309, 1.01539334514e-15
         0.38, -0.00182594591752, -1.04338593778e-17, 1.00003218651, -4.39070666693e-15, 0.000188757767319, 2.53229414603e-15, 62.5905685425, 62.5905685425, 62.5875778198, 62.5875778198, 6.16570138931, 6.16570138931, 6.16570138931, 6.16570138931,          -0.5,          -0.5,          -0.5,          -0.5, -0.00101634662133, 0.00101634662133,  2.7663602829, -8.63514487872e-17, -0.00208054715768, -1.03008597864e-15, -0.0422936193645, 1.02772561545e-15
        0.385, -0.00181652535684, -1.65573408023e-16, 1.00003051758, -4.39676422305e-15, 9.61664918577e-05, 2.64173694381e-15, 62.5877914429, 62.5877914429, 62.5848083496, 62.5848083496, 6.18404150009, 6.18404150009, 6.18404150009, 6.18404150009,          -0.5,          -0.5,          -0.5,          -0.5, -0.00101860892028, 0.00101860892028, 2.76623487473, -8.57216003816e-17, -0.00207896344364, -1.05204329609e-15, -0.0422929078341, 1.04078866344e-15
         0.39, -0.00180699850898, -1.19834482521e-17, 1.00002884865, -4.32965464967e-15, 3.50359596268e-06, 2.5855193671e-15, 62.5850257874, 62.5850257874, 62.5820503235, 62.5820503235, 6.20256614685, 6.20256614685, 6.20256614685, 6.20256614685,          -0.5,          -0.5,          -0.5,          -0.5, -0.00102071918081, 0.00102071918081, 2.76610970497, -8.66146576581e-17, -0.00207748566754, -1.07391728668e-15, -0.0422926582396, 1.05382164177e-15
        0.395, -0.00179736979771, -1.66539333294e-17, 1.00002717972, -4.36064631466e-15, -8.91196104931e-05, 2.66606076544e-15, 62.5822753906, 62.5822753906, 62.5792999268, 62.5792999268, 6.22126722336, 6.22126722336, 6.22126722336, 6.22126722336,          -0.5,          -0.5,          -0.5,          -0.5, -0.00102268019691, 0.00102268019691, 2.76598525047, -8.61637184928e-17, -0.0020761101041, -1.09556183722e-15, -0.0422928705812, 1.06672354174e-15
          0.4, -0.00178764353041, -7.76266156925e-18,    1.00002563, -4.38901556565e-15, -0.000181594543392, 3.04992233285e-15, 62.5795326233, 62.5795326233, 62.5765647888, 62.5765647888, 6.24013566971, 6.24013566971, 6.24013566971, 6.24013566971,          -0.5,          -0.5,          -0.5,          -0.5, -0.00102449487895, 0.00102449487895, 2.76586127281, -8.70246480744e-17, -0.00207483395934, -1.11766325615e-15, -0.042293548584, 1.08097772981e-15
        0.405, -0.00177782378159, 1.11049410826e-17, 1.00002419949, -4.33161637798e-15, -0.000273816141998, 3.27706544084e-15,    62.5768013,    62.5768013, 62.5738372803, 62.5738372803, 6.25916481018, 6.25916481018, 6.25916481018, 6.25916481018,          -0.5,          -0.5,          -0.5,          -0.5, -0.00102616578806, 0.00102616578806, 2.76573753357, -8.65624526353e-17, -0.00207365374081, -1.13952189427e-15, -0.0422946885228, 1.09698284087e-15
         0.41, -0.00176791474223, 3.481166116e-17, 1.00002276897, -4.21698232703e-15, -0.000365683546988, 3.03154637657e-15, 62.5740814209, 62.5740814209, 62.5711212158, 62.5711212158, 6.27834653854, 6.27834653854, 6.27834653854, 6.27834653854,          -0.5,          -0.5,          -0.5,          -0.5, -0.00102769583464, 0.00102769583464, 2.76561450958, -8.7900155887e-17, -0.00207256595604, -1.16100508503e-15, -0.0422962866724, 1.11267539677e-15
        0.415, -0.00175792002119, 2.33865465865e-17, 1.00002145767, -3.89124818386e-15, -0.000457100541098, 2.81412297165e-15, 62.5713729858, 62.5713729858, 62.5684165955, 62.5684165955, 6.29767370224, 6.29767370224, 6.29767370224, 6.29767370224,          -0.5,          -0.5,          -0.5,          -0.5, -0.00102908781264, 0.00102908781264, 2.76549172401, -8.57393880735e-17, -0.00207156757824, -1.18112794088e-15, -0.0422983430326, 1.12743155774e-15
         0.42, -0.0017478435766, 1.43494842434e-17, 1.00002014637, -3.67914478112e-15, -0.000547976058442, 2.57544391019e-15, 62.5686798096, 62.5686798096, 62.5657234192, 62.5657234192, 6.31713962555, 6.31713962555, 6.31713962555, 6.31713962555,          -0.5,          -0.5,          -0.5,          -0.5, -0.00103034439962, 0.00103034439962,  2.7653696537, -8.39627761713e-17, -0.00207065534778, -1.20002461066e-15, -0.0423008576035, 1.14058237952e-15
        0.425, -0.00173768866807, -3.7405305823e-18, 1.00001895428, -3.49190010132e-15, -0.000638224242721, 2.71527062682e-15, 62.5659942627, 62.5659942627,  62.563041687,  62.563041687, 6.33673810959, 6.33673810959, 6.33673810959, 6.33673810959,          -0.5,          -0.5,          -0.5,          -0.5, -0.00103146838956, 0.00103146838956, 2.76524806023, -8.05462026041e-17, -0.00206982553937, -1.21812602238e-15, -0.0423038229346, 1.15343419867e-15
         0.43, -0.0017274589045, -1.3685562614e-17, 1.00001788139, -3.71367492625e-15, -0.000727764971089, 2.78942666728e-15, 62.5633201599, 62.5633201599, 62.5603713989, 62.5603713989, 6.35646295547, 6.35646295547, 6.35646295547, 6.35646295547,          -0.5,          -0.5,          -0.5,          -0.5, -0.00103246245999, 0.00103246245999, 2.76512670517, -7.89895810402e-17, -0.00206907535903, -1.23612282553e-15, -0.0423072390258, 1.16709736951e-15
        0.435, -0.00171715731267, -2.96332623712e-17,  1.0000166893, -4.04627173035e-15, -0.000816523504909, 2.82246434036e-15, 62.5606613159, 62.5606613159, 62.5577087402, 62.5577087402, 6.37630796432, 6.37630796432, 6.37630796432, 6.37630796432,          -0.5,          -0.5,          -0.5,          -0.5, -0.00103332928848, 0.00103332928848, 2.76500606537, -7.73408843479e-17, -0.00206840131432, -1.2555012453e-15, -0.0423110984266, 1.18097113391e-15
         0.44, -0.00170678726863, -2.98374932645e-17, 1.00001573563, -4.52911566215e-15, -0.000904430926312, 2.73262950828e-15, 62.5580101013, 62.5580101013, 62.5550613403, 62.5550613403, 6.39626789093, 6.39626789093, 6.39626789093, 6.39626789093,          -0.5,          -0.5,          -0.5,          -0.5, -0.0010340717854, 0.0010340717854,  2.7648859024, -7.69968367701e-17, -0.0020678001456, -1.2769700365e-15, -0.0423154011369, 1.19480127611e-15
        0.445, -0.00169635144994, -1.67429191035e-16, 1.00001478195, -4.82057292304e-15, -0.000991423730738, 2.54308153413e-15, 62.5553741455, 62.5553741455, 62.5524215698, 62.5524215698, 6.41633749008, 6.41633749008, 6.41633749008, 6.41633749008,          -0.5,          -0.5,          -0.5,          -0.5, -0.00103469239548, 0.00103469239548,  2.7647664547, -7.98043340912e-17, -0.0020672690589, -1.30064418386e-15, -0.0423201397061, 1.20786083009e-15
         0.45, -0.00168585288338, -2.00935736551e-18, 1.00001382828, -4.87848541268e-15, -0.00107744382694, 2.50517680974e-15, 62.5527458191, 62.5527458191, 62.5497970581, 62.5497970581, 6.43651199341, 6.43651199341, 6.43651199341, 6.43651199341,          -0.5,          -0.5,          -0.5,          -0.5, -0.00103519391268, 0.00103519391268, 2.76464724541, -8.0013696813e-17, -0.00206680479459, -1.32491834818e-15, -0.0423253141344, 1.22038527101e-15
        0.455, -0.00167529424652, 5.92595210042e-18, 1.00001299381, -4.70873789247e-15, -0.00116243853699, 2.50647298191e-15, 62.5501327515, 62.5501327515, 62.5471801758, 62.5471801758, 6.45678567886, 6.45678567886, 6.45678567886, 6.45678567886,          -0.5,          -0.5,          -0.5,          -0.5, -0.00103557889815, 0.00103557889815, 2.76452851295, -7.97730600466e-17, -0.00206640432589, -1.34899314213e-15, -0.0423309132457, 1.23282045583e-15
         0.46, -0.00166467798408, 8.85862790441e-18, 1.00001215935, -4.67471257897e-15, -0.00124636024702, 2.44827377162e-15, 62.5475311279, 62.5475311279, 62.5445785522, 62.5445785522, 6.47715473175, 6.47715473175, 6.47715473175, 6.47715473175,          -0.5,          -0.5,          -0.5,          -0.5, -0.00103584991302, 0.00103584991302, 2.76441049576, -7.80352793111e-17, -0.00206606462598, -1.37231312383e-15, -0.0423369370401, 1.24525807587e-15
        0.465, -0.00165400677361, 1.48722706623e-17, 1.00001144409, -4.76616460871e-15, -0.00132916634902, 2.32277842895e-15, 62.5449409485, 62.5449409485, 62.5419845581, 62.5419845581, 6.49761486053, 6.49761486053, 6.49761486053, 6.49761486053,          -0.5,          -0.5,          -0.5,          -0.5, -0.00103600975126, 0.00103600975126,  2.7642929554, -7.69036962331e-17, -0.0020657829009, -1.39598345955e-15, -0.0423433743417, 1.2572784263e-15
         0.47, -0.00164328131359, -1.33495012995e-16, 1.00001072884, -4.51836511999e-15, -0.0014108188916, 2.32400345035e-15, 62.5423622131, 62.5423622131, 62.5394058228, 62.5394058228, 6.51816129684, 6.51816129684, 6.51816129684, 6.51816129684,          -0.5,          -0.5,          -0.5,          -0.5, -0.00103606074117, 0.00103606074117, 2.76417589188, -7.74472002177e-17, -0.00206555635668, -1.41937141565e-15, -0.0423502251506, 1.26862432675e-15
        0.475, -0.00163246202283, 2.00403561632e-16, 1.00000941753, -3.87074702192e-15, -0.00149003940169, 2.60948976423e-15, 62.5397949219, 62.5397949219, 62.5368347168, 62.5368347168, 6.53879070282, 6.53879070282, 6.53879070282, 6.53879070282,          -0.5,          -0.5,          -0.5,          -0.5, -0.00103600881994, 0.00103600881994, 2.76405930519, -7.69990999362e-17, -0.0020654022228, -1.44044072494e-15, -0.0423574782908, 1.28078814339e-15
         0.48, -0.00162160792388, 2.84753253189e-17, 1.00000846386, -3.58637265054e-15, -0.00156653788872, 2.66595488632e-15, 62.5372428894, 62.5372428894, 62.5342750549, 62.5342750549,  6.5594997406,  6.5594997406,  6.5594997406,  6.5594997406,          -0.5,          -0.5,          -0.5,          -0.5, -0.00103586900514, 0.00103586900514, 2.76394319534, -7.35123152786e-17, -0.00206532212906, -1.45887364418e-15, -0.0423651225865, 1.29435327016e-15
        0.485, -0.00161072413903, 3.14765284872e-17, 1.00000762939, -3.57967473751e-15, -0.00164100690745, 2.49005854219e-15,  62.534702301,  62.534702301, 62.5317306519, 62.5317306519, 6.58028364182, 6.58028364182, 6.58028364182, 6.58028364182,          -0.5,          -0.5,          -0.5,          -0.5, -0.00103565084282, 0.00103565084282, 2.76382780075, -7.12484013514e-17, -0.00206530210562, -1.47663243107e-15, -0.0423731431365, 1.30737883694e-15
         0.49, -0.00159979867749, 1.7036327346e-16, 1.00000691414, -3.44423459276e-15, -0.00171366694849, 2.46325947853e-15, 62.5321731567, 62.5321731567, 62.5291938782, 62.5291938782, 6.60114002228, 6.60114002228, 6.60114002228, 6.60114002228,          -0.5,          -0.5,          -0.5,          -0.5, -0.00103535829112, 0.00103535829112, 2.76371264458, -6.65799461754e-17, -0.00206533563323, -1.49416527192e-15, -0.042381528765, 1.31951385446e-15
        0.495, -0.00158882513642, -4.54147550736e-18, 1.00000631809, -3.91229144689e-15, -0.00178450869862, 2.70819790171e-15, 62.5296554565, 62.5296554565, 62.5266685486, 62.5266685486, 6.62206506729, 6.62206506729, 6.62206506729, 6.62206506729,          -0.5,          -0.5,          -0.5,          -0.5, -0.00103499263059, 0.00103499263059, 2.76359820366, -6.26513742788e-17, -0.00206541991793, -1.51264986017e-15, -0.0423902757466, 1.33229484048e-15
          0.5, -0.00157780840527, 2.10283026366e-17, 1.00000560284, -4.47341816368e-15, -0.0018534171395, 2.87430783893e-15, 62.5271453857, 62.5271453857, 62.5241584778, 62.5241584778, 6.64305591583, 6.64305591583, 6.64305591583, 6.64305591583,          -0.5,          -0.5,          -0.5,          -0.5, -0.00103455386125, 0.00103455386125,   2.763484478, -6.29566767167e-17, -0.00206555472687, -1.53368698221e-15, -0.0423993729055, 1.3464691957e-15
        0.505, -0.00156675023027, 2.93676662571e-18, 1.00000488758, -4.53367735809e-15, -0.00192024605349, 3.08231604913e-15, 62.5246543884, 62.5246543884, 62.5216560364, 62.5216560364, 6.66411018372, 6.66411018372, 6.66411018372, 6.66411018372,          -0.5,          -0.5,          -0.5,          -0.5, -0.001034041401, 0.001034041401, 2.76337099075, -6.02120186524e-17, -0.0020657395944, -1.55626284547e-15, -0.0424088053405, 1.36143732667e-15
         0.51, -0.00155565165915, 2.67341779583e-17, 1.00000417233, -4.68334003306e-15, -0.00198486330919, 2.88635963546e-15, 62.5221710205, 62.5221710205, 62.5191688538, 62.5191688538, 6.68522405624, 6.68522405624, 6.68522405624, 6.68522405624,          -0.5,          -0.5,          -0.5,          -0.5, -0.00103345501702, 0.00103345501702, 2.76325821877, -5.98250701793e-17, -0.00206597475335, -1.57960347361e-15, -0.0424185693264, 1.37626834418e-15
        0.515, -0.00154451595154, 2.71978705943e-17, 1.00000345707, -4.68771538175e-15, -0.00204717181623, 2.74024539327e-15, 62.5196990967, 62.5196990967, 62.5166893005, 62.5166893005, 6.70639610291, 6.70639610291, 6.70639610291, 6.70639610291,          -0.5,          -0.5,          -0.5,          -0.5, -0.00103279470932, 0.00103279470932, 2.76314592361, -5.84847795066e-17, -0.00206625973806, -1.60316316564e-15, -0.0424286499619, 1.39042724105e-15
         0.52, -0.0015333465999, 1.90239285379e-16, 1.00000274181, -4.66767966441e-15, -0.00210711779073, 2.69496555301e-15, 62.5172386169, 62.5172386169, 62.5142250061, 62.5142250061,   6.727622509,   6.727622509,   6.727622509,   6.727622509,          -0.5,          -0.5,          -0.5,          -0.5, -0.00103206082713, 0.00103206082713,  2.7630341053, -5.70078121269e-17, -0.0020665936172, -1.62634846911e-15, -0.0424390397966, 1.404234831e-15
        0.525, -0.00152214558329, 2.10071268129e-17, 1.00000214577, -4.49282792366e-15, -0.00216469494626, 3.01446659247e-15, 62.5147895813, 62.5147895813, 62.5117683411, 62.5117683411, 6.74890184402, 6.74890184402, 6.74890184402, 6.74890184402,          -0.5,          -0.5,          -0.5,          -0.5, -0.00103125430178, 0.00103125430178, 2.76292276382, -5.49480563011e-17, -0.00206697476096, -1.6492269349e-15, -0.0424497202039, 1.41850077166e-15
         0.53, -0.0015109158121, -3.10407558439e-16, 1.00000154972, -4.28131490289e-15, -0.00221994100139, 3.45724014839e-15, 62.5123519897, 62.5123519897, 62.5093269348, 62.5093269348, 6.77023172379, 6.77023172379, 6.77023172379, 6.77023172379,          -0.5,          -0.5,          -0.5,          -0.5, -0.00103037653025, 0.00103037653025,  2.7628121376, -5.35766140065e-17, -0.00206740107387, -1.67110357246e-15, -0.0424606800079, 1.43479355628e-15
        0.535, -0.00149965961464, 1.5993062342e-17, 1.00000095367, -3.93633701819e-15, -0.00227293302305, 3.61369285122e-15,  62.509929657,  62.509929657, 62.5068969727, 62.5068969727,  6.7916097641,  6.7916097641,  6.7916097641,  6.7916097641,          -0.5,          -0.5,          -0.5,          -0.5, -0.00102942937519, 0.00102942937519, 2.76270198822, -5.43660520221e-17, -0.0020678692963, -1.6918212572e-15, -0.0424719154835, 1.45222178856e-15
         0.54, -0.00148837885354, 1.03238377388e-17, 1.00000047684, -3.68407959507e-15, -0.00232378160581, 3.249625385e-15, 62.5075149536, 62.5075149536, 62.5044746399, 62.5044746399, 6.81303358078, 6.81303358078, 6.81303358078, 6.81303358078,          -0.5,          -0.5,          -0.5,          -0.5, -0.00102841469925, 0.00102841469925, 2.76259231567, -5.44091216622e-17, -0.00206837709993, -1.71070522148e-15, -0.042483408004, 1.46969374892e-15
        0.545, -0.00147707562428, -6.9520435941e-18,             1, -3.47825757691e-15, -0.00237262388691, 3.38689850905e-15,  62.505115509,  62.505115509, 62.5020675659, 62.5020675659, 6.83450174332, 6.83450174332, 6.83450174332, 6.83450174332,          -0.5,          -0.5,          -0.5,          -0.5, -0.00102733517997, 0.00102733517997, 2.76248335838, -5.22364656089e-17, -0.00206892029382, -1.72844727948e-15, -0.0424951501191, 1.48604879046e-15
         0.55, -0.00146575120743, -1.49906517885e-17, 0.999999582767, -3.5292481133e-15, -0.00241961725987, 2.98263128266e-15, 62.5027275085, 62.5027275085,  62.499671936,  62.499671936, 6.85601234436, 6.85601234436, 6.85601234436, 6.85601234436,          -0.5,          -0.5,          -0.5,          -0.5, -0.00102619314566, 0.00102619314566, 2.76237487793, -5.40100764998e-17, -0.00206949561834, -1.74586037105e-15, -0.0425071306527, 1.50206755993e-15
        0.555, -0.0014544071164, -2.70995105477e-17, 0.999999284744, -3.31765822429e-15, -0.0024649312254, 2.7308562448e-15, 62.5003509521, 62.5003509521, 62.4972915649, 62.4972915649, 6.87756347656, 6.87756347656, 6.87756347656, 6.87756347656,          -0.5,          -0.5,          -0.5,          -0.5, -0.00102499115746, 0.00102499115746, 2.76226687431, -5.29197730431e-17, -0.00207009911537, -1.76293157894e-15, -0.0425193421543, 1.51612057767e-15
         0.56, -0.0014430442825, -4.2913226898e-17, 0.999999046326, -3.47661539179e-15, -0.00250874343328, 2.77152272012e-15, 62.4979858398, 62.4979858398, 62.4949188232, 62.4949188232, 6.89915323257, 6.89915323257, 6.89915323257, 6.89915323257,          -0.5,          -0.5,          -0.5,          -0.5, -0.00102373212576, 0.00102373212576, 2.76215934753, -5.32830939292e-17, -0.00207072705962, -1.77991755415e-15, -0.0425317771733, 1.52970868021e-15
        0.565, -0.00143166375346, 1.39560496817e-16, 0.999998867512, -3.66186149735e-15, -0.00255123153329, 2.99693364573e-15, 62.4956359863, 62.4956359863, 62.4925575256, 62.4925575256, 6.92078018188, 6.92078018188, 6.92078018188, 6.92078018188,          -0.5,          -0.5,          -0.5,          -0.5, -0.00102241837885, 0.00102241837885, 2.76205253601, -5.47305177261e-17, -0.00207137595862, -1.79794474461e-15, -0.0425444282591, 1.54426271795e-15
         0.57, -0.0014202662278, -1.80876937569e-16, 0.999998748302, -3.86538953853e-15, -0.00259257061407, 2.52052059983e-15, 62.4932975769, 62.4932975769, 62.4902114868, 62.4902114868, 6.94244289398, 6.94244289398, 6.94244289398, 6.94244289398,          -0.5,          -0.5,          -0.5,          -0.5, -0.0010210525943, 0.0010210525943, 2.76194620132, -5.39952004837e-17, -0.00207204185426, -1.81688905999e-15, -0.0425572879612, 1.55836994581e-15
        0.575, -0.00140885205474, -2.22871788846e-17, 0.999998688698, -4.07338313741e-15, -0.00263292714953, 1.91572806406e-15, 62.4909706116, 62.4909706116, 62.4878768921, 62.4878768921, 6.96414041519, 6.96414041519, 6.96414041519, 6.96414041519,          -0.5,          -0.5,          -0.5,          -0.5, -0.00101963721681, 0.00101963721681, 2.76184034348, -5.34047324927e-17, -0.00207272148691, -1.8366708792e-15, -0.0425703525543, 1.56952081692e-15
         0.58, -0.00139742193278, -2.24466295282e-17, 0.999998688698, -4.11589360345e-15, -0.00267245690338, 1.45045307789e-15, 62.4886550903, 62.4886550903, 62.4855537415, 62.4855537415, 6.98586988449, 6.98586988449, 6.98586988449, 6.98586988449,          -0.5,          -0.5,          -0.5,          -0.5, -0.00101817434188, 0.00101817434188, 2.76173520088, -5.51048103359e-17, -0.0020734120626, -1.85728046136e-15, -0.0425836145878, 1.5774024585e-15
        0.585, -0.00138597597834, 1.34119090989e-16, 0.999998748302, -4.04181125485e-15, -0.00271130097099, 1.64403568172e-15, 62.4863510132, 62.4863510132, 62.4832458496, 62.4832458496, 7.00763177872, 7.00763177872, 7.00763177872, 7.00763177872,          -0.5,          -0.5,          -0.5,          -0.5, -0.00101666618139, 0.00101666618139, 2.76163053513, -5.60110661063e-17, -0.0020741103217, -1.87789449044e-15, -0.0425970740616, 1.58501569651e-15
         0.59, -0.00137451454066, -3.07153138741e-17, 0.999998867512, -4.26847515396e-15, -0.00274958531372, 1.63207631766e-15, 62.4840621948, 62.4840621948, 62.4809455872, 62.4809455872, 7.02942323685, 7.02942323685, 7.02942323685, 7.02942323685,          -0.5,          -0.5,          -0.5,          -0.5, -0.00101511448156, 0.00101511448156, 2.76152634621, -5.61617122394e-17, -0.00207481370308, -1.89854451842e-15, -0.0426107272506, 1.59383585059e-15
        0.595, -0.00136303773616, 1.25268179025e-16, 0.999998986721, -4.13414970456e-15, -0.00278741796501, 1.44910841309e-15, 62.4817848206, 62.4817848206, 62.4786605835, 62.4786605835, 7.05124378204, 7.05124378204, 7.05124378204, 7.05124378204,          -0.5,          -0.5,          -0.5,          -0.5, -0.00101352087222, 0.00101352087222, 2.76142263412, -5.67740508858e-17, -0.00207552034408, -1.91955813529e-15, -0.0426245704293, 1.6014363831e-15
          0.6, -0.00135154568125, -4.32922278198e-17, 0.999999165535, -4.24830645245e-15, -0.00282488949597, 1.37702559164e-15, 62.4795227051, 62.4795227051, 62.4763870239, 62.4763870239, 7.07309246063, 7.07309246063, 7.07309246063, 7.07309246063,          -0.5,          -0.5,          -0.5,          -0.5, -0.00101188675035, 0.00101188675035,  2.7613196373, -5.68117570869e-17, -0.0020762279164, -1.94039366348e-15, -0.0426385998726, 1.60856490651e-15
        0.605, -0.00134003860876, 1.12791476357e-16, 0.999999403954, -4.40342020795e-15, -0.00286207278259, 1.2869821777e-15,  62.477268219,  62.477268219, 62.4741287231, 62.4741287231,  7.0949678421,  7.0949678421,  7.0949678421,  7.0949678421,          -0.5,          -0.5,          -0.5,          -0.5, -0.00101021339651, 0.00101021339651, 2.76121711731, -5.97901300702e-17, -0.00207693502307, -1.96202773199e-15, -0.0426528193057, 1.61537621607e-15
         0.61, -0.0013285165187, -2.10300718104e-16, 0.999999642372, -4.33723093587e-15, -0.00289902300574, 1.09036772531e-15, 62.4750328064, 62.4750328064, 62.4718780518, 62.4718780518, 7.11686897278, 7.11686897278, 7.11686897278, 7.11686897278,          -0.5,          -0.5,          -0.5,          -0.5, -0.00100850174204, 0.00100850174204, 2.76111531258, -5.97888595208e-17, -0.00207764026709, -1.983726175e-15, -0.042667221278, 1.6215676034e-15
        0.615, -0.00131697952747, -6.11737782419e-17, 0.999999880791, -4.32853106046e-15, -0.00293577858247, 1.18854413785e-15, 62.4728050232, 62.4728050232, 62.4696426392, 62.4696426392, 7.13879442215, 7.13879442215, 7.13879442215, 7.13879442215,          -0.5,          -0.5,          -0.5,          -0.5, -0.00100675260182, 0.00100675260182, 2.76101398468, -6.14559857971e-17, -0.00207834271714, -2.00559254229e-15, -0.0426818095148, 1.62661920202e-15
         0.62, -0.0013054277515, -4.4279633317e-17, 1.00000011921, -4.43023176534e-15, -0.00297236279584, 1.63795705565e-15, 62.4705886841, 62.4705886841, 62.4674224854, 62.4674224854, 7.16074323654, 7.16074323654, 7.16074323654, 7.16074323654,          -0.5,          -0.5,          -0.5,          -0.5, -0.00100496655796, 0.00100496655796, 2.76091313362, -6.30624036339e-17, -0.00207904120907, -2.02753344848e-15, -0.0426965802908, 1.63369415059e-15
        0.625, -0.00129386142362, -2.13129728739e-16, 1.00000035763, -4.51713776925e-15, -0.00300878519192, 1.76725801148e-15, 62.4683876038, 62.4683876038, 62.4652099609, 62.4652099609, 7.18271493912, 7.18271493912, 7.18271493912, 7.18271493912,          -0.5,          -0.5,          -0.5,          -0.5, -0.00100314419251, 0.00100314419251,  2.7608127594, -6.49138191333e-17, -0.00207973574288, -2.04989765939e-15, -0.0427115336061, 1.64242346038e-15
         0.63, -0.00128228066023, -3.88769693206e-17, 1.00000071526, -4.20082559707e-15, -0.00304504227825, 1.37219623329e-15, 62.4662017822, 62.4662017822, 62.4630126953, 62.4630126953,  7.2047085762,  7.2047085762,  7.2047085762,  7.2047085762,          -0.5,          -0.5,          -0.5,          -0.5, -0.00100128585473, 0.00100128585473, 2.76071310043, -6.7492875639e-17, -0.00208042538725, -2.07183051876e-15, -0.0427266657352, 1.65023733932e-15
        0.635, -0.0012706858106, -6.8774701186e-17, 1.00000095367, -4.21218219131e-15, -0.00308112101629, 1.54346047187e-15, 62.4640235901, 62.4640235901, 62.4608268738, 62.4608268738, 7.22672271729, 7.22672271729, 7.22672271729, 7.22672271729,          -0.5,          -0.5,          -0.5,          -0.5, -0.00099939154461, 0.00099939154461,  2.7606139183, -6.70712914593e-17, -0.00208111060783, -2.09287145245e-15, -0.042741984129, 1.65700883834e-15
         0.64, -0.0012590768747, 1.0935229098e-16, 1.00000119209, -4.33356455375e-15, -0.0031169988215, 1.73429000687e-15, 62.4618606567, 62.4618606567,  62.458656311,  62.458656311, 7.24875640869, 7.24875640869, 7.24875640869, 7.24875640869,          -0.5,          -0.5,          -0.5,          -0.5, -0.00099746149499, 0.00099746149499, 2.76051521301, -7.07494989455e-17, -0.0020817911718, -2.11447206315e-15, -0.0427574776113, 1.6654832971e-15
        0.645, -0.00124745443463, -6.86679551823e-17, 1.00000143051, -4.45500747905e-15, -0.00315264659002, 1.3825094947e-15, 62.4597091675, 62.4597091675, 62.4564971924, 62.4564971924, 7.27080917358, 7.27080917358, 7.27080917358, 7.27080917358,          -0.5,          -0.5,          -0.5,          -0.5, -0.000995495705865, 0.000995495705865, 2.76041722298, -7.1481441291e-17, -0.00208246731199, -2.13652858934e-15, -0.0427731536329, 1.67330183472e-15
         0.65, -0.00123581872322, -6.2449224572e-17, 1.00000166893, -4.58071987392e-15, -0.0031880303286, 1.65240637894e-15, 62.4575691223, 62.4575691223, 62.4543495178, 62.4543495178, 7.29288005829, 7.29288005829, 7.29288005829, 7.29288005829,          -0.5,          -0.5,          -0.5,          -0.5, -0.000993494060822, 0.000993494060822, 2.76031970978, -7.28971046611e-17, -0.00208313926123, -2.15932309299e-15, -0.0427890047431, 1.68055974241e-15
