Time,AxG_S1,AyG_S1,AzG_S1,AVx_S1,AVy_S1,AVz_S1,AVy_L1,AVy_R1,AVy_L2,AVy_R2,My_Dr_L1,My_Dr_R1,My_Dr_L2,My_Dr_R2,My_Bk_L1,My_Bk_R1,My_Bk_L2,My_Bk_R2,StrK_L1,StrK_R1,sv_vx,sv_vy,sv_vz,Roll_E,Pitch,Yaw
            0, 0.00947130005807, 0.0724423527718, 0.963676869869,             0,             0,             0, 94.2861022949, 94.2861022949, 94.2861022949, 94.2861022949,             0,             0,             0,             0,          -0.5,          -0.5,          -0.5,          -0.5, -9.87841267488e-05, 9.87841267488e-05, 4.16666555405,             0, -0.00323982466944, 4.06286001205, 1.04670548439, -31.4504776001
        0.005, 0.00690496293828, 0.0687523111701, 1.03901612759, 0.127858012915, 0.0123162921518, -0.00574779976159, 94.7669372559, 94.0530395508, 94.7045898438, 93.3117370605,             0,             0,             0,             0,          -0.5,          -0.5,          -0.5,          -0.5, 0.000197568442672, 0.00274065439589, 4.16798448563, -8.40670963953e-06, -0.00295930774882, 4.06320142746, 1.04674375057, -31.4505138397
         0.01, 0.00174801133107, 0.0644718781114, 1.07793164253, 0.194454416633, 0.0125395338982, 0.0304879434407, 95.0037307739, 93.9711990356, 94.9595489502, 92.8439559937,             0,             0,             0,             0,          -0.5,          -0.5,          -0.5,          -0.5, 0.0211064368486, 0.0292094219476, 4.16908979416, -0.000221104040975, 0.00017311683041, 4.06403493881, 1.04680788517, -31.450460434
        0.015, -0.000765099190176, 0.0607697181404, 1.09378814697, 0.213904738426, 0.00440580956638, 0.0930480286479,  94.954246521, 94.1192855835, 95.0539016724, 92.7616500854,             0,             0,             0,             0,          -0.5,          -0.5,          -0.5,          -0.5, 0.0878726094961, 0.102734901011, 4.16999197006, -0.000650816189591, 0.00459845596924, 4.06507635117, 1.04682946205, -31.4501590729
         0.02, -0.00115589890629, 0.0581667385995, 1.09372794628, 0.210597708821, 0.00273078610189, 0.172844693065, 94.6247634888, 94.4689865112, 95.0168380737, 92.8108596802,             0,             0,             0,             0,          -0.5,          -0.5,          -0.5,          -0.5, 0.217639014125, 0.238955229521,  4.1708445549, -0.00126434443519, 0.00938191823661, 4.06615495682, 1.04679393768, -31.4495010376
        0.025, -0.00248418492265, 0.0574165172875, 1.08117985725, 0.20674239099, 0.0229081921279, 0.261886447668, 94.1173324585, 94.9110107422,  94.876449585, 92.9999008179,             0,             0,             0,             0,          -0.5,          -0.5,          -0.5,          -0.5, 0.419957101345, 0.446460574865, 4.17164993286, -0.0019952619914, 0.0138499848545, 4.06721353531, 1.04676926136, -31.4484157562
         0.03, -0.00359981087968, 0.0590359643102, 1.05841970444, 0.224150642753, 0.0713847205043, 0.354791373014, 93.5442810059, 95.3374481201, 94.6547088623, 93.3520355225,             0,             0,             0,             0,          -0.5,          -0.5,          -0.5,          -0.5, 0.69749724865, 0.72745424509, 4.17239618301, -0.00274021807127, 0.0174678042531, 4.06830501556, 1.04688334465, -31.4468631744
        0.035, -0.00434969505295, 0.062982827425, 1.02663373947, 0.274961799383, 0.142553970218, 0.449688911438, 92.9764556885, 95.7285079956, 94.3703460693, 93.7905807495,             0,             0,             0,             0,          -0.5,          -0.5,          -0.5,          -0.5, 1.04642784595, 1.07800769806, 4.17309331894, -0.00338420155458, 0.0197485666722, 4.06957483292, 1.04726374149, -31.4448184967
         0.04, -0.0037647546269, 0.0709737092257,  1.0031671524, 0.376169323921, 0.256066769361, 0.544223666191, 92.4558792114, 96.0861740112, 94.0929107666, 94.2163085938,             0,             0,             0,             0,          -0.5,          -0.5,          -0.5,          -0.5, 1.45705330372, 1.48865616322, 4.17378807068, -0.00377408554778, 0.0206556282938, 4.07121419907,  1.0480568409, -31.4422702789
        0.045, -0.00390855409205, 0.0824790000916, 0.987575173378, 0.557162225246, 0.38806900382, 0.638598799706, 92.0002670288, 96.3596801758,  93.881439209, 94.5462188721,             0,             0,             0,             0,          -0.5,          -0.5,          -0.5,          -0.5, 1.91551470757, 1.94586086273, 4.17450046539, -0.00372678274289, 0.020660340786, 4.07355690002, 1.04946291447, -31.4392089844
         0.05, -0.0037378591951, 0.095307983458, 0.983551681042, 0.819772899151, 0.514167547226, 0.749884843826, 91.5979385376, 96.5293273926, 93.7249908447, 94.8023986816,             0,             0,             0,             0,          -0.5,          -0.5,          -0.5,          -0.5,  2.4055287838, 2.43325138092, 4.17521381378, -0.00311225815676, 0.0202542729676, 4.07704210281,   1.051461339, -31.4355964661
        0.055, -0.00427626632154, 0.110788665712, 0.973506569862, 1.13166773319, 0.654353797436, 0.891003608704, 91.2833175659, 96.5986633301, 93.6163711548, 95.0179138184,             0,             0,             0,             0,          -0.5,          -0.5,          -0.5,          -0.5, 2.90961837769, 2.93333816528, 4.17592096329, -0.00185615953524, 0.0195745415986, 4.08197927475, 1.05407774448, -31.4313106537
         0.06, -0.00573869375512, 0.129061371088, 0.960407137871, 1.49229753017, 0.803636968136, 1.07207369804, 91.0827102661, 96.5954284668, 93.5487213135, 95.1746520996,             0,             0,             0,             0,          -0.5,          -0.5,          -0.5,          -0.5, 3.41077589989, 3.42936229706,  4.1765794754, 0.000164333832799, 0.0183507222682, 4.08861207962, 1.05736279488, -31.4261760712
        0.065, -0.00729908840731, 0.149031147361, 0.948760330677, 1.90145134926, 0.956430852413, 1.30352723598, 90.9949188232, 96.5412216187, 93.5103149414, 95.2617874146,             0,             0,             0,             0,          -0.5,          -0.5,          -0.5,          -0.5, 3.89393758774, 3.90664577484,  4.1771645546, 0.00305027351715, 0.0165700353682, 4.09719133377, 1.06132912636, -31.419960022
         0.07, -0.00907092634588, 0.169914245605, 0.939958095551, 2.35347557068, 1.10777056217, 1.59336102009, 90.9994888306, 96.4439544678, 93.4795150757, 95.2827911377,             0,             0,             0,             0,          -0.5,          -0.5,          -0.5,          -0.5, 4.34739589691,   4.353910923, 4.17767477036, 0.00684025045484, 0.0143348807469, 4.10795211792, 1.06596183777, -31.4123935699
        0.075, -0.0111224558204, 0.18976841867, 0.934822499752, 2.83973741531, 1.25326526165,  1.9462249279, 91.0869750977, 96.3112258911, 93.4435806274, 95.2556152344,             0,             0,             0,             0,          -0.5,          -0.5,          -0.5,          -0.5, 4.75149106979, 4.75190210342, 4.17809391022, 0.0115162627771, 0.0118115311489, 4.12109470367,  1.0712198019, -31.403169632
         0.08, -0.0134266894311, 0.206673666835, 0.932041466236, 3.34391665459, 1.38666510582, 2.36031484604, 91.2659835815, 96.1166381836, 93.3931045532, 95.2052993774,             0,             0,             0,             0,          -0.5,          -0.5,          -0.5,          -0.5, 5.08074617386, 5.07547330856, 4.17841291428, 0.0169427189976, 0.00914149452001, 4.13676023483, 1.07703626156, -31.3919792175
        0.085, -0.0158149637282, 0.219602569938, 0.932148575783, 3.85018587112, 1.50168943405,  2.8278491497, 91.5326309204, 95.8597564697, 93.3226699829, 95.1523132324,             0,             0,             0,             0,          -0.5,          -0.5,          -0.5,          -0.5,  5.3208360672, 5.31052064896,  4.1786236763, 0.0229278933257, 0.00646293722093, 4.15499973297, 1.08331120014, -31.3785381317
         0.09, -0.0180452186614, 0.227270513773, 0.935901522636, 4.34547138214,  1.5958275795, 3.33416676521, 91.8465270996, 95.5868301392, 93.2331008911, 95.1069564819,             0,             0,             0,             0,          -0.5,          -0.5,          -0.5,          -0.5,  5.4681391716, 5.45352458954, 4.17873001099, 0.0292244236916, 0.0039060972631, 4.17579936981, 1.08992540836, -31.3626213074
        0.095, -0.0200710613281, 0.229914039373, 0.941200196743, 4.81167316437, 1.66927576065, 3.86217927933, 92.1499252319, 95.3819046021, 93.1248168945, 95.0799636841,             0,             0,             0,             0,          -0.5,          -0.5,          -0.5,          -0.5,  5.5279917717, 5.50980901718, 4.17873811722, 0.0355648733675, 0.00162055331748, 4.19906282425, 1.09676277637, -31.344083786
          0.1, -0.0204187072814, 0.22741818428, 0.953747034073, 5.22422790527, 1.72557127476, 4.39704275131, 92.3870162964, 95.2689208984,  92.996963501, 95.0888824463,             0,             0,             0,             0,          -0.5,          -0.5,          -0.5,          -0.5, 5.51221370697, 5.49107980728, 4.17869520187, 0.0416913740337, -0.000253156758845, 4.22459077835, 1.10371279716, -31.3228645325
        0.105, -0.0203719958663, 0.221073374152, 0.963022649288, 5.56946992874, 1.77685952187, 4.92383337021, 92.5271911621, 95.2368087769,  92.863319397, 95.1489257812,             0,             0,             0,             0,          -0.5,          -0.5,          -0.5,          -0.5, 5.43729972839,  5.4136633873, 4.17865991592, 0.0473787225783, -0.00151409080718, 4.25206422806, 1.11072683334, -31.2989654541
         0.11, -0.0201812628657, 0.212074056268, 0.968976795673, 5.85096359253, 1.81508934498, 5.42772340775, 92.5662155151, 95.2956161499, 92.7304229736, 95.2429199219,             0,             0,             0,             0,          -0.5,          -0.5,          -0.5,          -0.5, 5.32229042053, 5.29641246796, 4.17864179611, 0.0524707697332, -0.00239450274967,  4.2811589241, 1.11776196957, -31.2724742889
        0.115, -0.0198084414005, 0.200893655419, 0.972686707973, 6.06604909897, 1.83821737766, 5.89872026443, 92.5169906616, 95.4427947998, 92.6022567749, 95.3589401245,             0,             0,             0,             0,          -0.5,          -0.5,          -0.5,          -0.5, 5.18668270111,  5.1586265564,   4.178647995, 0.0568580366671, -0.00302976905368, 4.31154727936,  1.1247535944, -31.2435302734
         0.12, -0.0192275661975, 0.189077526331, 0.974193990231, 6.21452903748, 1.84685885906, 6.33071470261, 92.3960952759, 95.6642303467, 92.4837112427, 95.4856262207,             0,             0,             0,             0,          -0.5,          -0.5,          -0.5,          -0.5,  5.0487370491,  5.0183801651,  4.1786866188, 0.0604909360409, -0.00353204179555, 4.34289216995, 1.13163781166, -31.2123241425
        0.125, -0.0184378195554, 0.177647054195, 0.973757386208, 6.29851484299, 1.84337985516, 6.72083759308, 92.2210693359, 95.9377059937, 92.3771209717, 95.6150512695,             0,             0,             0,             0,          -0.5,          -0.5,          -0.5,          -0.5, 4.92415809631, 4.89123296738, 4.17877006531, 0.0633683130145, -0.00401227176189, 4.37486076355, 1.13835990429, -31.179063797
         0.13, -0.0175735820085, 0.166606873274, 0.972273230553, 6.32258367538, 1.83034741879, 7.06906414032,  92.013961792,   96.23828125, 92.2833709717, 95.7407608032,             0,             0,             0,             0,          -0.5,          -0.5,          -0.5,          -0.5, 4.82511091232, 4.78926134109, 4.17890357971, 0.0655336752534, -0.00454244809225, 4.40713834763, 1.14488005638, -31.1439609528
        0.135, -0.0165873784572, 0.156960785389, 0.970206141472, 6.29169797897, 1.81056523323, 7.37640237808, 91.7937240601, 96.5424499512, 92.2020874023, 95.8575210571,             0,             0,             0,             0,          -0.5,          -0.5,          -0.5,          -0.5, 4.76011228561, 4.72094106674, 4.17909049988, 0.067041285336, -0.00516877183691,   4.439432621, 1.15117096901, -31.1072292328
         0.14, -0.0156624503434, 0.148910015821, 0.967651307583, 6.21317195892, 1.78561902046, 7.64540719986, 91.5680160522, 96.8361663818, 92.1301193237, 95.9611968994,             0,             0,             0,             0,          -0.5,          -0.5,          -0.5,          -0.5, 4.73348140717, 4.69059801102, 4.17933320999, 0.0679798871279, -0.0059155896306, 4.47148275375, 1.15721774101, -31.069065094
        0.145, -0.0149558763951, 0.142776042223, 0.96568441391, 6.09481477737, 1.75737166405, 7.87975692749,   91.35105896, 97.1071853638, 92.0698471069, 96.0505981445,             0,             0,             0,             0,          -0.5,          -0.5,          -0.5,          -0.5, 4.74535799026, 4.69840764999, 4.17962360382, 0.0684517845511, -0.00678314547986, 4.50306653976, 1.16301095486, -31.0296554565
         0.15, -0.0144597692415, 0.13829447329, 0.964302062988, 5.94322872162, 1.72864460945, 8.08363246918, 91.1615829468,   97.34349823, 92.0223770142, 96.1276550293,             0,             0,             0,             0,          -0.5,          -0.5,          -0.5,          -0.5, 4.79209327698, 4.74078512192,  4.1799492836, 0.0685595497489, -0.00773931201547, 4.53399848938, 1.16855347157, -30.9891643524
        0.155, -0.0140411797911, 0.135348066688, 0.963561415672, 5.76433324814, 1.70130550861,  8.2601852417, 91.0159454346, 97.5318145752, 91.9843215942, 96.1939086914,             0,             0,             0,             0,          -0.5,          -0.5,          -0.5,          -0.5, 4.86740016937, 4.81152534485, 4.18030405045, 0.0683861672878, -0.00875546317548, 4.56412506104,   1.173858881, -30.9477329254
         0.16, -0.0137856137007, 0.134179621935, 0.963467776775, 5.56493854523,  1.6761559248, 8.41283416748, 90.9189224243, 97.6691894531, 91.9512786865, 96.2508163452,             0,             0,             0,             0,          -0.5,          -0.5,          -0.5,          -0.5, 4.96343421936, 4.90286445618, 4.18067979813, 0.0680266022682, -0.00979889184237, 4.59332275391, 1.17894613743, -30.9054908752
        0.165, -0.0136403208598, 0.134612575173, 0.96395355463, 5.35180902481, 1.65445554256, 8.54460716248, 90.8693389893, 97.7569732666, 91.9217681885, 96.2999420166,             0,             0,             0,             0,          -0.5,          -0.5,          -0.5,          -0.5, 5.07142448425, 5.00609636307,  4.1810708046, 0.0675732046366, -0.0108351847157, 4.62150478363, 1.18383789062, -30.8625488281
         0.17, -0.0136018013582, 0.136402845383, 0.964637041092, 5.13010692596, 1.63670158386,  8.6580286026, 90.8610610962, 97.7973861694, 91.8955154419, 96.3425369263,             0,             0,             0,             0,          -0.5,          -0.5,          -0.5,          -0.5,  5.1826133728, 5.11251020432, 4.18147039413, 0.0671064704657, -0.0118463039398, 4.64861392975, 1.18856108189, -30.8190002441
        0.175, -0.0136746848002, 0.139315336943, 0.965463519096, 4.90369558334,  1.6231251955, 8.75499534607, 90.8852844238, 97.7961273193, 91.8724441528,  96.379524231,             0,             0,             0,             0,          -0.5,          -0.5,          -0.5,          -0.5, 5.28907632828, 5.21420097351, 4.18187379837, 0.0666945800185, -0.0128223421052, 4.67461585999, 1.19314324856, -30.7749328613
         0.18, -0.0138457305729, 0.143104583025, 0.966353714466, 4.67537689209, 1.61408567429, 8.83672237396, 90.9328079224, 97.7624435425, 91.8519744873,  96.411491394,             0,             0,             0,             0,          -0.5,          -0.5,          -0.5,          -0.5, 5.38433361053, 5.30468034744, 4.18227529526, 0.0663933232427, -0.0137566896155, 4.69949245453, 1.19761276245, -30.730424881
        0.185, -0.0140824038535, 0.147533282638, 0.967241406441, 4.44691610336,  1.6099947691,  8.9038476944, 90.9949951172, 97.7063751221, 91.8330841064, 96.4387130737,             0,             0,             0,             0,          -0.5,          -0.5,          -0.5,          -0.5, 5.46373939514, 5.37927055359,  4.1826710701, 0.0662462338805, -0.0146463457495,  4.7232375145, 1.20200002193, -30.6855449677
         0.19, -0.0143557172269, 0.152389377356, 0.968066930771, 4.21916532516, 1.61123180389, 8.95655155182, 91.0639572144, 97.6372451782,  91.815032959, 96.4611968994,             0,             0,             0,             0,          -0.5,          -0.5,          -0.5,          -0.5, 5.52465057373, 5.43527841568, 4.18305826187, 0.0662856400013, -0.0154911959544, 4.74585199356, 1.20633709431, -30.6403656006
        0.195, -0.0146650867537, 0.157444506884, 0.968507349491, 3.99201440811, 1.61786437035, 8.99473285675, 91.1327819824, 97.5635528564,  91.797203064, 96.4788589478,             0,             0,             0,             0,          -0.5,          -0.5,          -0.5,          -0.5, 5.56638097763, 5.47195911407, 4.18343496323, 0.0665336102247, -0.0162985343486, 4.76733732224, 1.21065783501, -30.5949554443
          0.2, -0.0149665810168, 0.162545368075, 0.968802154064, 3.76440787315, 1.62952327728, 9.01831912994,  91.195930481,  97.491859436, 91.7795944214, 96.4916687012,             0,             0,             0,             0,          -0.5,          -0.5,          -0.5,          -0.5,  5.5899810791,  5.4903011322, 4.18380117416, 0.0670010820031, -0.0170840639621, 4.78769350052, 1.21499466896, -30.5493869781
        0.205, -0.0152525696903, 0.167675077915, 0.969058513641, 3.53606081009, 1.64651083946, 9.02704620361, 91.2492980957, 97.4268569946, 91.7636871338, 96.4995498657,             0,             0,             0,             0,          -0.5,          -0.5,          -0.5,          -0.5, 5.59788990021, 5.49269199371, 4.18415737152, 0.0676967278123, -0.0178480166942, 4.80691480637,  1.2193801403, -30.5037307739
         0.21, -0.0155186383054, 0.172745123506, 0.969264686108, 3.30669546127, 1.66889095306, 9.02064037323, 91.2904205322, 97.3733062744,  91.750213623, 96.5023269653,             0,             0,             0,             0,          -0.5,          -0.5,          -0.5,          -0.5,  5.5935125351, 5.48249673843, 4.18450450897, 0.0686262324452, -0.0185908582062, 4.82499599457,  1.2238484621, -30.4580574036
        0.215, -0.0157649330795, 0.177749603987, 0.969353556633, 3.07605743408,  1.6963943243,  8.9990530014, 91.3186950684, 97.3339767456, 91.7393341064, 96.4998703003,             0,             0,             0,             0,          -0.5,          -0.5,          -0.5,          -0.5, 5.58077812195, 5.46362495422, 4.18484401703, 0.0697928294539, -0.0193144548684, 4.84192943573, 1.22843313217, -30.412443161
         0.22, -0.0159852597862, 0.182689875364,   0.969401896, 2.84406208992, 1.72845983505, 8.96263790131, 91.3349990845, 97.3084030151, 91.7311553955, 96.4923095703,             0,             0,             0,             0,          -0.5,          -0.5,          -0.5,          -0.5, 5.56370639801, 5.44009923935, 4.18517684937, 0.0711997970939, -0.0200220867991, 4.85770750046, 1.23316574097, -30.3669586182
        0.225, -0.0161882191896, 0.187567487359, 0.969462931156, 2.61104822159, 1.76450002193, 8.91206359863, 91.3412094116,  97.293762207, 91.7263259888, 96.4799423218,             0,             0,             0,             0,          -0.5,          -0.5,          -0.5,          -0.5, 5.54604434967, 5.41568756104, 4.18550443649, 0.0728504061699, -0.0207123626024, 4.87232208252,  1.2380746603, -30.3216762543
         0.23, -0.0163915008307, 0.192380785942, 0.969558596611, 2.37753367424,  1.8037520647, 8.84830760956, 91.3397369385, 97.2866973877, 91.7254180908, 96.4628067017,             0,             0,             0,             0,          -0.5,          -0.5,          -0.5,          -0.5, 5.53098154068, 5.39362096786, 4.18582820892, 0.0747475996614, -0.0213828720152, 4.88576793671, 1.24318480492, -30.2766609192
        0.235, -0.0166312549263, 0.197124153376, 0.96970975399,   2.144135952, 1.84534275532, 8.77259635925, 91.3332672119, 97.2843017578, 91.7285842896, 96.4417190552,             0,             0,             0,             0,          -0.5,          -0.5,          -0.5,          -0.5, 5.52095937729, 5.37639570236, 4.18614625931, 0.0768937319517, -0.0220304280519, 4.89804363251, 1.24851644039, -30.2319755554
         0.24, -0.0169053785503, 0.20173253119, 0.969989061356, 1.91146993637, 1.88841295242, 8.68642997742,  91.324546814, 97.2838897705, 91.7356185913, 96.4176483154,             0,             0,             0,             0,          -0.5,          -0.5,          -0.5,          -0.5, 5.51758003235, 5.36567687988, 4.18645811081, 0.0792890489101, -0.0226499065757, 4.90914964676, 1.25408470631, -30.1876754761
        0.245, -0.0172110460699, 0.206163987517, 0.970310688019, 1.67998504639, 1.93207597733, 8.59156703949, 91.3161468506, 97.2820587158, 91.7461242676, 96.3908462524,             0,             0,             0,             0,          -0.5,          -0.5,          -0.5,          -0.5, 5.52160787582, 5.36229228973, 4.18676233292, 0.0819309800863, -0.0232363734394, 4.91908979416,  1.2599003315, -30.1438064575
         0.25, -0.0175862945616, 0.210427895188, 0.970690727234, 1.44979703426, 1.97537946701, 8.48994731903, 91.3101806641,  97.275932312, 91.7597351074, 96.3617172241,             0,             0,             0,             0,          -0.5,          -0.5,          -0.5,          -0.5, 5.53305006027, 5.36631059647, 4.18705654144, 0.0848136618733, -0.0237878262997, 4.92787027359, 1.26596784592, -30.1004085541
        0.255, -0.0180343333632, 0.214530304074, 0.971134841442, 1.22104263306, 2.01758527756, 8.38327407837, 91.3081970215, 97.2649841309, 91.7760162354, 96.3312454224,             0,             0,             0,             0,          -0.5,          -0.5,          -0.5,          -0.5, 5.55128383636, 5.37716007233, 4.18733692169, 0.087932959199, -0.0243012923747,  4.9354968071, 1.27228736877, -30.0575122833
         0.26, -0.0185303837061, 0.218425184488, 0.971627891064, 0.993613481522, 2.05810141563, 8.27321052551, 91.3111877441,  97.248374939, 91.7944030762, 96.3000717163,             0,             0,             0,             0,          -0.5,          -0.5,          -0.5,          -0.5,  5.5752248764, 5.39379405975, 4.18760204315, 0.0912824198604, -0.0247744787484,  4.9419760704, 1.27885448933, -30.0151367188
        0.265, -0.0190574899316, 0.221974596381, 0.972263634205, 0.76697832346, 2.09647488594, 8.16127109528, 91.3201599121, 97.2252807617, 91.8142852783, 96.2686080933,             0,             0,             0,             0,          -0.5,          -0.5,          -0.5,          -0.5, 5.60352277756, 5.41488552094,  4.1878490448, 0.094850808382, -0.0252046491951, 4.94731378555,  1.2856618166, -29.9732971191
         0.27, -0.0196029487997, 0.225207746029, 0.972985684872, 0.539968788624, 2.13267183304, 8.04881954193, 91.3347930908, 97.1962356567,  91.835144043,  96.237739563,             0,             0,             0,             0,          -0.5,          -0.5,          -0.5,          -0.5,  5.6348028183, 5.43906545639,  4.1880774498, 0.0986225605011, -0.0255841147155, 4.95151090622, 1.29269981384, -29.9319992065
        0.275, -0.020178033039, 0.228107914329, 0.973647773266, 0.311708629131, 2.16653227806, 7.93715190887, 91.3531646729, 97.1625595093, 91.8565216064, 96.2077407837,             0,             0,             0,             0,          -0.5,          -0.5,          -0.5,          -0.5, 5.66774654388, 5.46500682831, 4.18828630447, 0.102583087981, -0.0259146187454, 4.95456266403, 1.29995810986, -29.8912467957
         0.28, -0.0207686591893, 0.230643227696, 0.974250912666, 0.0811944752932, 2.19797801971, 7.82742786407, 91.3741989136, 97.1252059937, 91.8780288696, 96.1786804199,             0,             0,             0,             0,          -0.5,          -0.5,          -0.5,          -0.5, 5.70117616653, 5.49151229858, 4.18847513199, 0.106715761125, -0.0261998679489, 4.95646095276, 1.30742526054, -29.8510303497
        0.285, -0.0213657375425, 0.232792615891, 0.974796772003, -0.152733281255, 2.22707223892, 7.72065973282,  91.396987915, 97.0852813721, 91.8991699219, 96.1505661011,             0,             0,             0,             0,          -0.5,          -0.5,          -0.5,          -0.5, 5.73414421082, 5.51760435104, 4.18864297867, 0.111002244055, -0.0264434851706, 4.95719242096, 1.31508898735, -29.811340332
         0.29, -0.0219619814306, 0.234504163265, 0.975309431553, -0.391320824623, 2.25396370888, 7.61769390106, 91.4208679199, 97.0442886353,  91.919380188, 96.1234436035,             0,             0,             0,             0,          -0.5,          -0.5,          -0.5,          -0.5, 5.76598167419, 5.54257917404, 4.18879032135, 0.115422703326, -0.026648696512,  4.9567360878, 1.32293736935, -29.7721614838
        0.295, -0.0225551780313, 0.235787272453, 0.97579574585, -0.635924100876, 2.27876353264, 7.51912164688, 91.4463195801, 97.0036773682, 91.9386062622, 96.0974960327,             0,             0,             0,             0,          -0.5,          -0.5,          -0.5,          -0.5, 5.79635858536, 5.56607198715, 4.18891763687, 0.119954042137, -0.0268169920892, 4.95506715775, 1.33095860481, -29.7334728241
          0.3, -0.0231259800494, 0.236728399992, 0.976234734058, -0.887580275536, 2.30171370506, 7.42560768127, 91.4725494385, 96.9648208618, 91.9568099976,  96.072845459,             0,             0,             0,             0,          -0.5,          -0.5,          -0.5,          -0.5, 5.82527112961, 5.58804655075, 4.18902492523, 0.124577395618, -0.0269510541111, 4.95215177536, 1.33914172649, -29.6952533722
        0.305, -0.0236618909985, 0.237359404564, 0.976636350155, -1.14710199833, 2.32305645943, 7.33777141571, 91.4977493286, 96.9284133911, 91.9736328125, 96.0495986938,             0,             0,             0,             0,          -0.5,          -0.5,          -0.5,          -0.5, 5.85290527344, 5.60866260529, 4.18911457062, 0.129275903106, -0.0270534045994, 4.94795465469,  1.3474766016, -29.6574783325
         0.31, -0.0241661965847, 0.237619623542, 0.976981937885, -1.41515231133, 2.34302902222, 7.25609827042, 91.5207595825, 96.8948059082, 91.9887466431,  96.027885437,             0,             0,             0,             0,          -0.5,          -0.5,          -0.5,          -0.5, 5.87958049774, 5.62822151184,  4.1891875267, 0.134032741189, -0.0271263755858, 4.94243383408, 1.35595405102, -29.6201152802
        0.315, -0.0246591083705, 0.237594351172, 0.977337479591, -1.6923532486, 2.36189699173, 7.18083190918, 91.5409698486, 96.8640136719,  92.001991272, 96.0078887939,             0,             0,             0,             0,          -0.5,          -0.5,          -0.5,          -0.5, 5.90578365326, 5.64720153809, 4.18924617767, 0.138828858733, -0.0271726567298, 4.93554735184,  1.3645658493, -29.5831375122
         0.32, -0.0251469481736, 0.237336114049, 0.977857708931, -1.97911858559, 2.38003587723,  7.1124048233, 91.5586090088,  96.837387085, 92.0132751465, 95.9902267456,             0,             0,             0,             0,          -0.5,          -0.5,          -0.5,          -0.5, 5.93208789825, 5.66617870331, 4.18929004669, 0.143651530147, -0.0271863359958, 4.92724752426, 1.37330555916, -29.5465106964
        0.325, -0.0256233830005, 0.236935809255, 0.978378117085, -2.27546691895, 2.39751172066, 7.05111503601, 91.5743942261, 96.8154830933, 92.0223693848, 95.9751205444,             0,             0,             0,             0,          -0.5,          -0.5,          -0.5,          -0.5, 5.95903110504, 5.68569898605, 4.18932008743, 0.148489519954, -0.0271638631821, 4.91748857498, 1.38216757774, -29.5101985931
         0.33, -0.026083432138, 0.236460357904, 0.978903949261, -2.58089828491, 2.41427183151, 6.99732875824,  91.588508606, 96.7974853516, 92.0291366577, 95.9625015259,             0,             0,             0,             0,          -0.5,          -0.5,          -0.5,          -0.5, 5.98706674576, 5.70623207092, 4.18933725357, 0.15333661437, -0.0271052662283, 4.90622329712, 1.39114618301, -29.4741706848
        0.335, -0.02653269656, 0.235940486193, 0.979448616505, -2.89476585388, 2.43025565147, 6.95135354996, 91.6011123657, 96.7820739746, 92.0335159302, 95.9523773193,             0,             0,             0,             0,          -0.5,          -0.5,          -0.5,          -0.5,   6.016518116, 5.72812080383, 4.18934202194, 0.158188417554, -0.0270099379122, 4.89340925217,  1.4002352953, -29.4383850098
         0.34, -0.0269822478294, 0.235399395227, 0.980020880699, -3.21633505821, 2.44540643692, 6.91340208054, 91.6124038696, 96.7684860229, 92.0354766846, 95.9448013306,             0,             0,             0,             0,          -0.5,          -0.5,          -0.5,          -0.5, 6.04757022858, 5.75157165527, 4.18933486938, 0.163041800261, -0.0268767476082, 4.87900686264, 1.40942835808, -29.402803421
        0.345, -0.0274366866797, 0.234852477908, 0.980618655682, -3.54483056068, 2.45968174934, 6.88358640671, 91.6225509644, 96.7566375732, 92.0349655151, 95.9397888184,             0,             0,             0,             0,          -0.5,          -0.5,          -0.5,          -0.5, 6.08027696609, 5.77665948868, 4.18931627274, 0.16789457202, -0.0267043169588, 4.86298084259, 1.41871857643, -29.3673858643
         0.35, -0.0278927404433, 0.23425334692, 0.981218159199, -3.87957859039, 2.47308421135, 6.86198282242, 91.6317062378, 96.7465744019, 92.0319442749, 95.9371795654,             0,             0,             0,             0,          -0.5,          -0.5,          -0.5,          -0.5, 6.11457443237, 5.80334234238, 4.18928575516, 0.172743856907, -0.0264922138304, 4.84529924393, 1.42809903622, -29.3320941925
        0.355, -0.0283425562084, 0.233623147011, 0.981859087944, -4.2199587822,  2.4856030941, 6.84864473343, 91.6399383545, 96.7378692627, 92.0263671875, 95.9368362427,             0,             0,             0,             0,          -0.5,          -0.5,          -0.5,          -0.5, 6.15030956268, 5.83148288727, 4.18924331665, 0.177586123347, -0.0262395329773, 4.82593297958, 1.43756270409, -29.2968883514
         0.36, -0.028789639473, 0.232981801033, 0.982531964779, -4.56536769867, 2.49723529816, 6.84338378906, 91.6472015381, 96.7300949097, 92.0182342529,  95.938835144,             0,             0,             0,             0,          -0.5,          -0.5,          -0.5,          -0.5, 6.18727207184, 5.86088609695, 4.18919038773, 0.182418107986, -0.0259441845119, 4.80485677719, 1.44710302353, -29.261724472
        0.365, -0.0292363502085, 0.232375085354, 0.983207762241, -4.91509389877, 2.50803303719, 6.84595012665, 91.6534347534, 96.7231826782, 92.0077285767, 95.9431915283,             0,             0,             0,             0,          -0.5,          -0.5,          -0.5,          -0.5, 6.22522830963,  5.8913269043, 4.18912601471, 0.187239393592, -0.025605533272,  4.7820482254, 1.45671308041, -29.226568222
         0.37, -0.0296784304082, 0.231807112694, 0.983872115612, -5.26842355728, 2.51808977127, 6.85605239868, 91.6585540771, 96.7171936035,  91.994934082, 95.9497756958,             0,             0,             0,             0,          -0.5,          -0.5,          -0.5,          -0.5, 6.26393413544, 5.92256355286, 4.18905115128, 0.192050397396, -0.0252238381654, 4.75748825073, 1.46638703346, -29.1913776398
        0.375, -0.0301121603698, 0.231281787157, 0.984510600567, -5.62466907501, 2.52752232552, 6.87333917618, 91.6624298096, 96.7121734619, 91.9798736572, 95.9584274292,             0,             0,             0,             0,          -0.5,          -0.5,          -0.5,          -0.5, 6.30315351486, 5.95436143875, 4.18896627426, 0.196851938963, -0.0248000379652, 4.73116207123, 1.47611927986, -29.1561203003
         0.38, -0.0305354613811, 0.230782017112, 0.985105156898, -5.9831776619, 2.53647208214, 6.89739704132, 91.6650085449,  96.708114624, 91.9626693726, 95.9689865112,             0,             0,             0,             0,          -0.5,          -0.5,          -0.5,          -0.5, 6.34267711639, 5.98650693893,  4.1888718605, 0.201644748449, -0.0243357885629, 4.70305728912, 1.48590564728, -29.120759964
        0.385, -0.0309385880828, 0.230222508311, 0.985618829727, -6.34341621399, 2.54512381554, 6.92766952515, 91.6663284302, 96.7047805786, 91.9434432983,  95.981338501,             0,             0,             0,             0,          -0.5,          -0.5,          -0.5,          -0.5, 6.38233613968, 6.01882553101, 4.18876838684, 0.206427812576, -0.0238338690251, 4.67316484451, 1.49574244022, -29.0852661133
         0.39, -0.0313338339329, 0.229658320546, 0.986027657986, -6.70499944687, 2.55375599861, 6.96342802048, 91.6664123535, 96.7016830444, 91.9223709106,  95.995300293,             0,             0,             0,             0,          -0.5,          -0.5,          -0.5,          -0.5, 6.42209672928, 6.05128002167, 4.18865776062, 0.211196899414, -0.0232989061624, 4.64147806168, 1.50562775135, -29.0496063232
        0.395, -0.0317353643477, 0.229169800878, 0.986367702484, -7.06709289551, 2.56264090538, 7.00420188904,  91.665184021, 96.7003936768, 91.8996047974, 96.0104522705,             0,             0,             0,             0,          -0.5,          -0.5,          -0.5,          -0.5,  6.4620308876, 6.08393907547,   4.188539505, 0.215954437852, -0.0227354466915, 4.60799312592, 1.51556158066, -29.013759613
          0.4, -0.0321754999459, 0.228758841753, 0.986663579941, -7.4289598465, 2.57187151909, 7.04954004288, 91.6626739502, 96.7018051147, 91.8752441406, 96.0267105103,             0,             0,             0,             0,          -0.5,          -0.5,          -0.5,          -0.5, 6.50218677521, 6.11684989929, 4.18841314316, 0.220703959465, -0.0221454482526, 4.57270956039, 1.52554476261, -28.9777011871
        0.405, -0.0325448662043, 0.228430360556, 0.986907958984, -7.78985834122, 2.58153486252, 7.09898710251, 91.6589889526, 96.7052078247, 91.8493804932,  96.044090271,             0,             0,             0,             0,          -0.5,          -0.5,          -0.5,          -0.5, 6.54258871078, 6.15003490448, 4.18827867508, 0.225449293852, -0.0215309783816, 4.53563117981, 1.53557896614,  -28.94140625
         0.41, -0.0328886210918, 0.22816605866, 0.987101614475,  -8.149061203, 2.59165215492, 7.15215206146, 91.6542816162, 96.7091903687, 91.8221969604, 96.0623550415,             0,             0,             0,             0,          -0.5,          -0.5,          -0.5,          -0.5, 6.58323717117, 6.18349647522, 4.18813896179, 0.230194047093, -0.0208941847086, 4.49676561356,  1.5456662178, -28.9048595428
        0.415, -0.0332216583192, 0.227977827191, 0.987236618996, -8.50583171844, 2.60228133202, 7.20861625671, 91.6487197876, 96.7130432129, 91.7939224243, 96.0812835693,             0,             0,             0,             0,          -0.5,          -0.5,          -0.5,          -0.5, 6.62411403656, 6.21721744537, 4.18799591064, 0.234941869974, -0.0202374458313, 4.45612335205,   1.555809021, -28.8680419922
         0.42, -0.0335511155427, 0.227856978774, 0.987314403057, -8.85943698883, 2.61348390579, 7.26796960831, 91.6424865723, 96.7170257568, 91.7647018433,  96.100730896,             0,             0,             0,             0,          -0.5,          -0.5,          -0.5,          -0.5,  6.6651763916, 6.25115966797, 4.18784856796, 0.239696651697, -0.019563253969, 4.41371965408, 1.56601059437, -28.8309364319
        0.425, -0.0338719040155, 0.227792143822, 0.98735666275, -9.20919418335, 2.62531709671, 7.32980394363, 91.6357421875, 96.7216110229, 91.7346496582, 96.1205978394,             0,             0,             0,             0,          -0.5,          -0.5,          -0.5,          -0.5, 6.70636081696, 6.28526306152, 4.18769884109, 0.244461894035, -0.018873790279, 4.36957168579, 1.57627439499, -28.7935333252
         0.43, -0.0341761857271, 0.227774098516, 0.987361192703, -9.55453968048, 2.63788223267, 7.39373636246, 91.6285934448,   96.72681427, 91.7038955688, 96.1408538818,             0,             0,             0,             0,          -0.5,          -0.5,          -0.5,          -0.5, 6.74758815765, 6.31945610046,  4.1875462532, 0.249240636826, -0.0181699153036, 4.32370090485, 1.58660435677, -28.7558193207
        0.435, -0.0344607196748, 0.227787584066, 0.987282335758, -9.89488601685,  2.6511926651, 7.45939064026, 91.6211624146, 96.7322235107, 91.6725921631,  96.161315918,             0,             0,             0,             0,          -0.5,          -0.5,          -0.5,          -0.5, 6.78877782822, 6.35366344452, 4.18739271164, 0.254035681486, -0.0174539852887, 4.27613162994, 1.59700536728, -28.7177867889
         0.44, -0.0347304753959, 0.227794840932, 0.986971199512, -10.2300252914, 2.66536974907, 7.52634620667,  91.613822937, 96.7374801636, 91.6407089233, 96.1817550659,             0,             0,             0,             0,          -0.5,          -0.5,          -0.5,          -0.5,    6.82984972, 6.38781356812, 4.18723917007, 0.258848279715, -0.0167340226471, 4.22688961029, 1.60748243332, -28.6794261932
        0.445, -0.0349893197417, 0.227815598249, 0.986636996269, -10.5597391129, 2.68029165268, 7.59423875809, 91.6066894531, 96.7425994873, 91.6081542969, 96.2019882202,             0,             0,             0,             0,          -0.5,          -0.5,          -0.5,          -0.5, 6.87073135376, 6.42184925079, 4.18708562851, 0.263679593801, -0.0160162709653,  4.1760020256, 1.61804080009, -28.6407318115
         0.45, -0.0352367684245, 0.227835103869, 0.986298203468, -10.8835334778, 2.69595456123, 7.66271400452, 91.5996704102, 96.7478637695, 91.5752868652, 96.2219085693,             0,             0,             0,             0,          -0.5,          -0.5,          -0.5,          -0.5, 6.91136074066, 6.45572042465, 4.18693399429, 0.268531054258, -0.0153003949672, 4.12349653244, 1.62868571281, -28.6017017365
        0.455, -0.0354693569243, 0.227837815881, 0.985941827297, -11.2010316849, 2.71233153343, 7.73143386841, 91.5926437378, 96.7534713745, 91.5423812866, 96.2414245605,             0,             0,             0,             0,          -0.5,          -0.5,          -0.5,          -0.5, 6.95169067383, 6.48939037323, 4.18678426743, 0.273403406143, -0.0145865781233, 4.06940507889, 1.63942229748, -28.5623321533
         0.46, -0.0356850139797, 0.227810278535, 0.985556364059, -11.5119686127, 2.72937440872,  7.8000869751, 91.5855102539, 96.7594451904, 91.5096282959, 96.2604446411,             0,             0,             0,             0,          -0.5,          -0.5,          -0.5,          -0.5, 6.99169206619, 6.52283382416, 4.18663740158, 0.278296738863, -0.0138756288216, 4.01375961304, 1.65025568008, -28.5226249695
        0.465, -0.0358846895397, 0.227741122246, 0.985132455826, -11.8161735535, 2.74702382088, 7.86839342117, 91.5781936646,  96.765663147, 91.4772872925, 96.2788848877,             0,             0,             0,             0,          -0.5,          -0.5,          -0.5,          -0.5, 7.03135204315, 6.55604171753, 4.18649482727, 0.283210635185, -0.0131688974798, 3.95659327507, 1.66119098663, -28.4825801849
         0.47, -0.0360704958439, 0.227620124817, 0.984663069248, -12.1135454178,    2.76521945, 7.93610239029, 91.5706558228, 96.7720870972, 91.4455871582, 96.2966995239,             0,             0,             0,             0,          -0.5,          -0.5,          -0.5,          -0.5, 7.07067203522, 6.58901643753, 4.18635654449, 0.288144230843, -0.0124681591988, 3.89794039726, 1.67223274708, -28.442199707
        0.475, -0.0362408570945, 0.227429315448, 0.984044969082, -12.4039831161, 2.78397846222, 8.00298213959, 91.5628662109, 96.7788162231, 91.4146652222,  96.313873291,             0,             0,             0,             0,          -0.5,          -0.5,          -0.5,          -0.5, 7.10966491699, 6.62176942825,  4.1862244606, 0.293096065521, -0.0117766810581, 3.83783531189, 1.68338572979, -28.4014892578
         0.48, -0.0363887771964, 0.227173984051, 0.983326852322, -12.6871500015, 2.80364632607, 8.06883525848, 91.5548400879, 96.7863311768, 91.3844909668,  96.330291748,             0,             0,             0,             0,          -0.5,          -0.5,          -0.5,          -0.5, 7.14834928513, 6.65431785583, 4.18609905243, 0.298064231873, -0.0111029781401, 3.77631402016, 1.69465565681, -28.360452652
        0.485, -0.0365233421326, 0.226844727993, 0.98260474205, -12.9631462097, 2.82406759262, 8.13351345062, 91.5466308594, 96.7945327759, 91.3550491333, 96.3459396362,             0,             0,             0,             0,          -0.5,          -0.5,          -0.5,          -0.5, 7.18674325943, 6.68668174744, 4.18598127365, 0.30304697156, -0.010447608307, 3.71341228485, 1.70604896545, -28.3190956116
         0.49, -0.0366438813508, 0.226436719298, 0.981857120991, -13.2320957184, 2.84509730339, 8.19689464569, 91.5383300781, 96.8031463623, 91.3263702393, 96.3608398438,             0,             0,             0,             0,          -0.5,          -0.5,          -0.5,          -0.5,  7.2248749733, 6.71888875961, 4.18587255478, 0.308042168617, -0.00981103628874, 3.64916586876, 1.71757102013, -28.2774238586
        0.495, -0.036752384156, 0.225947231054, 0.981071949005, -13.4940624237, 2.86666274071, 8.25889205933, 91.5300521851, 96.8120422363,  91.298538208, 96.3750762939,             0,             0,             0,             0,          -0.5,          -0.5,          -0.5,          -0.5, 7.26283836365, 6.75103187561, 4.18577289581, 0.313047468662, -0.00919458176941, 3.58360981941, 1.72922670841, -28.2354469299
          0.5, -0.0368516333401, 0.225375548005, 0.980245053768, -13.7490568161, 2.88873910904, 8.31945419312, 91.5218582153, 96.8214569092, 91.2715988159, 96.3886642456,             0,             0,             0,             0,          -0.5,          -0.5,          -0.5,          -0.5, 7.30081796646, 6.78329610825, 4.18568372726, 0.318060457706, -0.008599977009, 3.51677918434, 1.74102091789, -28.1931686401
        0.505, -0.0369413979352, 0.224722862244, 0.979378700256, -13.9970493317, 2.91132497787, 8.37856864929, 91.5138320923, 96.8318405151, 91.2455215454, 96.4016036987,             0,             0,             0,             0,          -0.5,          -0.5,          -0.5,          -0.5, 7.33905649185, 6.81592750549, 4.18560504913, 0.323078721762, -0.00802900269628, 3.44870853424, 1.75295805931, -28.1506004333
         0.51, -0.0370193012059, 0.223991855979, 0.978479623795, -14.2379837036, 2.93442392349, 8.43626785278, 91.5060119629, 96.8434829712, 91.2202377319, 96.4138946533,             0,             0,             0,             0,          -0.5,          -0.5,          -0.5,          -0.5, 7.37782478333, 6.84920072556, 4.18553781509, 0.328099906445, -0.00748321926221, 3.37943339348, 1.76504278183, -28.1077461243
        0.515, -0.0370842479169, 0.22318585217, 0.977557718754, -14.471786499,  2.9580309391, 8.49263381958, 91.4984512329, 96.8562927246, 91.1957168579, 96.4255523682,             0,             0,             0,             0,          -0.5,          -0.5,          -0.5,          -0.5, 7.41738986969,  6.8833899498, 4.18548250198, 0.333121806383, -0.00696377828717, 3.30898880959, 1.77727973461, -28.0646152496
         0.52, -0.0371381565928, 0.222308188677, 0.976624131203, -14.698384285,  2.9821267128, 8.54779338837, 91.4911727905, 96.8700180054, 91.1719436646, 96.4366149902,             0,             0,             0,             0,          -0.5,          -0.5,          -0.5,          -0.5, 7.45799541473, 6.91874790192, 4.18544006348, 0.338142216206, -0.00647132331505, 3.23741102219, 1.78967320919, -28.0212154388
        0.525, -0.0371846519411, 0.221361964941, 0.975690066814, -14.9177112579, 3.00667405128, 8.60190963745, 91.4842071533, 96.8844528198, 91.1489334106, 96.4471206665,             0,             0,             0,             0,          -0.5,          -0.5,          -0.5,          -0.5, 7.49984407425, 6.95548629761, 4.18541097641, 0.343159139156, -0.0060059633106, 3.16473603249,  1.8022274971, -27.9775505066
         0.53, -0.0372273884714, 0.220336198807, 0.974769949913, -15.129737854, 3.03161048889, 8.65519523621, 91.4775466919,  96.899559021, 91.1266403198, 96.4571151733,             0,             0,             0,             0,          -0.5,          -0.5,          -0.5,          -0.5, 7.54308509827, 6.99376487732, 4.18539619446, 0.348170101643, -0.00556737929583, 3.09100031853, 1.81494641304, -27.9336261749
        0.535, -0.0372690036893, 0.219256058335, 0.973894536495, -15.3343801498, 3.05678415298, 8.70791625977, 91.4710922241, 96.9153594971, 91.1050338745, 96.4666748047,             0,             0,             0,             0,          -0.5,          -0.5,          -0.5,          -0.5, 7.58781194687, 7.03368663788, 4.18539524078, 0.353173136711, -0.00515362853184, 3.01624107361, 1.82783329487, -27.8894462585
         0.54, -0.0373080037534, 0.218115791678, 0.97303879261, -15.5316076279, 3.08209967613, 8.76032543182,  91.464805603, 96.9318084717, 91.0840682983, 96.4759140015,             0,             0,             0,             0,          -0.5,          -0.5,          -0.5,          -0.5, 7.63406181335, 7.07529497147, 4.18540859222, 0.358166366816, -0.00476327585056, 2.94049501419, 1.84089064598, -27.8450145721
        0.545, -0.0373446419835, 0.216918841004, 0.972208499908, -15.7214450836, 3.10748744011, 8.81268978119, 91.4587020874, 96.9488067627, 91.0636978149,  96.484916687,             0,             0,             0,             0,          -0.5,          -0.5,          -0.5,          -0.5, 7.68182325363,  7.1185836792, 4.18543720245, 0.363147825003, -0.00439518736675, 2.86379981041, 1.85412037373, -27.8003311157
         0.55, -0.037380117923, 0.215668305755, 0.971407473087, -15.9039335251, 3.13287258148, 8.86529159546, 91.4527893066, 96.9662628174, 91.0438461304, 96.4937744141,             0,             0,             0,             0,          -0.5,          -0.5,          -0.5,          -0.5, 7.73104333878, 7.16350603104, 4.18548059464, 0.368115603924, -0.00404802709818, 2.78619217873, 1.86752414703, -27.7553977966
        0.555, -0.0374175347388, 0.214366972446, 0.970638155937, -16.0791282654, 3.15817975998,  8.9184217453, 91.4470748901, 96.9841842651, 91.0244750977, 96.5026016235,             0,             0,             0,             0,          -0.5,          -0.5,          -0.5,          -0.5, 7.78164148331, 7.20998430252, 4.18553924561, 0.373067766428, -0.00372033938766, 2.70770931244, 1.88110303879, -27.7102108002
         0.56, -0.0374569706619, 0.213017567992, 0.969901561737, -16.2470932007, 3.18333649635, 8.97237873077, 91.4415664673, 97.0026626587, 91.0055770874, 96.5115127563,             0,             0,             0,             0,          -0.5,          -0.5,          -0.5,          -0.5, 7.83351659775, 7.25792074203, 4.18561267853, 0.378002345562, -0.00341062084772, 2.62838768959, 1.89485764503, -27.6647701263
        0.565, -0.037497792393, 0.211622878909, 0.969197809696, -16.4079017639,  3.2082760334, 9.02746200562, 91.4362792969, 97.0218429565, 90.9870758057, 96.5206298828,             0,             0,             0,             0,          -0.5,          -0.5,          -0.5,          -0.5, 7.88655948639, 7.30720853806, 4.18570232391, 0.382917433977, -0.00311737181619, 2.54826378822,  1.9087883234, -27.6190700531
         0.57, -0.0375400520861, 0.210185781121, 0.968526422977, -16.561624527, 3.23293805122, 9.08396816254, 91.4312210083, 97.0418548584, 90.9688720703, 96.5300445557,             0,             0,             0,             0,          -0.5,          -0.5,          -0.5,          -0.5, 7.94066333771,  7.3577413559, 4.18580722809, 0.387811094522, -0.00283913104795, 2.46737337112, 1.92289483547, -27.5731067657
        0.575, -0.0375835224986, 0.208708614111, 0.967886984348, -16.7083358765, 3.25727152824,  9.1421880722, 91.4264144897, 97.0628356934, 90.9509353638, 96.5398712158,             0,             0,             0,             0,          -0.5,          -0.5,          -0.5,          -0.5, 7.99572896957, 7.40942192078, 4.18592786789, 0.392681360245, -0.00257449247874, 2.38575267792, 1.93717682362, -27.5268688202
         0.58, -0.0376278497279, 0.20719344914, 0.967278897762, -16.8481044769, 3.28123235703, 9.20240211487,     91.421875, 97.0849380493, 90.9331817627, 96.5502166748,             0,             0,             0,             0,          -0.5,          -0.5,          -0.5,          -0.5, 8.05167484283, 7.46216630936, 4.18606472015, 0.397526264191, -0.00232208403759, 2.30343699455, 1.95163345337, -27.4803524017
        0.585, -0.0376648381352, 0.205649793148, 0.966708421707, -16.9809894562,  3.3047773838,  9.2648935318, 91.4176177979, 97.1084060669, 90.9155502319, 96.5611801147,             0,             0,             0,             0,          -0.5,          -0.5,          -0.5,          -0.5, 8.10843276978, 7.51590967178, 4.18621778488, 0.402343928814, -0.00208050548099, 2.22046113014, 1.96626365185, -27.4335422516
         0.59, -0.0377110131085, 0.204071387649, 0.966168999672, -17.1070594788, 3.32785892487, 9.32991790771, 91.4136734009, 97.1334075928, 90.8979721069, 96.5728683472,             0,             0,             0,             0,          -0.5,          -0.5,          -0.5,          -0.5, 8.16595745087,  7.5706038475, 4.18638753891, 0.407132506371, -0.00184814690147, 2.13686060905, 1.98106634617, -27.3864326477
        0.595, -0.0377564504743, 0.202466458082, 0.965655207634, -17.226348877, 3.35047221184, 9.39771366119, 91.4100723267, 97.1600341797, 90.8803939819, 96.5853729248,             0,             0,             0,             0,          -0.5,          -0.5,          -0.5,          -0.5, 8.22422027588, 7.62622070312, 4.18657398224, 0.411890029907, -0.00162396638189, 2.05266976357,  1.9960398674, -27.339006424
          0.6, -0.0378006659448, 0.200838968158, 0.965167939663, -17.3388690948,  3.3726170063,  9.4685125351, 91.4068374634, 97.1884155273,  90.862739563, 96.5987548828,             0,             0,             0,             0,          -0.5,          -0.5,          -0.5,          -0.5, 8.28320789337, 7.68274736404, 4.18677711487, 0.416614711285, -0.0014069454046, 1.96792340279, 2.01118302345, -27.2912540436
        0.605, -0.0378457568586, 0.19919449091, 0.964740931988, -17.4446640015, 3.39425444603, 9.54253196716, 91.4039916992, 97.2186203003, 90.8449478149, 96.6130981445,             0,             0,             0,             0,          -0.5,          -0.5,          -0.5,          -0.5, 8.34292125702, 7.74018478394, 4.18699789047, 0.421304911375, -0.00119538558647,  1.8826559782,  2.0264942646, -27.2431564331
         0.61, -0.0378897488117, 0.197535917163, 0.964339792728, -17.5437812805, 3.41532111168,  9.6199760437, 91.4015731812, 97.2506790161, 90.8269958496, 96.6284713745,             0,             0,             0,             0,          -0.5,          -0.5,          -0.5,          -0.5, 8.40336894989, 7.79854059219, 4.18723583221, 0.425959050655, -0.000987116713077, 1.79690206051,  2.0419716835, -27.1946983337
        0.615, -0.0379390046, 0.195964679122, 0.963984131813, -17.6356086731, 3.43591308594, 9.70126438141, 91.4012298584, 97.2847747803, 90.8088150024, 96.6449203491,             0,             0,             0,             0,          -0.5,          -0.5,          -0.5,          -0.5,  8.4645318985,  7.8578119278, 4.18749189377, 0.430579513311, -0.000781867129263, 1.71069705486, 2.05761361122, -27.1458644867
         0.62, -0.0379835963249, 0.194294422865, 0.963865637779, -17.7203731537, 3.45566797256, 9.78641223907, 91.4010238647, 97.3209075928, 90.7903289795, 96.6625976562,             0,             0,             0,             0,          -0.5,          -0.5,          -0.5,          -0.5, 8.52636814117, 7.91797542572, 4.18776607513, 0.435162037611, -0.000573275203351, 1.62407827377, 2.07341837883, -27.0966339111
        0.625, -0.0380311310291, 0.192566886544, 0.963845312595, -17.7976913452, 3.47392177582, 9.87553501129, 91.3996887207, 97.3590087891, 90.7717895508, 96.6816864014,             0,             0,             0,             0,          -0.5,          -0.5,          -0.5,          -0.5, 8.58897399902,  7.9791021347, 4.18805885315, 0.43970310688, -0.000349869165802, 1.53708291054,  2.0893805027, -27.0469894409
         0.63, -0.0380842350423, 0.190810456872, 0.963745415211, -17.8677902222, 3.49094462395, 9.96864891052, 91.3974914551, 97.4000930786, 90.7532119751, 96.7022705078,             0,             0,             0,             0,          -0.5,          -0.5,          -0.5,          -0.5, 8.65252494812, 8.04133415222, 4.18837022781, 0.444199293852, -0.000114723225124, 1.44974899292, 2.10549449921, -26.9969100952
        0.635, -0.0381316505373, 0.189046308398, 0.963606238365, -17.9308605194, 3.50703692436, 10.0658111572, 91.3949432373, 97.4449005127, 90.7344055176, 96.7243499756,             0,             0,             0,             0,          -0.5,          -0.5,          -0.5,          -0.5, 8.71715831757, 8.10478210449, 4.18870019913, 0.448648452759, 0.000128712781589, 1.36211299896, 2.12175559998, -26.9463768005
         0.64, -0.0381640940905, 0.187292128801, 0.963461637497, -17.9869651794,   3.522377491, 10.1671295166, 91.3924942017, 97.4929962158, 90.7152786255, 96.7478485107,             0,             0,             0,             0,          -0.5,          -0.5,          -0.5,          -0.5, 8.78295326233, 8.16951465607, 4.18904972076, 0.453049391508, 0.000378896307666, 1.27421116829, 2.13816142082, -26.8953704834
        0.645, -0.0381837189198, 0.185559645295, 0.963331103325, -18.0360527039, 3.53704953194, 10.2727394104, 91.3905181885, 97.5433425903,  90.695854187, 96.7727127075,             0,             0,             0,             0,          -0.5,          -0.5,          -0.5,          -0.5, 8.84993553162, 8.23555469513, 4.18942022324, 0.457401573658, 0.000635781849269,  1.1860793829, 2.15470910072, -26.843870163
         0.65, -0.0382092446089, 0.183905944228, 0.963373064995, -18.0778274536, 3.55102968216, 10.3828105927, 91.3891830444, 97.5954818726,  90.676109314, 96.7989730835,             0,             0,             0,             0,          -0.5,          -0.5,          -0.5,          -0.5, 8.91808509827, 8.30288505554, 4.18981218338, 0.461705267429, 0.000901078456081, 1.09775459766, 2.17139720917, -26.791852951
        0.655, -0.0382475480437,  0.1823104918, 0.963557243347, -18.1114349365, 3.56363964081, 10.4976654053, 91.3879013062,  97.649772644, 90.6561431885, 96.8268127441,             0,             0,             0,             0,          -0.5,          -0.5,          -0.5,          -0.5,  8.9873380661, 8.37143516541, 4.19022512436, 0.465963870287, 0.00118688924704, 1.00927686691, 2.18822193146, -26.7392978668
         0.66, -0.0382820926607, 0.180718958378, 0.96371948719, -18.1368789673, 3.57498764992, 10.6173410416, 91.3871307373, 97.7066268921, 90.6359329224, 96.8563766479,             0,             0,             0,             0,          -0.5,          -0.5,          -0.5,          -0.5, 9.05759716034, 8.44109725952, 4.19065904617, 0.470176190138, 0.00149256084114, 0.920688509941, 2.20517754555, -26.6861801147
        0.665, -0.0383102744818, 0.179149746895, 0.963903963566, -18.154132843,  3.5851726532, 10.7418813705,  91.387298584, 97.7656555176,  90.615447998, 96.8877639771,             0,             0,             0,             0,          -0.5,          -0.5,          -0.5,          -0.5, 9.12874507904,  8.5117521286, 4.19111442566, 0.474341183901, 0.00181751861237, 0.832031786442,  2.2222597599, -26.6324768066
         0.67, -0.0383379682899, 0.177606761456, 0.964132249355, -18.1630764008, 3.59419226646, 10.8713350296,  91.388710022, 97.8269195557, 90.5946884155, 96.9209671021,             0,             0,             0,             0,          -0.5,          -0.5,          -0.5,          -0.5, 9.20065593719, 8.58327770233, 4.19159269333, 0.478458315134, 0.00216277129948, 0.743349313736, 2.23946428299, -26.578163147
        0.675, -0.0383646041155, 0.176090076566, 0.964411020279, -18.1635532379, 3.60200023651, 11.0057411194, 91.3915023804, 97.8906097412, 90.5736694336, 96.9559631348,             0,             0,             0,             0,          -0.5,          -0.5,          -0.5,          -0.5, 9.27320480347, 8.65555477142, 4.19209384918, 0.482526957989, 0.00252995849587,  0.6546844244, 2.25678682327, -26.5232143402
         0.68, -0.0383885763586, 0.174596264958, 0.964738309383, -18.1554260254, 3.60854506493,  11.145111084, 91.3957595825, 97.9568252563, 90.5524139404,  96.992729187,             0,             0,             0,             0,          -0.5,          -0.5,          -0.5,          -0.5, 9.34627723694, 8.72847557068, 4.19261741638, 0.486546456814, 0.00292078126222, 0.566081404686,  2.2742228508, -26.4676074982
        0.685, -0.0383859239519, 0.173046305776, 0.965025603771, -18.1387462616, 3.61378741264, 11.2893953323, 91.4009933472, 98.0255737305, 90.5309448242, 97.0312805176,             0,             0,             0,             0,          -0.5,          -0.5,          -0.5,          -0.5, 9.41977977753, 8.80195140839, 4.19316530228, 0.490515142679, 0.00333648221567, 0.477584809065, 2.29176783562, -26.411315918
         0.69, -0.0383721701801, 0.171465352178, 0.964894652367, -18.1143531799, 3.61870527267,  11.438246727, 91.4072113037,  98.097038269, 90.5091552734, 97.0715255737,             0,             0,             0,             0,          -0.5,          -0.5,          -0.5,          -0.5,  9.4936914444, 8.87594604492, 4.19373893738, 0.494426548481, 0.0037619988434,  0.3892365098, 2.30941867828, -26.3543186188
        0.695, -0.0383558906615, 0.169934809208, 0.964937567711, -18.0816001892, 3.62379741669, 11.5916957855, 91.4160995483, 98.1717453003, 90.4869537354,  97.113243103,             0,             0,             0,             0,          -0.5,          -0.5,          -0.5,          -0.5, 9.56796550751, 8.95044517517, 4.19433879852, 0.498280644417, 0.00419118627906, 0.301078110933,  2.3271780014, -26.2965888977
          0.7, -0.0383369550109, 0.168436586857, 0.965135872364, -18.0404090881, 3.62853240967, 11.7497549057, 91.4271469116, 98.2494277954, 90.4643554688, 97.1564025879,             0,             0,             0,             0,          -0.5,          -0.5,          -0.5,          -0.5, 9.64255237579, 9.02542495728, 4.19496536255, 0.502077519894, 0.00463337125257, 0.213153168559, 2.34504699707, -26.2381095886
        0.705, -0.0383009836078, 0.166932657361, 0.965382218361, -17.9908161163, 3.63262343407, 11.9123535156, 91.4398803711, 98.3299026489, 90.4416046143, 97.2010421753,             0,             0,             0,             0,          -0.5,          -0.5,          -0.5,          -0.5,  9.7174282074, 9.10087966919, 4.19561910629, 0.505816042423, 0.00509342225268, 0.125505402684, 2.36302542686, -26.1788520813
         0.71, -0.0382087863982, 0.16522398591, 0.965533256531, -17.9334125519, 3.63585162163, 12.0791473389, 91.4539260864, 98.4132461548, 90.4187088013, 97.2473068237,             0,             0,             0,             0,          -0.5,          -0.5,          -0.5,          -0.5, 9.79263401031, 9.17685413361, 4.19630241394, 0.50948870182, 0.00556818721816, 0.0381771586835, 2.38111138344, -26.1187973022
