Time,AxG_S1,AyG_S1,AzG_S1,AVx_S1,AVy_S1,AVz_S1,AVy_L1,AVy_R1,AVy_L2,AVy_R2,My_Dr_L1,My_Dr_R1,My_Dr_L2,My_Dr_R2,My_Bk_L1,My_Bk_R1,My_Bk_L2,My_Bk_R2,StrK_L1,StrK_R1,sv_vx,sv_vy,sv_vz,Roll_E,Pitch,Yaw
            0, -0.00157498999033, 3.13438669149e-18, 0.999656260014,             0,             0,             0, 62.8574028015, 62.8574028015, 62.8574028015, 62.8574028015,             0,             0,             0,             0,          -0.5,          -0.5,          -0.5,          -0.5, -9.87841267488e-05, 9.87841267488e-05, 2.77777695656,             0, -0.00216607772745,             0, -0.0448669977486,           180
        0.005, -0.00447095930576, 3.28354651344e-16, 1.00069224834, 8.49904727759e-15, 0.00133538921364, -2.74035995447e-15, 62.7885894775, 62.7885894775, 62.7712898254, 62.7712898254, 2.82192993164, 2.82192993164, 2.82192993164, 2.82192993164,          -0.5,          -0.5,          -0.5,          -0.5, -0.000122123921756, 0.000122123921756, 2.77760910988, -5.86423871918e-17, -0.00215946952812, 1.18606210301e-17, -0.0448627434671,           180
         0.01, -0.00762399891391, -2.07953856094e-14, 1.00203967094, 2.10596192313e-14, 6.98174335412e-05, -9.87234052442e-16, 62.8235054016, 62.8235054016, 62.8055114746, 62.8055114746, 6.84835577011, 6.84835577011, 6.84835577011, 6.84835577011,          -0.5,          -0.5,          -0.5,          -0.5, -0.00020870276785, 0.00020870276785,  2.7772591114, -9.06452970249e-18, -0.0020930278115, 7.2488424499e-17, -0.0448576286435,           180
        0.015, -0.00528172357008, 6.53444784769e-16, 1.00348365307, 3.40322930427e-14, -0.00719004124403, -1.19009196351e-14, 62.9146270752, 62.9146270752, 62.8969268799, 62.8969268799, 11.7565813065, 11.7565813065, 11.7565813065, 11.7565813065,          -0.5,          -0.5,          -0.5,          -0.5, -0.000370706024114, 0.000370706024114, 2.77688503265, -2.47526108836e-16, -0.00195842655376, 1.9495369871e-16, -0.0448718108237,           180
         0.02, 0.000297048187349, -1.81566657969e-15, 1.00490319729, 4.07941706131e-14, -0.0236952677369, 1.21321443831e-14, 62.9732437134, 62.9732437134, 62.9444541931, 62.9444541931, 16.1684265137, 16.1684265137, 16.1684265137, 16.1684265137,          -0.5,          -0.5,          -0.5,          -0.5, -0.000607880181633, 0.000607880181633, 2.77671861649, 1.79393637295e-16, -0.00175602384843, 4.01354041851e-16, -0.0449446886778,           180
        0.025, 0.00453455140814, -2.07550515945e-14, 1.00621664524, 1.14688167885e-14, -0.0492823012173, -1.07520837665e-15, 62.9624786377, 62.9624786377, 62.9162139893, 62.9162139893, 19.0513973236, 19.0513973236, 19.0513973236, 19.0513973236,          -0.5,          -0.5,          -0.5,          -0.5, -0.000911272654776, 0.000911272654776, 2.77681422234, -7.65864228374e-17, -0.00149146479089, 5.27279650792e-16, -0.045123744756,           180
         0.03, 0.00389344221912, 9.14463321126e-17, 1.00735986233, 1.1458341532e-14, -0.0803945437074, -3.67623098778e-15, 62.9239349365, 62.9239349365, 62.8700218201, 62.8700218201, 20.2676944733, 20.2676944733, 20.2676944733, 20.2676944733,          -0.5,          -0.5,          -0.5,          -0.5, -0.00126762641594, 0.00126762641594, 2.77700972557, -1.35271770481e-16, -0.00117341510486, 5.87539268726e-16, -0.045446574688,           180
        0.035, 0.00122737791389, 4.08253651425e-14, 1.00826489925, 1.15000824686e-14, -0.112833023071, -7.07707872657e-17, 62.9347877502, 62.9347877502, 62.8795776367, 62.8795776367, 20.4677429199, 20.4677429199, 20.4677429199, 20.4677429199,          -0.5,          -0.5,          -0.5,          -0.5, -0.00166258623358, 0.00166258623358, 2.77708983421, -7.19410890138e-17, -0.00081257999409, 6.5743796278e-16, -0.0459293276072,           180
         0.04, 0.00118886225391, 5.93712815422e-16, 1.00890147686, -1.08507385409e-14, -0.14606551826, 3.94997213106e-15, 62.9712715149, 62.9712715149, 62.9191703796, 62.9191703796, 20.2841968536, 20.2841968536, 20.2841968536, 20.2841968536,          -0.5,          -0.5,          -0.5,          -0.5, -0.00208080862649, 0.00208080862649, 2.77709698677, -1.6294956465e-16, -0.000421941746026, 6.68605245157e-16, -0.0465760156512,           180
        0.045, 0.00233381055295, 5.98717986047e-16,  1.0092830658, -1.76584617696e-14, -0.180443197489, 8.88312886181e-16, 62.9861335754, 62.9861335754, 62.9374923706, 62.9374923706, 19.8643093109, 19.8643093109, 19.8643093109, 19.8643093109,          -0.5,          -0.5,          -0.5,          -0.5, -0.00250610825606, 0.00250610825606, 2.77714323997, -1.72953314924e-16, -1.43832248796e-05, 6.26860338082e-16, -0.0473919324577,           180
         0.05, 0.0025843817275, 1.060322302e-15,  1.0094025135, -1.59118506098e-15, -0.214961543679, -4.85908285247e-15, 62.9791870117, 62.9791870117, 62.9285316467, 62.9285316467, 19.1848964691, 19.1848964691, 19.1848964691, 19.1848964691,          -0.5,          -0.5,          -0.5,          -0.5, -0.00292345252819, 0.00292345252819, 2.77723050117, -2.91159502336e-16, 0.000396603369154, 5.71515417067e-16, -0.0483807474375,           180
        0.055, 0.00100705772638, 2.05391208734e-14, 1.00934970379, 1.41938496818e-14, -0.247595280409, 1.03671860661e-14, 62.9789009094, 62.9789009094,  62.927570343,  62.927570343, 18.3172512054, 18.3172512054, 18.3172512054, 18.3172512054,          -0.5,          -0.5,          -0.5,          -0.5, -0.00332063855603, 0.00332063855603, 2.77727794647, -6.73313107217e-17, 0.000800974841695, 6.21656326473e-16, -0.0495383962989,           180
         0.06, 0.000593338452745, 8.26115892138e-16, 1.00913310051, 2.22143030154e-15, -0.27741470933, 2.41494598976e-15, 62.9901390076, 62.9901390076, 62.9434738159, 62.9434738159, 17.4296417236, 17.4296417236, 17.4296417236, 17.4296417236,          -0.5,          -0.5,          -0.5,          -0.5, -0.00368857220747, 0.00368857220747, 2.77726745605, -2.17890900935e-16, 0.00119109754451, 6.64454519018e-16, -0.0508520416915,           180
        0.065, 0.00074818986468, 2.59090808483e-16, 1.00878882408, 1.71626120705e-14, -0.304693371058, 7.35703425942e-15, 62.9929771423, 62.9929771423, 62.9491462708, 62.9491462708, 16.5803260803, 16.5803260803, 16.5803260803, 16.5803260803,          -0.5,          -0.5,          -0.5,          -0.5, -0.00402012467384, 0.00402012467384, 2.77725672722, -1.31795547266e-16, 0.00156036717817, 7.16281500445e-16, -0.0523084774613,           180
         0.07, 0.000325844273902, 1.34096988723e-16, 1.00835442543, 2.2849455753e-14, -0.328981101513, 1.05501468767e-14,  62.989982605,  62.989982605, 62.9478874207, 62.9478874207, 15.7692689896, 15.7692689896, 15.7692689896, 15.7692689896,          -0.5,          -0.5,          -0.5,          -0.5, -0.0043103848584, 0.0043103848584, 2.77724075317, -1.24329653285e-16, 0.00190414814278, 8.17344071876e-16, -0.053894136101,           180
        0.075, -0.00016083495575, 5.03236832343e-16,  1.0078523159, 1.60348283588e-14, -0.349766582251, 8.52384501415e-15, 62.9898300171, 62.9898300171, 62.9523849487, 62.9523849487,  15.025188446,  15.025188446,  15.025188446,  15.025188446,          -0.5,          -0.5,          -0.5,          -0.5, -0.00455692317337, 0.00455692317337, 2.77719593048, -1.90765398719e-16, 0.00221943249926, 9.33076142223e-16, -0.0555925369263,           180
         0.08, -0.000238115098909, 2.11716037632e-14, 1.00730335712, 3.37670734744e-14, -0.367217540741, 9.12482590166e-15, 62.9892234802, 62.9892234802, 62.9558410645, 62.9558410645, 14.3730010986, 14.3730010986, 14.3730010986, 14.3730010986,          -0.5,          -0.5,          -0.5,          -0.5, -0.00475914310664, 0.00475914310664, 2.77713727951, -2.13601314332e-16, 0.00250422209501, 1.05184583154e-15, -0.0573863908648,           180
        0.085, -0.000374761002604, -2.03444032454e-14, 1.00673007965, 4.73947595579e-14, -0.38150960207, 6.98753858255e-15,  62.985824585,  62.985824585, 62.9556007385, 62.9556007385, 13.8106555939, 13.8106555939, 13.8106555939, 13.8106555939,          -0.5,          -0.5,          -0.5,          -0.5, -0.00491775106639, 0.00491775106639, 2.77707314491, -3.00607149011e-16, 0.00275756977499, 1.24269971873e-15, -0.0592595860362,           180
         0.09, -0.000564136076719, 1.55022106534e-15, 1.00614798069, 8.64684910587e-14, -0.392707437277, -8.35922924305e-15, 62.9820632935, 62.9820632935, 62.9560508728, 62.9560508728, 13.3360137939, 13.3360137939, 13.3360137939, 13.3360137939,          -0.5,          -0.5,          -0.5,          -0.5, -0.00503462413326, 0.00503462413326, 2.77699828148, -6.46282274167e-16, 0.00297946273349, 1.55242885672e-15, -0.0611964464188,           180
        0.095, -0.000623375643045, 2.14090084636e-14, 1.00556731224, 1.44720295318e-13, -0.401056945324, -6.02609943621e-15, 62.9784584045, 62.9784584045, 62.9563407898, 62.9563407898, 12.9483652115, 12.9483652115, 12.9483652115, 12.9483652115,          -0.5,          -0.5,          -0.5,          -0.5, -0.00511244125664, 0.00511244125664, 2.77691555023, -6.87774606605e-16, 0.00317045114934, 2.12713075879e-15, -0.0631820335984,           180
          0.1, -0.000639132689685, 2.07231879091e-14, 1.00499665737, 1.8654011441e-13, -0.406860530376, -1.6430594339e-14, 62.9741516113, 62.9741516113, 62.9552230835, 62.9552230835, 12.6407527924, 12.6407527924, 12.6407527924, 12.6407527924,          -0.5,          -0.5,          -0.5,          -0.5, -0.00515430094674, 0.00515430094674, 2.77682995796, -7.81766835207e-16, 0.00333147775382, 2.94959022146e-15, -0.065202884376,           180
        0.105, -0.000650839996524, 2.10699953849e-14, 1.00438916683, 2.15179301244e-13, -0.410359829664, -2.39539206477e-14, 62.9694252014, 62.9694252014,  62.953868866,  62.953868866, 12.4044475555, 12.4044475555, 12.4044475555, 12.4044475555,          -0.5,          -0.5,          -0.5,          -0.5, -0.0051635154523, 0.0051635154523, 2.77674150467, -8.73975953576e-16, 0.00346355792135, 3.96560793575e-15, -0.0672469139099,           180
         0.11, -0.000609023903962, 3.78740990664e-14, 1.00369083881, 2.20968547821e-13, -0.411410450935, 1.22294966326e-15, 62.9649505615, 62.9649505615, 62.9523239136, 62.9523239136,  12.231212616,  12.231212616,  12.231212616,  12.231212616,          -0.5,          -0.5,          -0.5,          -0.5, -0.00514488294721, 0.00514488294721,  2.7766520977, -5.38278744189e-16, 0.00356143596582, 5.10952508399e-15, -0.0693023726344,           180
        0.115, -0.000536954845302, -7.50107814133e-15, 1.00310218334, 1.54174524709e-13, -0.410387963057, 2.87825251371e-14, 62.9605255127, 62.9605255127, 62.9501342773, 62.9501342773, 12.1118021011, 12.1118021011, 12.1118021011, 12.1118021011,          -0.5,          -0.5,          -0.5,          -0.5, -0.00510480487719, 0.00510480487719, 2.77656388283, -8.76846190892e-17, 0.00362808513455, 6.04983965214e-15, -0.0713576674461,           180
         0.12, -0.000454263063148, -5.12519053483e-15, 1.00256705284, 2.782515429e-14, -0.40771278739, 1.61024673277e-14, 62.9559707642, 62.9559707642, 62.9476547241, 62.9476547241, 12.0369777679, 12.0369777679, 12.0369777679, 12.0369777679,          -0.5,          -0.5,          -0.5,          -0.5, -0.00504734134302, 0.00504734134302, 2.77647781372, -3.07122049985e-16, 0.00366782117635, 6.48777008543e-15, -0.0734035745263,           180
        0.125, -0.000350850721588, -2.32598161109e-14, 1.00205397606, -4.07352916589e-14, -0.403646856546, 2.32241822819e-15, 62.9513282776, 62.9513282776, 62.9450798035, 62.9450798035, 11.9983320236, 11.9983320236, 11.9983320236, 11.9983320236,          -0.5,          -0.5,          -0.5,          -0.5, -0.00497485371307, 0.00497485371307, 2.77639436722, -5.861156181e-16, 0.00368278403766, 6.42693194399e-15, -0.0754325389862,           180
         0.13, -0.000227977739996, 2.88524859293e-16, 1.00154626369, -6.85872799527e-14, -0.398362666368, -1.31737441865e-14, 62.9465866089, 62.9465866089, 62.9422874451, 62.9422874451, 11.9879627228, 11.9879627228, 11.9879627228, 11.9879627228,          -0.5,          -0.5,          -0.5,          -0.5, -0.00488872081041, 0.00488872081041, 2.77631473541, -9.14898391659e-16, 0.00367391039617, 6.15026811353e-15, -0.0774380713701,           180
        0.135, -9.48443412199e-05, -2.04234619126e-14, 1.00103628635, -4.40339225586e-14, -0.391970306635, -1.17897203027e-14, 62.9417648315, 62.9417648315, 62.9393463135, 62.9393463135, 11.9984884262, 11.9984884262, 11.9984884262, 11.9984884262,          -0.5,          -0.5,          -0.5,          -0.5, -0.00478977104649, 0.00478977104649, 2.77623987198, -9.39624553938e-16, 0.00364152761176, 5.86497937008e-15, -0.0794143676758,           180
         0.14, 5.12896476721e-05, -2.17093070544e-14, 1.00052130222, -2.64545872188e-14, -0.384544312954, -1.42902547366e-15, 62.9368476868, 62.9368476868, 62.9363288879, 62.9363288879, 12.0232877731, 12.0232877731, 12.0232877731, 12.0232877731,          -0.5,          -0.5,          -0.5,          -0.5, -0.00467853993177, 0.00467853993177, 2.77617001534, -7.75914525756e-16, 0.00358569971286, 5.68750563884e-15, -0.0813560932875,           180
        0.145, 0.000210194368265, -1.76451849517e-15, 1.00000154972, -6.14058161415e-14, -0.376139968634, 6.93789864019e-15, 62.9317626953, 62.9317626953, 62.9331817627, 62.9331817627, 12.0563602448, 12.0563602448, 12.0563602448, 12.0563602448,          -0.5,          -0.5,          -0.5,          -0.5, -0.00455541396514, 0.00455541396514, 2.77610611916, -5.99016035765e-16, 0.00350642204285, 5.4983394648e-15, -0.0832582190633,           180
         0.15, 0.000376261188649, 4.96722990159e-16, 0.999478578568, -8.57721147796e-14, -0.366797536612, 1.01184575939e-15, 62.9264678955, 62.9264678955, 62.9298057556, 62.9298057556, 12.0922727585, 12.0922727585, 12.0922727585, 12.0922727585,          -0.5,          -0.5,          -0.5,          -0.5, -0.00442071445286, 0.00442071445286, 2.77604842186, -8.23446732503e-16, 0.00340372603387, 5.10884534005e-15, -0.0851159691811,           180
        0.155, 0.000543285394087, 1.41693386658e-15, 0.99895465374, -9.25588205798e-14, -0.35654515028, -3.16713750495e-15, 62.9209976196, 62.9209976196, 62.9262008667, 62.9262008667, 12.1262693405, 12.1262693405, 12.1262693405, 12.1262693405,          -0.5,          -0.5,          -0.5,          -0.5, -0.00427474360913, 0.00427474360913,  2.7759976387, -8.52472539902e-16, 0.00327773299068, 4.67873725602e-15, -0.0869247168303,           180
         0.16, 0.000708875013515, 1.72201438188e-15, 0.998432099819, -7.45469969934e-14, -0.345403283834, -2.5250395206e-15, 62.9154090881, 62.9154090881, 62.9224243164, 62.9224243164, 12.1543684006, 12.1543684006, 12.1543684006, 12.1543684006,          -0.5,          -0.5,          -0.5,          -0.5, -0.00411780923605, 0.00411780923605, 2.77595329285, -8.25635412699e-16, 0.00312866992317, 4.26324133737e-15, -0.0886799767613,           180
        0.165, 0.000873835408129, -1.74594784837e-14, 0.997912824154, -6.54546268531e-14, -0.333389222622, -1.65865788443e-14, 62.9097290039, 62.9097290039, 62.9185066223, 62.9185066223, 12.1733226776, 12.1733226776, 12.1733226776, 12.1733226776,          -0.5,          -0.5,          -0.5,          -0.5, -0.00395023403689, 0.00395023403689, 2.77591538429, -9.00294802494e-16, 0.0029568655882, 3.92261974313e-15, -0.09037733078,           180
         0.17, 0.00103858136572, -2.0410156719e-14, 0.997398674488, -2.82337799245e-14, -0.320519089699, 8.06813874743e-15, 62.9039268494, 62.9039268494, 62.9144363403, 62.9144363403, 12.1804847717, 12.1804847717, 12.1804847717, 12.1804847717,          -0.5,          -0.5,          -0.5,          -0.5, -0.0037723549176, 0.0037723549176, 2.77588438988, -4.97050103696e-16, 0.00276273675263, 3.70763388727e-15, -0.0920124799013,           180
        0.175, 0.00120056630112, -2.20237629539e-14, 0.996890962124, -5.07662420673e-14, -0.306807368994, 3.14375194171e-14, 62.8979759216, 62.8979759216, 62.9101715088, 62.9101715088,  12.173705101,  12.173705101,  12.173705101,  12.173705101,          -0.5,          -0.5,          -0.5,          -0.5, -0.00358452345245, 0.00358452345245, 2.77585983276, -1.94073750592e-16, 0.00254677212797, 3.51968087617e-15, -0.0935811549425,           180
         0.18, 0.00135412672535, -1.96342372699e-14, 0.99639070034, -8.8304282506e-14, -0.292264670134, 1.74617570024e-14, 62.8919143677, 62.8919143677, 62.9057731628, 62.9057731628, 12.1513395309, 12.1513395309, 12.1513395309, 12.1513395309,          -0.5,          -0.5,          -0.5,          -0.5, -0.00338710052893, 0.00338710052893, 2.77584195137, -3.34106507981e-16, 0.00230951607227, 3.14788042265e-15, -0.0950791984797,           180
        0.185, 0.00150561193004, 1.45160610149e-15, 0.995898485184, -8.96496418767e-14, -0.27690166235, 1.14216734757e-14, 62.8858146667, 62.8858146667,  62.901222229,  62.901222229, 12.1122703552, 12.1122703552, 12.1122703552, 12.1122703552,          -0.5,          -0.5,          -0.5,          -0.5, -0.00318045541644, 0.00318045541644, 2.77583003044, -2.47904414926e-16, 0.0020515518263, 2.70163021999e-15, -0.0965024679899,           180
         0.19, 0.0016534550814, 2.47274900039e-15, 0.995405972004, -9.13159250906e-14, -0.260733425617, 9.38193597653e-15, 62.8795928955, 62.8795928955, 62.8964538574, 62.8964538574, 12.0557050705, 12.0557050705, 12.0557050705, 12.0557050705,          -0.5,          -0.5,          -0.5,          -0.5, -0.00296495598741, 0.00296495598741, 2.77582454681, -2.4694554716e-16, 0.00177344842814, 2.23547516659e-15, -0.0978469029069,           180
        0.195, 0.00179231958464, 2.48256018302e-15, 0.994900226593, -8.17418574777e-14, -0.24383084476, 1.287607648e-14, 62.8732261658, 62.8732261658, 62.8914680481, 62.8914680481, 11.9811468124, 11.9811468124, 11.9811468124, 11.9811468124,          -0.5,          -0.5,          -0.5,          -0.5, -0.00274096126668, 0.00274096126668, 2.77582478523, -1.32795350546e-16, 0.00147460680455, 1.80057711125e-15, -0.0991086289287,           180
          0.2, 0.0019259895198, 3.21048399251e-15, 0.994417905807, -7.21935532189e-14, -0.226193532348, 1.00097661144e-14, 62.8667640686, 62.8667640686, 62.8862838745, 62.8862838745, 11.8884515762, 11.8884515762, 11.8884515762, 11.8884515762,          -0.5,          -0.5,          -0.5,          -0.5, -0.00250881933607, 0.00250881933607,  2.7758307457, -1.1297423695e-16, 0.0011557751568, 1.40329007163e-15, -0.100284017622,           180
        0.205, 0.00205539632589, 3.35313810511e-15, 0.99395018816, -4.33208292372e-14, -0.207806557417, 9.9045349762e-15, 62.8602027893, 62.8602027893, 62.8809089661, 62.8809089661, 11.7776966095, 11.7776966095, 11.7776966095, 11.7776966095,          -0.5,          -0.5,          -0.5,          -0.5, -0.00226888083853, 0.00226888083853, 2.77584195137, -6.11042156611e-17, 0.000818046391942, 1.10355772236e-15, -0.101369343698,           180
         0.21, 0.00217897607945, 5.71789082824e-15, 0.993491709232, 2.42112763621e-14, -0.188671737909, -9.0922642611e-15, 62.8535079956, 62.8535079956, 62.8753585815, 62.8753585815, 11.6491136551, 11.6491136551, 11.6491136551, 11.6491136551,          -0.5,          -0.5,          -0.5,          -0.5, -0.00202148617245, 0.00202148617245, 2.77585864067, -3.83798463456e-16, 0.000462172960397, 1.03129924746e-15, -0.102360866964,           180
        0.215, 0.00229650409892, 2.37456894561e-14, 0.993039608002, 1.115024685e-13, -0.168798804283, 1.10276218902e-14, 62.8466911316, 62.8466911316, 62.8696556091, 62.8696556091, 11.5030879974, 11.5030879974, 11.5030879974, 11.5030879974,          -0.5,          -0.5,          -0.5,          -0.5, -0.00176695978735, 0.00176695978735, 2.77588033676, -1.74469000974e-16, 8.87098067324e-05, 1.37275718086e-15, -0.10325486213,           180
         0.22, 0.00240858644247, 1.09725082092e-15, 0.992592394352, 1.42811855549e-13, -0.14820112288, 1.73093147888e-14, 62.8397598267, 62.8397598267, 62.8637924194, 62.8637924194, 11.3401355743, 11.3401355743, 11.3401355743, 11.3401355743,          -0.5,          -0.5,          -0.5,          -0.5, -0.00150560715701, 0.00150560715701, 2.77590703964, 5.35484468523e-17, -0.000301894498989, 2.02562296567e-15, -0.104047678411,           180
        0.225, 0.00251534790732, -2.12033353115e-14, 0.992149591446, 1.47551973894e-13, -0.126892596483, 2.46353739004e-14, 62.8327064514, 62.8327064514, 62.8577766418, 62.8577766418,  11.160859108,  11.160859108,  11.160859108,  11.160859108,          -0.5,          -0.5,          -0.5,          -0.5, -0.00123771524522, 0.00123771524522, 2.77593851089, 2.61709913765e-16, -0.000709240615834, 2.7716830211e-15, -0.104735717177,           180
         0.23, 0.00263242260553, -2.78285051524e-16, 0.991711139679, 1.43227728397e-13, -0.104888640344, 1.64498101284e-14, 62.8255348206, 62.8255348206, 62.8514289856, 62.8514289856, 10.9659118652, 10.9659118652, 10.9659118652, 10.9659118652,          -0.5,          -0.5,          -0.5,          -0.5, -0.000963551923633, 0.000963551923633, 2.77597475052, 1.52817422709e-16, -0.00113294553012, 3.48954238511e-15, -0.105315469205,           180
        0.235, 0.00273540732451, -1.94052537711e-15, 0.99127727747, 1.11869342186e-13, -0.0822073966265, 2.63392806236e-14, 62.8182563782, 62.8182563782, 62.8442192078, 62.8442192078, 10.7557058334, 10.7557058334, 10.7557058334, 10.7557058334,          -0.5,          -0.5,          -0.5,          -0.5, -0.000683360209223, 0.000683360209223, 2.77601599693, 3.67522910663e-16, -0.00157262757421, 4.16286623906e-15, -0.105783507228,           180
         0.24, 0.002810026519, -3.27621396097e-15, 0.99084854126, 4.31657849384e-14, -0.0588392466307, 3.62242957256e-14, 62.8108825684, 62.8108825684, 62.8371429443, 62.8371429443, 10.5308866501, 10.5308866501, 10.5308866501, 10.5308866501,          -0.5,          -0.5,          -0.5,          -0.5, -0.000397374358727, 0.000397374358727, 2.77606129646, 6.13570708777e-16, -0.0020278794691, 4.58052166821e-15, -0.10613642633,           180
        0.245, 0.00288309925236, -1.79696536277e-15, 0.990425169468, -4.07935336444e-14, -0.0347829312086, 2.95178208861e-14,    62.8033638,    62.8033638,   62.83070755,   62.83070755, 10.2925901413, 10.2925901413, 10.2925901413, 10.2925901413,          -0.5,          -0.5,          -0.5,          -0.5, -0.000105821854959, 0.000105821854959, 2.77610993385, 5.62359202665e-16, -0.00249827862717, 4.57452806307e-15, -0.106370784342,           180
         0.25, 0.00297081330791, 1.5430506138e-15, 0.990007221699, -6.26219928235e-14, -0.0100505240262, 1.02473529269e-14, 62.7956924438, 62.7956924438, 62.8244094849, 62.8244094849,  10.041844368,  10.041844368,  10.041844368,  10.041844368,          -0.5,          -0.5,          -0.5,          -0.5, 0.000191093466128, -0.000191093466128, 2.77616238594, 2.11206699251e-16, -0.00298339501023, 4.28745080956e-15, -0.106483161449,           180
        0.255, 0.00306517723948, 3.21942061362e-15, 0.98959505558, -3.56601412895e-14, 0.0153473494574, 5.19702941079e-16, 62.7879180908, 62.7879180908, 62.8175621033, 62.8175621033, 9.77926254272, 9.77926254272, 9.77926254272, 9.77926254272,          -0.5,          -0.5,          -0.5,          -0.5, 0.000493193860166, -0.000493193860166, 2.77621912956, -1.14674809034e-18, -0.0034827911295, 4.03473895326e-15, -0.10647020489,           180
         0.26, 0.00314991385676, 2.14215343868e-14, 0.989188849926, 2.6473130464e-14, 0.0414125137031, 1.3108766595e-14, 62.7800559998, 62.7800559998, 62.8101005554, 62.8101005554, 9.50524234772, 9.50524234772, 9.50524234772, 9.50524234772,          -0.5,          -0.5,          -0.5,          -0.5, 0.000800316862296, -0.000800316862296, 2.77628064156, 1.73134169693e-16, -0.003996017389, 4.03321048231e-15, -0.106328599155,           180
        0.265, 0.00323099968955, 1.92114886316e-15, 0.988788604736, 3.91543385442e-14, 0.0681551173329, 7.41875331512e-15, 62.7720413208, 62.7720413208, 62.8024749756, 62.8024749756, 9.22029590607, 9.22029590607, 9.22029590607, 9.22029590607,          -0.5,          -0.5,          -0.5,          -0.5, 0.00111230579205, -0.00111230579205, 2.77634596825, 5.5031839771e-17, -0.00452261650935, 4.19780677165e-15, -0.106054984033,           180
         0.27, 0.00331724947318, 1.03448917354e-15, 0.988394200802, 7.96125860549e-14, 0.0955705940723, 8.65596690733e-15, 62.7629318237, 62.7629318237, 62.7950325012, 62.7950325012, 8.92488479614, 8.92488479614, 8.92488479614, 8.92488479614,          -0.5,          -0.5,          -0.5,          -0.5, 0.00142901670188, -0.00142901670188, 2.77641606331, 5.58319252554e-17, -0.00506214052439, 4.50386264538e-15, -0.105645962059,           180
        0.275, 0.00337114185095, -1.28801974012e-16, 0.988005876541, 8.72445968551e-14, 0.123677387834, 1.50553211526e-14, 62.7536239624, 62.7536239624, 62.7876663208, 62.7876663208,  8.6193857193,  8.6193857193,  8.6193857193,  8.6193857193,          -0.5,          -0.5,          -0.5,          -0.5, 0.00175031740218, -0.00175031740218, 2.77648997307, 1.39793444112e-16, -0.00561412749812, 4.93731862713e-15, -0.105098150671,           180
         0.28, 0.00342015177011, -7.61342660622e-17, 0.987623274326, 1.04408330397e-13, 0.152491569519, 1.21395178049e-14,  62.745174408,  62.745174408, 62.7800445557, 62.7800445557, 8.30463314056, 8.30463314056, 8.30463314056, 8.30463314056,          -0.5,          -0.5,          -0.5,          -0.5, 0.00207607541233, -0.00207607541233, 2.77656698227, 4.04741458956e-17, -0.00617811735719, 5.41310846855e-15, -0.104408040643,           180
        0.285, 0.00348597718403, 9.83632680109e-16, 0.98724591732, 1.25592177175e-13, 0.182012364268, 1.68894918023e-15, 62.7373466492, 62.7373466492, 62.7720031738, 62.7720031738, 7.98142766953, 7.98142766953, 7.98142766953, 7.98142766953,          -0.5,          -0.5,          -0.5,          -0.5, 0.00240617175587, -0.00240617175587, 2.77664732933, -2.07488886357e-16, -0.00675367005169, 5.98805495138e-15, -0.1035720855,           180
         0.29, 0.00356449908577, 1.89871718608e-14,  0.9868735075, 1.35809427398e-13, 0.212235227227, 1.29847237021e-14, 62.7292366028, 62.7292366028, 62.7636947632, 62.7636947632, 7.65015172958, 7.65015172958, 7.65015172958, 7.65015172958,          -0.5,          -0.5,          -0.5,          -0.5, 0.00274050538428, -0.00274050538428, 2.77673196793, -6.55346810487e-17, -0.0073403660208, 6.69007628159e-15, -0.102586776018,           180
        0.295, 0.00363844912499, -1.75208341623e-16, 0.986505925655, 1.16239645947e-13, 0.243164539337, -3.60955382473e-15,  62.720375061,  62.720375061, 62.7553520203, 62.7553520203, 7.31089115143, 7.31089115143, 7.31089115143, 7.31089115143,          -0.5,          -0.5,          -0.5,          -0.5, 0.00307898479514, -0.00307898479514, 2.77682137489, -2.6252846523e-16, -0.00793779455125, 7.32586259993e-15, -0.101448588073,           180
          0.3, 0.00369931175373, -1.05926827538e-15, 0.986142992973, 1.10601659125e-13, 0.274812936783, 2.61105868101e-15, 62.7110786438, 62.7110786438, 62.7470207214, 62.7470207214, 6.96376276016, 6.96376276016, 6.96376276016, 6.96376276016,          -0.5,          -0.5,          -0.5,          -0.5, 0.00342151802033, -0.00342151802033, 2.77691531181, -2.64955267563e-16, -0.00854555051774, 7.92794378323e-15, -0.100153960288,           180
        0.305, 0.00375312939286, -3.48272800505e-15, 0.98578441143, 9.34080558127e-14, 0.307192116976, 1.95889769114e-14,  62.701877594,  62.701877594, 62.7385635376, 62.7385635376,  6.6090502739,  6.6090502739,  6.6090502739,  6.6090502739,          -0.5,          -0.5,          -0.5,          -0.5, 0.00376801099628, -0.00376801099628, 2.77701306343, -4.85822364343e-17, -0.00916323438287, 8.481987187e-15, -0.0986992716789,           180
         0.31, 0.00380960293114, -2.5057502934e-14, 0.985429763794, 3.13023295706e-14, 0.340307354927, 3.21033821814e-14, 62.6929397583, 62.6929397583, 62.7298355103, 62.7298355103,  6.2470870018,  6.2470870018,  6.2470870018,  6.2470870018,          -0.5,          -0.5,          -0.5,          -0.5, 0.00411837361753, -0.00411837361753, 2.77711510658, 1.28146463155e-16, -0.00979046616703, 8.82712261982e-15, -0.0970808416605,           180
        0.315, 0.00387111632153, -2.51979130446e-15, 0.985078632832, -2.94719388054e-14, 0.374159693718, 1.87838229671e-14, 62.6839981079, 62.6839981079, 62.7208480835, 62.7208480835, 5.87808799744, 5.87808799744, 5.87808799744, 5.87808799744,          -0.5,          -0.5,          -0.5,          -0.5, 0.0044725225307, -0.0044725225307, 2.77722120285, -1.29142944478e-16, -0.0104268835858, 8.8086454431e-15, -0.0952949970961,           180
         0.32, 0.00393282482401, -3.06702646915e-15, 0.984730601311, -1.15828895954e-13, 0.408751130104, 2.70115401807e-14, 62.6747627258, 62.6747627258,  62.711730957,  62.711730957, 5.50212478638, 5.50212478638, 5.50212478638, 5.50212478638,          -0.5,          -0.5,          -0.5,          -0.5, 0.00483037950471, -0.00483037950471, 2.77733230591, 5.18463275273e-17, -0.0110721467063, 8.46968742157e-15, -0.0933380424976,           180
        0.325, 0.00398997729644, -7.07344402879e-16, 0.984385251999, -2.0322107983e-13, 0.444085925817, 1.92433146241e-14, 62.6652069092, 62.6652069092, 62.7025527954, 62.7025527954, 5.11921739578, 5.11921739578, 5.11921739578, 5.11921739578,          -0.5,          -0.5,          -0.5,          -0.5, 0.00519186863676, -0.00519186863676, 2.77744793892, -5.6045509907e-17, -0.0117259304971, 7.68277941401e-15, -0.0912062823772,           180
         0.33, 0.00404265429825, -1.7414880505e-14, 0.984042167664, -2.21122680713e-13, 0.480168282986, 3.25766245712e-15, 62.6555290222, 62.6555290222, 62.6932754517, 62.6932754517, 4.72941398621, 4.72941398621, 4.72941398621, 4.72941398621,          -0.5,          -0.5,          -0.5,          -0.5, 0.00555691169575, -0.00555691169575,  2.7775683403, -3.31707975373e-16, -0.0123879360035, 6.61093333464e-15, -0.0888959690928,           180
        0.335, 0.00409400789067, 2.18540450798e-15, 0.983700752258, -1.58619956904e-13, 0.516999602318, 9.36060175769e-15, 62.6458778381, 62.6458778381, 62.6838226318, 62.6838226318, 4.33278656006, 4.33278656006, 4.33278656006, 4.33278656006,          -0.5,          -0.5,          -0.5,          -0.5, 0.00592543045059, -0.00592543045059, 2.77769327164, -2.55909405673e-16, -0.0130578819662, 5.63937595623e-15, -0.0864033773541,           180
         0.34, 0.00414601480588, 2.17650367401e-14, 0.983360588551, -1.42919462614e-13, 0.554578542709, 1.6783447936e-14, 62.6362266541, 62.6362266541, 62.6741714478, 62.6741714478, 3.93055415154, 3.93055415154, 3.93055415154, 3.93055415154, -0.499147772789, -0.499147772789, -0.499573886395, -0.499573886395, 0.00629734992981, -0.00629734992981, 2.77782320976, -1.22475418754e-16, -0.0137355150655, 4.89615706106e-15, -0.0837247595191,           180
        0.345, 0.0042006005533, 3.12612459316e-15, 0.983021140099, -1.19474810362e-13, 0.592897713184, 1.46164581361e-14, 62.6266403198, 62.6266403198, 62.6645126343, 62.6645126343, 3.54388904572, 3.54388904572, 3.54388904572, 3.54388904572, -0.481750100851, -0.481750100851, -0.490875065327, -0.490875065327, 0.00667259097099, -0.00667259097099, 2.77795791626, -1.5970499171e-16, -0.0144206071272, 4.20634486376e-15, -0.0808563902974,           180
         0.35, 0.00427154451609, 5.52319776422e-15, 0.982683300972, -6.15360152699e-14, 0.631933629513, 3.75588342505e-15, 62.6173591614, 62.6173591614, 62.6551208496, 62.6551208496, 3.17769956589, 3.17769956589, 3.17769956589, 3.17769956589, -0.443145632744, -0.443145632744, -0.471572816372, -0.471572816372, 0.00705103948712, -0.00705103948712, 2.77809858322, -3.63318821448e-16, -0.0151129290462, 3.71892907162e-15, -0.0777946189046,           180
        0.355, 0.00437129894271, 8.90143451434e-15, 0.982348740101, -2.89322094115e-14, 0.671645700932, 1.77923946193e-14, 62.6083221436, 62.6083221436, 62.6458854675, 62.6458854675, 2.82928848267, 2.82928848267, 2.82928848267, 2.82928848267, -0.383986145258, -0.383986145258, -0.44199308753, -0.44199308753, 0.00743251899257, -0.00743251899257,  2.7782459259, -7.49045396589e-17, -0.0158121939749, 3.54378002231e-15, -0.0745359510183,           180
         0.36, 0.00449548056349, -1.61371889023e-14, 0.982019722462, -5.03086621637e-15, 0.711985170841, 3.01088936057e-15, 62.5993499756, 62.5993499756, 62.6365623474, 62.6365623474, 2.49603843689, 2.49603843689, 2.49603843689, 2.49603843689, -0.304626971483, -0.304626971483, -0.402313500643, -0.402313500643, 0.0078167906031, -0.0078167906031, 2.77840185165, -2.34118371374e-16, -0.0165180247277, 3.46027146755e-15, -0.0710771381855,           180
        0.365, 0.00463006319478, -8.8633374076e-16, 0.981698334217, 7.00034309491e-14, 0.752905189991, 2.63564161002e-14, 62.5903892517, 62.5903892517, 62.6271133423, 62.6271133423, 2.17542743683, 2.17542743683, 2.17542743683, 2.17542743683, -0.205180570483, -0.205180570483, -0.352590292692, -0.352590292692, 0.00820354931056, -0.00820354931056, 2.77856755257, 2.6975482094e-16, -0.0172299537808, 3.63309541143e-15, -0.067415162921,           180
         0.37, 0.00476720556617, -9.29710562686e-16, 0.981386423111, 8.19103645181e-15, 0.794361889362, 2.45387223589e-14,  62.581577301,  62.581577301,  62.617729187,  62.617729187, 1.86509072781, 1.86509072781, 1.86509072781, 1.86509072781, -0.0856355726719, -0.0856355726719, -0.292817771435, -0.292817771435, 0.00859242957085, -0.00859242957085, 2.77874302864, 3.51010559221e-16, -0.0179474204779, 3.83091656813e-15, -0.0635472163558,           180
        0.375, 0.00490970537066, -1.89829045088e-14, 0.981090247631, -1.84854098717e-14, 0.83631080389, 5.53591977557e-15, 62.5728530884, 62.5728530884,  62.608581543,  62.608581543, 1.56284785271, 1.56284785271, 1.56284785271, 1.56284785271, -0.0540754385293, -0.0540754385293, -0.222962275147, -0.222962275147, 0.00898302067071, -0.00898302067071, 2.77892875671, 1.88095524399e-16, -0.0186697561294, 3.7978234144e-15, -0.0594707429409,           180
         0.38, 0.00503106974065, -2.21614176663e-14, 0.980811357498, 2.99567262543e-14, 0.878737390041, 9.12643272316e-15, 62.5622329712, 62.5622329712, 62.5996627808, 62.5996627808, 1.26668858528, 1.26668858528, 1.26668858528, 1.26668858528, -0.214068502188, -0.214068502188, -0.142965748906, -0.142965748906, 0.00937497895211, -0.00937497895211, 2.77912521362, 3.02469589173e-16, -0.019395859912, 3.81822250886e-15, -0.0551833324134,           180
        0.385, 0.00509438244626, -7.0622794728e-17, 0.980543136597, 2.67099676524e-14, 0.92164337635, 5.71057119303e-15, 62.5509796143, 62.5509796143, 62.5908432007, 62.5908432007, 0.974901914597, 0.974901914597, 0.974901914597, 0.974901914597, -0.39430347085, -0.39430347085, -0.0528482571244, -0.0528482571244, 0.00976800266653, -0.00976800266653, 2.77932977676, 2.45396853295e-16, -0.0201250333339, 3.96747945505e-15, -0.0506825894117,           180
         0.39, 0.00512624252588, -5.84891539024e-15, 0.980283141136, 1.29777305981e-15, 0.965022265911, 1.73405482817e-14, 62.5410614014, 62.5410614014, 62.5817604065, 62.5817604065, 0.68621391058, 0.68621391058, 0.68621391058, 0.68621391058, -0.594361305237, -0.594361305237, -0.0471806414425, -0.0471806414425, 0.0101616987959, -0.0101616987959, 2.77954077721, 5.74759817953e-16, -0.0208566244692, 4.08408751628e-15, -0.04596612975,           180
        0.395, 0.00514444662258, -2.39780267819e-15, 0.980034708977, -4.39301847395e-14, 1.00886631012, 1.31428418834e-14, 62.5325584412, 62.5325584412, 62.5710792542, 62.5710792542, 0.399631142616, 0.399631142616, 0.399631142616, 0.399631142616, -0.81363517046, -0.81363517046, -0.156817570329, -0.156817570329, 0.0105556119233, -0.0105556119233, 2.77975726128, 5.72477117099e-16, -0.0215901639313, 3.95940596051e-15, -0.0410316064954,           180
          0.4, 0.00513943471014, 1.26960847316e-15, 0.979804039001, -8.62393517058e-14, 1.05315577984, 2.6735191023e-15, 62.5241546631, 62.5241546631, 62.5601806641, 62.5601806641, 0.114324524999, 0.114324524999, 0.114324524999, 0.114324524999, -1.05147230625, -1.05147230625, -0.275736153126, -0.275736153126, 0.0109492437914, -0.0109492437914, 2.77997851372, 4.5947641037e-16, -0.022324744612, 3.61378856595e-15, -0.0358767434955,           180
        0.405, 0.00511994445696, 3.08453167556e-15, 0.979591548443, -1.14984695485e-13, 1.09785926342, -2.8426198705e-14, 62.5148277283, 62.5148277283, 62.5504722595, 62.5504722595, -0.170356586576, -0.170356586576, -0.170356586576, -0.170356586576, -1.30713355541, -1.30713355541, -0.403566807508, -0.403566807508, 0.0113420533016, -0.0113420533016, 2.78020381927, 4.07852733394e-18, -0.0230593811721, 3.09259924086e-15, -0.0304993763566,           180
         0.41, 0.00509785441682, -4.05375907809e-15, 0.979398369789, -6.64064411641e-14, 1.14292788506, -2.30896421096e-14, 62.5047798157, 62.5047798157, 62.5416412354, 62.5416412354, -0.454943150282, -0.454943150282, -0.454943150282, -0.454943150282, -1.57985842228, -1.57985842228, -0.53992921114, -0.53992921114, 0.0117334499955, -0.0117334499955, 2.78043293953, 1.49071922426e-16, -0.0237930566072, 2.65813528991e-15, -0.024897556752,           180
        0.415, 0.00507132709026, 1.42472752261e-15, 0.979225754738, 1.40759621773e-14,  1.1883020401, -2.06586609391e-14, 62.4948730469, 62.4948730469, 62.5324668884, 62.5324668884, -0.739915966988, -0.739915966988, -0.739915966988, -0.739915966988, -1.86894834042, -1.86894834042, -0.684474170208, -0.684474170208, 0.0121227968484, -0.0121227968484, 2.78066587448, 5.05990152642e-17, -0.0245247110724, 2.48587292888e-15, -0.0190696008503,           180
         0.42, 0.00502952281386, -4.3632208713e-14, 0.97907435894, 5.08697088359e-14, 1.23392367363, -6.5611549024e-15, 62.4856109619, 62.4856109619, 62.5223999023, 62.5223999023, -1.02570152283, -1.02570152283, -1.02570152283, -1.02570152283, -2.17375063896, -2.17375063896, -0.836875379086, -0.836875379086, 0.0125094242394, -0.0125094242394, 2.78090238571, 2.27770547648e-16, -0.025253245607, 2.68026868434e-15, -0.0130141340196,           180
        0.425, 0.0049682627432, 2.14289357607e-14, 0.97894436121, 1.20532679974e-13, 1.27973783016, -2.79924788725e-14, 62.4767684937, 62.4767684937, 62.5119857788, 62.5119857788, -1.31262457371, -1.31262457371, -1.31262457371, -1.31262457371, -2.49357938766, -2.49357938766, -0.996789693832, -0.996789693832, 0.0128926439211, -0.0128926439211, 2.78114199638, -1.47766366721e-16, -0.025977557525, 3.07571173324e-15, -0.00673005217686,           180
         0.43, 0.00489446800202, 7.9948242342e-16, 0.978835463524, 1.78562717455e-13, 1.32568764687, -2.65751454181e-14, 62.4678268433, 62.4678268433, 62.5019836426, 62.5019836426, -1.60089635849, -1.60089635849, -1.60089635849, -1.60089635849, -2.82768821716, -2.82768821716, -1.16384410858, -1.16384410858, 0.0132717685774, -0.0132717685774, 2.78138375282, -1.60392504531e-16, -0.026696562767, 3.81482421268e-15, -0.000216534535866,           180
        0.435, 0.00481589324772, -5.3611446913e-15, 0.978747189045, 1.82575485221e-13, 1.37171041965, 7.57319537349e-15, 62.4585723877, 62.4585723877, 62.4925079346, 62.4925079346, -1.89066040516, -1.89066040516, -1.89066040516, -1.89066040516, -3.17532348633, -3.17532348633, -1.33766174316, -1.33766174316, 0.0136461341754, -0.0136461341754, 2.78162765503, 4.6568669712e-16, -0.0274092089385, 4.78556251023e-15, 0.00652694283053,           180
         0.44, 0.00473167188466, 3.31990836731e-14, 0.978678882122, 1.28581593615e-13, 1.41774344444, -1.14943832074e-15, 62.4492378235, 62.4492378235, 62.4830818176, 62.4830818176, -2.18203663826, -2.18203663826, -2.18203663826, -2.18203663826, -3.53577899933, -3.53577899933, -1.51788949966, -1.51788949966, 0.0140151102096, -0.0140151102096,   2.781873703, 3.4316579005e-16, -0.0281144864857, 5.53400675166e-15, 0.0135005861521,           180
        0.445, 0.00463514635339, -8.43004882074e-16, 0.978629589081, 4.98173076684e-14, 1.46373045444, -2.24983453498e-14, 62.4401435852, 62.4401435852, 62.4733428955, 62.4733428955, -2.47511959076, -2.47511959076, -2.47511959076, -2.47511959076, -3.90838694572, -3.90838694572, -1.70419347286, -1.70419347286, 0.0143781118095, -0.0143781118095, 2.78212165833, -7.34376043257e-17, -0.0288114380091, 5.94731393717e-15, 0.0207043029368,           180
         0.45, 0.00452326331288, -2.17525226754e-14, 0.978597939014, 4.97085621905e-14, 1.50962340832, -1.53520452644e-14, 62.4313621521, 62.4313621521, 62.4634056091, 62.4634056091, -2.76994848251, -2.76994848251, -2.76994848251, -2.76994848251, -4.29246807098, -4.29246807098, -1.89623403549, -1.89623403549, 0.0147346071899, -0.0147346071899, 2.78237104416, 9.30168569283e-18, -0.0294991787523, 6.20652592431e-15, 0.0281377378851,           180
        0.455, 0.00439999997616, -1.85634936039e-15, 0.978582262993, 4.68949423564e-14, 1.55537927151, -1.70700296753e-14, 62.4227294922, 62.4227294922, 62.4536132812, 62.4536132812, -3.06649804115, -3.06649804115, -3.06649804115, -3.06649804115, -4.68731164932, -4.68731164932, -2.09365582466, -2.09365582466, 0.0150841241702, -0.0150841241702, 2.78262114525, -6.90271567089e-17, -0.0301769096404, 6.45631424638e-15, 0.0358003154397,           180
         0.46, 0.00427087210119, 2.1362819757e-14, 0.978580892086, 3.75973666263e-14, 1.60095727444, -2.18681918006e-14,    62.4140625,    62.4140625, 62.4441184998, 62.4441184998, -3.36470341682, -3.36470341682, -3.36470341682, -3.36470341682, -5.09220552444, -5.09220552444, -2.29610276222, -2.29610276222, 0.0154262622818, -0.0154262622818, 2.78287196159, -1.71515225033e-16, -0.0308439210057, 6.6428342895e-15, 0.0436912402511,           180
        0.465, 0.00413671787828, -4.68170356541e-15, 0.978592097759, 1.08748976146e-14, 1.64632046223, -1.97731150978e-14, 62.4053573608, 62.4053573608, 62.4347724915, 62.4347724915, -3.66449165344, -3.66449165344, -3.66449165344, -3.66449165344, -5.5064740181, -5.5064740181, -2.50323700905, -2.50323700905, 0.0157606955618, -0.0157606955618, 2.78312325478, -1.96514330446e-16, -0.0314996019006, 6.75089028258e-15, 0.0518095381558,           180
         0.47, 0.00399415194988, 1.25698005895e-15, 0.978614270687, -1.95655632267e-14, 1.69143986702, -2.93314431445e-14,  62.396736145,  62.396736145, 62.4253807068, 62.4253807068, -3.96578741074, -3.96578741074, -3.96578741074, -3.96578741074, -5.92948389053, -5.92948389053, -2.71474194527, -2.71474194527, 0.0160871688277, -0.0160871688277, 2.78337526321, -5.20721127621e-16, -0.0321434251964, 6.7424762808e-15, 0.0601540505886,           180
        0.475, 0.00384080037475, -2.15555231406e-14, 0.978645682335, -7.33105863884e-14, 1.73629486561, 1.86497046173e-15,   62.38829422,   62.38829422,  62.415927887,  62.415927887, -4.26849555969, -4.26849555969, -4.26849555969, -4.26849555969, -6.36061573029, -6.36061573029, -2.93030786514, -2.93030786514, 0.0164054948837, -0.0164054948837, 2.78362727165, 1.10316346823e-16, -0.0327749550343, 6.6153438352e-15, 0.0687235072255,           180
         0.48, 0.00367829971947, -2.17032998967e-14, 0.978684604168, -1.18202078984e-13, 1.78087103367, -4.41274815828e-15, 62.3800010681, 62.3800010681, 62.4065475464, 62.4065475464,   -4.57249403,   -4.57249403,   -4.57249403,   -4.57249403, -6.79924726486, -6.79924726486, -3.14962363243, -3.14962363243, 0.0167155526578, -0.0167155526578, 2.78387928009, 1.08420539849e-17, -0.0333938449621, 6.1174913266e-15, 0.077516540885,           180
        0.485, 0.00351008563302, 2.04848582487e-14, 0.978729367256, -1.68047935051e-13, 1.82515823841, 8.59001268689e-15, 62.3717727661, 62.3717727661, 62.3973388672, 62.3973388672, -4.87764120102, -4.87764120102, -4.87764120102, -4.87764120102, -7.24476385117, -7.24476385117, -3.37238192558, -3.37238192558, 0.0170172862709, -0.0170172862709, 2.78413105011, 1.48822352109e-16, -0.0339998342097, 5.4047571472e-15, 0.0865317434072,           180
         0.49, 0.00333760399371, -8.45838101403e-16, 0.978778481483, -2.39579000085e-13, 1.86914968491, 2.03150620241e-14, 62.3635559082, 62.3635559082, 62.3882637024, 62.3882637024, -5.18379878998, -5.18379878998, -5.18379878998, -5.18379878998, -7.69658327103, -7.69658327103, -3.59829163551, -3.59829163551, 0.017310699448, -0.017310699448, 2.78438258171, 3.27852175518e-16, -0.0345927365124, 4.3976705483e-15, 0.095767647028,           180
        0.495, 0.0031595765613, 2.23620662189e-14, 0.978830635548, -2.69129824763e-13, 1.91284406185, 1.02451049014e-14, 62.3553733826, 62.3553733826,  62.379234314,  62.379234314, -5.49083471298, -5.49083471298, -5.49083471298, -5.49083471298, -8.15416431427, -8.15416431427, -3.82708191872, -3.82708191872, 0.0175958480686, -0.0175958480686, 2.78463363647, 1.47766379956e-16, -0.0351724438369, 3.08320204559e-15, 0.105222761631,           180
          0.5, 0.00297446921468, -3.43920719811e-14, 0.978884637356, -2.38390850029e-13, 1.95624494553, 2.73376432067e-15, 62.3472709656, 62.3472709656, 62.3702125549, 62.3702125549, -5.79861974716, -5.79861974716, -5.79861974716, -5.79861974716, -8.61699199677, -8.61699199677, -4.05849599838, -4.05849599838, 0.0178728327155, -0.0178728327155,  2.7848842144, 1.10690788325e-16, -0.0357389040291, 1.79418307129e-15, 0.114895612001,           180
        0.505, 0.00278266635723, -1.09820606232e-15, 0.978939294815, -2.2685180828e-13, 1.99936032295, 1.80833470485e-14,  62.339263916,  62.339263916, 62.3612442017, 62.3612442017, -6.10701847076, -6.10701847076, -6.10701847076, -6.10701847076, -9.08456802368, -9.08456802368, -4.29228401184, -4.29228401184, 0.0181417930871, -0.0181417930871, 2.78513407707, 4.33317147753e-16, -0.0362921282649, 6.68008881023e-16, 0.124784745276,           180
         0.51, 0.00258597987704, 1.0949051114e-14, 0.978993713856, -1.76518684652e-13, 2.04220032692, 1.28217859032e-14, 62.3313217163, 62.3313217163, 62.3523674011, 62.3523674011, -6.41589212418, -6.41589212418, -6.41589212418, -6.41589212418, -9.55641269684, -9.55641269684, -4.52820634842, -4.52820634842, 0.0184029024094, -0.0184029024094, 2.78538322449, 3.25965197869e-16, -0.0368321612477, -3.63410777462e-16, 0.134888768196,           180
        0.515, 0.00238565308973, -9.21699536829e-16, 0.979047000408, -1.60206835862e-13, 2.08477640152, 3.848133021e-14, 62.3234024048, 62.3234024048,  62.343585968,  62.343585968, -6.72510814667, -6.72510814667, -6.72510814667, -6.72510814667, -10.0320701599, -10.0320701599, -4.76603507996, -4.76603507996, 0.0186563581228, -0.0186563581228, 2.78563165665, 8.67632417955e-16, -0.0373591072857, -1.15751403874e-15, 0.145206317306,           180
         0.52, 0.00218143779784, 2.03193818921e-14, 0.979098498821, -1.68553024186e-13, 2.12710165977, 4.56113215231e-14, 62.3154983521, 62.3154983521, 62.3348579407, 62.3348579407, -7.03454494476, -7.03454494476, -7.03454494476, -7.03454494476, -10.5111246109, -10.5111246109, -5.00556230545, -5.00556230545, 0.0189023800194, -0.0189023800194, 2.78587937355, 1.07245753128e-15, -0.0378730967641, -1.99773292357e-15, 0.155736118555,           180
        0.525, 0.00197251420468, 7.77520182586e-16, 0.979147732258, -1.96364395555e-13, 2.16919112206, 4.48988583942e-14, 62.3076286316, 62.3076286316, 62.3261566162, 62.3261566162, -7.34409093857, -7.34409093857, -7.34409093857, -7.34409093857, -10.9931879044, -10.9931879044, -5.24659395218, -5.24659395218, 0.0191411990672, -0.0191411990672, 2.78612613678, 1.21904812362e-15, -0.0383742786944, -2.89095605975e-15, 0.166476950049,           180
         0.53, 0.00175879732706, -1.22040888205e-14, 0.979194223881, -2.29437616909e-13, 2.21106004715, 3.19363608367e-14, 62.2998008728, 62.2998008728, 62.3174858093, 62.3174858093, -7.6536397934, -7.6536397934, -7.6536397934, -7.6536397934, -11.4778957367, -11.4778957367, -5.48894786835, -5.48894786835, 0.0193730555475, -0.0193730555475, 2.78637218475, 1.15374505976e-15, -0.0388628356159, -3.96723889769e-15,  0.1774276793,           180
        0.535, 0.00154108868446, 2.60782860557e-14, 0.979237675667, -1.72798109372e-13, 2.25272488594, 1.73045222764e-14,  62.292011261,  62.292011261, 62.3088684082, 62.3088684082, -7.96308803558, -7.96308803558, -7.96308803558, -7.96308803558, -11.9649028778, -11.9649028778, -5.7324514389, -5.7324514389, 0.0195981897414, -0.0195981897414, 2.78661727905, 8.77647894342e-16, -0.039338953793, -4.99041869908e-15, 0.188587218523,           180
         0.54, 0.00132018828299, 9.24446845842e-15, 0.979277908802, -7.42197034625e-14, 2.29420018196, 2.0579346468e-14, 62.2842407227, 62.2842407227, 62.3003082275, 62.3003082275, -8.27233982086, -8.27233982086, -8.27233982086, -8.27233982086, -12.4538898468, -12.4538898468, -5.9769449234, -5.9769449234, 0.0198168419302, -0.0198168419302,  2.7868616581, 1.09283142651e-15, -0.0398028306663, -5.60220603292e-15, 0.199954614043,           180
        0.545, 0.00109620369039, -1.76164557117e-14, 0.979314744473, -3.41509759111e-14, 2.33550047874, 2.8234255957e-14, 62.2764778137, 62.2764778137, 62.2917861938, 62.2917861938, -8.58131217957, -8.58131217957, -8.58131217957, -8.58131217957, -12.9445648193, -12.9445648193, -6.22228240967, -6.22228240967, 0.0200292486697, -0.0200292486697, 2.78710508347, 1.37780750893e-15, -0.0402546674013, -5.8146342728e-15, 0.211528941989,           180
         0.55, 0.000868769478984, -1.79527633672e-14, 0.979348242283, 3.9476438069e-14, 2.37663936615, 1.50240520843e-14, 62.2687263489, 62.2687263489, 62.2832870483, 62.2832870483, -8.88992881775, -8.88992881775, -8.88992881775, -8.88992881775, -13.4366617203, -13.4366617203, -6.46833086014, -6.46833086014, 0.0202356390655, -0.0202356390655, 2.78734755516, 1.24213326545e-15, -0.0406946726143, -5.80199654122e-15, 0.223309352994,           180
        0.555, 0.000637712364551, -4.25064765151e-15, 0.979378342628, 1.11900363921e-13, 2.41762924194, 1.40522723598e-14, 62.2609939575, 62.2609939575,  62.274810791,  62.274810791, -9.19812488556, -9.19812488556, -9.19812488556, -9.19812488556, -13.9299373627, -13.9299373627, -6.71496868134, -6.71496868134, 0.0204362273216, -0.0204362273216,  2.7875893116, 1.23836502762e-15, -0.0411230362952, -5.41818431348e-15, 0.235295087099,           180
         0.56, 0.00040331899072, 1.87764046526e-14, 0.979405164719, 1.60235201301e-13, 2.45848155022, 1.97667572685e-14, 62.2532806396, 62.2532806396, 62.2663650513, 62.2663650513, -9.50583839417, -9.50583839417, -9.50583839417, -9.50583839417, -14.4241666794, -14.4241666794, -6.96208333969, -6.96208333969, 0.0206312164664, -0.0206312164664, 2.78783011436, 1.33461020504e-15, -0.0415399596095, -4.71531086814e-15, 0.247485429049,           180
        0.565, 0.000166015131981, -4.20936792435e-15, 0.979428887367, 1.83887600242e-13, 2.49920606613, 2.89951981695e-14, 62.2455825806, 62.2455825806, 62.2579536438, 62.2579536438, -9.81301593781, -9.81301593781, -9.81301593781, -9.81301593781, -14.9191465378, -14.9191465378, -7.20957326889, -7.20957326889, 0.0208207983524, -0.0208207983524, 2.78807020187, 1.57068527547e-15, -0.0419456250966, -3.87206204057e-15, 0.25987970829,           180
         0.57, -7.40410105209e-05, 1.85305872209e-14, 0.979449629784, 1.7911055126e-13, 2.53981089592, 1.34090253752e-14, 62.2378883362, 62.2378883362, 62.2495689392, 62.2495689392, -10.1196136475, -10.1196136475, -10.1196136475, -10.1196136475, -15.4146909714, -15.4146909714, -7.45734548569, -7.45734548569, 0.0210051462054, -0.0210051462054, 2.78830957413, 1.15745961687e-15, -0.0423402041197, -3.00516066499e-15, 0.272477298975,           180
        0.575, -0.000316980993375, -2.91150063212e-15, 0.979467570782, 2.09181454168e-13, 2.58030295372, 2.93848976998e-14, 62.2302093506, 62.2302093506, 62.2412033081, 62.2412033081, -10.4255933762, -10.4255933762, -10.4255933762, -10.4255933762, -15.9106369019, -15.9106369019, -7.70531845093, -7.70531845093, 0.0211844202131, -0.0211844202131, 2.78854823112, 1.3656441158e-15, -0.0427238643169, -2.03281999286e-15, 0.285277634859,           180
         0.58, -0.000562937057111, -8.9363356599e-15, 0.97948294878, 1.93729296385e-13, 2.62068724632, 5.08057646246e-14, 62.2225379944, 62.2225379944, 62.2328605652, 62.2328605652,  -10.73092556,  -10.73092556,  -10.73092556,  -10.73092556, -16.4068393707, -16.4068393707, -7.95341920853, -7.95341920853, 0.0213587656617, -0.0213587656617, 2.78878593445, 1.59299347632e-15, -0.0430967621505, -1.01726380564e-15, 0.298280149698,           180
        0.585, -0.000811837555375, -2.60653518626e-14, 0.979496002197, 1.39864655231e-13, 2.66096782684, 4.2419423551e-14,  62.214881897,  62.214881897, 62.2245407104, 62.2245407104, -11.0355863571, -11.0355863571, -11.0355863571, -11.0355863571, -16.9031658173, -16.9031658173, -8.20158290863, -8.20158290863, 0.0215283129364, -0.0215283129364, 2.78902316093, 1.38574124303e-15, -0.0434590354562, -2.1750129225e-16, 0.311484336853,           180
         0.59, -0.00106348760892, -7.70873673868e-15, 0.979506909847, 5.3071923348e-14,  2.7011475563, 5.75868156329e-14,  62.207244873,  62.207244873, 62.2162475586, 62.2162475586, -11.3395557404, -11.3395557404, -11.3395557404, -11.3395557404, -17.3995018005, -17.3995018005, -8.44975090027, -8.44975090027, 0.0216931793839, -0.0216931793839, 2.78925967216, 1.65072004222e-15, -0.0438108146191, 3.15301211882e-16, 0.324889659882,           180
        0.595, -0.00131777091883, 1.87296873974e-14, 0.979515850544, -9.95393139658e-14, 2.74122738838, 6.2890739437e-14, 62.1996231079, 62.1996231079, 62.2079811096, 62.2079811096, -11.642821312, -11.642821312, -11.642821312, -11.642821312, -17.8957462311, -17.8957462311, -8.69787311554, -8.69787311554, 0.0218534655869, -0.0218534655869, 2.78949570656, 1.67977147237e-15, -0.0441522151232, 2.38610398851e-16, 0.338495641947,           180
          0.6, -0.00157471944112, 1.57435066232e-14, 0.979523122311, -2.15424886588e-13, 2.78120779991, 6.66275641972e-14, 62.1920166016, 62.1920166016, 62.1997413635, 62.1997413635, -11.9453763962, -11.9453763962, -11.9453763962, -11.9453763962, -18.3918113708, -18.3918113708, -8.94590568542, -8.94590568542, 0.0220092646778, -0.0220092646778,  2.7897310257, 1.69300657393e-15, -0.0444833524525, -5.48520854829e-16, 0.352301776409,           180
        0.605, -0.00183440826368, 7.4647200991e-15, 0.979528844357, -2.69835640377e-13, 2.82108807564, 4.30650761091e-14, 62.1844291687, 62.1844291687, 62.1915245056, 62.1915245056, -12.2472171783, -12.2472171783, -12.2472171783, -12.2472171783, -18.8876247406, -18.8876247406, -9.1938123703, -9.1938123703, 0.0221606586128, -0.0221606586128,   2.789965868, 1.29621822495e-15, -0.0448043197393, -1.81936218444e-15, 0.366307556629,           180
         0.61, -0.00209683598951, -6.99468796414e-16,  0.9795332551, -2.56869666596e-13, 2.86086702347, 2.09238415439e-14, 62.1768608093, 62.1768608093, 62.1833343506, 62.1833343506, -12.5483465195, -12.5483465195, -12.5483465195, -12.5483465195, -19.3831214905, -19.3831214905, -9.44156074524, -9.44156074524, 0.02230771631, -0.02230771631, 2.79020023346, 9.31706384068e-16, -0.0451152063906, -3.10567065331e-15, 0.380512475967,           180
        0.615, -0.00236192531884, -1.68975720731e-14, 0.979536473751, -2.3805691576e-13, 2.90054273605, 2.76587190922e-14, 62.1693191528, 62.1693191528, 62.1751785278, 62.1751785278, -12.8487701416, -12.8487701416, -12.8487701416, -12.8487701416, -19.8782520294, -19.8782520294, -9.68912601471, -9.68912601471, 0.0224505048245, -0.0224505048245, 2.79043388367, 1.10121567626e-15, -0.045416098088, -4.26915023921e-15, 0.394916057587,           180
         0.62, -0.00262960977852, 2.07549821378e-14, 0.979538619518, -1.48488223128e-13, 2.94011259079, 2.36876575348e-14, 62.1618003845, 62.1618003845, 62.1670532227, 62.1670532227, -13.1484975815, -13.1484975815, -13.1484975815, -13.1484975815, -20.3729743958, -20.3729743958, -9.93648719788, -9.93648719788, 0.0225890800357, -0.0225890800357, 2.79066753387, 9.26610527979e-16, -0.0457070618868, -5.25841230029e-15, 0.409517735243,           180
        0.625, -0.00289988936856, 2.22146858742e-14, 0.97953993082, -4.95098076035e-14, 2.97957372665, 3.51946797443e-14, 62.1543083191, 62.1543083191, 62.1589584351, 62.1589584351, -13.4475412369, -13.4475412369, -13.4475412369, -13.4475412369, -20.8672523499, -20.8672523499, -10.1836261749, -10.1836261749, 0.0227234940976, -0.0227234940976, 2.79090046883, 1.01229638092e-15, -0.0459881648421, -5.76064693384e-15, 0.424317002296,           180
         0.63, -0.00317280041054, -3.57427283783e-16, 0.979540467262, 9.05662534984e-15,  3.0189230442, 4.58518178937e-14, 62.1468429565, 62.1468429565, 62.1509017944, 62.1509017944, -13.7459182739, -13.7459182739, -13.7459182739, -13.7459182739, -21.3610649109, -21.3610649109, -10.4305324554, -10.4305324554, 0.0228537935764, -0.0228537935764, 2.79113316536, 1.12394061733e-15, -0.0462594740093, -5.85035322867e-15, 0.439313292503,           180
        0.635, -0.00344835780561, -2.08184943622e-14, 0.979540288448, 1.91342159334e-15, 3.05815792084, 6.8385523481e-14, 62.1394042969, 62.1394042969, 62.1428794861, 62.1428794861, -14.0436468124, -14.0436468124, -14.0436468124, -14.0436468124, -21.8543949127, -21.8543949127, -10.6771974564, -10.6771974564, 0.0229800250381, -0.0229800250381, 2.79136562347, 1.49053721805e-15, -0.0465210452676, -5.76427519947e-15, 0.454506039619,           180
         0.64, -0.00372653827071, -4.3940198363e-15, 0.979539573193, -2.41224124416e-14, 3.09727501869, 7.04391108159e-14, 62.1319999695, 62.1319999695,   62.13489151,   62.13489151, -14.3407487869, -14.3407487869, -14.3407487869, -14.3407487869, -22.347234726, -22.347234726, -10.923617363, -10.923617363, 0.0231022275984, -0.0231022275984, 2.79159784317, 1.53746570207e-15, -0.0467729270458, -5.83178160778e-15, 0.469894677401,           180
        0.645, -0.00400731200352, 1.59742146811e-14, 0.97953826189, -8.22424336207e-14, 3.13627123833, 7.68642555203e-14, 62.1246261597, 62.1246261597, 62.1269454956, 62.1269454956, -14.6372480392, -14.6372480392, -14.6372480392, -14.6372480392, -22.8395805359, -22.8395805359, -11.1697902679, -11.1697902679, 0.0232204459608, -0.0232204459608, 2.79182982445, 1.61309356816e-15, -0.0470151752234, -6.0829154417e-15,  0.4854786098,           180
         0.65, -0.00429067527875, 2.22125547393e-14, 0.979536473751, -1.02447422019e-13, 3.17514443398, 5.45120657056e-14, 62.1172828674, 62.1172828674, 62.1190414429, 62.1190414429, -14.9331703186, -14.9331703186, -14.9331703186, -14.9331703186, -23.3314342499, -23.3314342499, -11.4157171249, -11.4157171249, 0.023334717378, -0.023334717378, 2.79206156731, 1.26671585564e-15, -0.0472478345037, -6.58401166296e-15, 0.501257181168,           180
        0.655, -0.0045766485855, 5.96033918632e-15, 0.979534268379, -1.12838774782e-13,  3.2138915062, 6.52876597186e-14, 62.1099777222, 62.1099777222, 62.1111793518, 62.1111793518, -15.2285423279, -15.2285423279, -15.2285423279, -15.2285423279, -23.822807312, -23.822807312, -11.661403656, -11.661403656, 0.023445084691, -0.023445084691, 2.79229307175, 1.43704105232e-15, -0.0474709495902, -7.10154455857e-15, 0.517229855061,           180
         0.66, -0.0048652482219, 3.70908477001e-14, 0.979531705379, -7.17754916374e-14, 3.25251078606, 4.04056027189e-14, 62.1027069092, 62.1027069092, 62.1033592224, 62.1033592224, -15.5233926773, -15.5233926773, -15.5233926773, -15.5233926773, -24.3137111664, -24.3137111664, -11.9068555832, -11.9068555832, 0.023551588878, -0.023551588878, 2.79252457619, 1.00637307952e-15, -0.0476845726371, -7.63582160148e-15, 0.533395886421,           180
