Time,AxG_S1,AyG_S1,AzG_S1,AVx_S1,AVy_S1,AVz_S1,AVy_L1,AVy_R1,AVy_L2,AVy_R2,My_Dr_L1,My_Dr_R1,My_Dr_L2,My_Dr_R2,My_Bk_L1,My_Bk_R1,My_Bk_L2,My_Bk_R2,StrK_L1,StrK_R1,sv_vx,sv_vy,sv_vz,Roll_E,Pitch,Yaw
            0, -0.000702404533513, -0.0133275045082, 1.00639653206,             0,             0,             0, 62.8574028015, 62.8574028015, 62.8574028015, 62.8574028015,             0,             0,             0,             0,          -0.5,          -0.5,          -0.5,          -0.5, -9.87841267488e-05, 9.87841267488e-05, 2.77777695656,             0, -0.00216605840251, -0.242591053247, -0.043325830251,             0
        0.005, -0.00413709692657, -0.0102260503918,  1.0276453495, 0.0437061823905, 0.0366557464004, -0.0507119111717,  62.966796875,  62.617023468, 62.6779289246, 62.6605491638,   1.926612854,   1.926612854,   1.926612854,   1.926612854,          -0.5,          -0.5,          -0.5,          -0.5, 1.71779083757e-05, 0.000419633928686, 2.77764749527, -0.000353460462065, -0.0013820764143, -0.242521390319, -0.043243765831, -0.000132010129164
         0.01, -0.00854013953358, -0.00836324691772, 1.04339742661, 0.152355909348, 0.0773260593414, -0.0889867246151, 63.1448822021, 62.4870376587, 62.6723480225,  62.616065979, 5.52809095383, 5.52809095383, 5.52809095383, 5.52809095383,          -0.5,          -0.5,          -0.5,          -0.5, 0.000370081339497, 0.00123549206182, 2.77728390694, -0.000580942374654, 0.000429505045759, -0.242051661015, -0.0429612882435, -0.000487260578666
        0.015, -0.00710770860314, -0.00714315520599, 1.05004358292, 0.296497195959, 0.11776355654, -0.118215687573, 63.3434829712, 62.4527664185, 62.7661323547, 62.6658058167, 10.5884170532, 10.5884170532, 10.5884170532, 10.5884170532,          -0.5,          -0.5,          -0.5,          -0.5, 0.000858427316416, 0.0022553303279, 2.77684164047, -0.000726827711333, 0.00277491356246, -0.240940570831, -0.0424733608961, -0.00101048708893
         0.02, -0.00214404775761, -0.00651848455891, 1.05068767071, 0.459239512682, 0.148541241884, -0.141298606992, 63.4420547485, 62.4609222412,    62.8268013, 62.7008209229, 15.5938425064, 15.5938425064, 15.5938425064, 15.5938425064,          -0.5,          -0.5,          -0.5,          -0.5, 0.00133390305564, 0.00332155800425, 2.77657198906, -0.000821867259219, 0.00529874349013, -0.23905569315, -0.0418045111001, -0.00166432163678
        0.025, 0.00149496470112, -0.00658720126376, 1.04751968384, 0.626618981361, 0.164381504059, -0.159953683615, 63.4102020264, 62.4699745178, 62.8108100891,    62.6796875, 19.3861637115, 19.3861637115, 19.3861637115, 19.3861637115,          -0.5,          -0.5,          -0.5,          -0.5, 0.00169393280521, 0.00441201915964, 2.77653670311, -0.000899688224308, 0.00775638455525, -0.236339867115, -0.0410184562206, -0.00242238375358
         0.03, 0.000374454364646, -0.00738880597055, 1.04242634773, 0.78744328022, 0.164746776223, -0.175326034427, 63.3215866089, 62.4910469055, 62.7840003967, 62.6503448486, 21.7570514679, 21.7570514679, 21.7570514679, 21.7570514679,          -0.5,          -0.5,          -0.5,          -0.5, 0.00208570947871, 0.00581802846864,  2.7765724659, -0.000997167197056, 0.0100066615269, -0.232799142599, -0.0401924401522, -0.00326520390809
        0.035, -0.00361309759319, -0.00891466997564, 1.03697443008, 0.932012796402, 0.149636641145, -0.188541457057, 63.2788772583, 62.5760993958,  62.839012146, 62.6900367737, 23.3222465515, 23.3222465515, 23.3222465515, 23.3222465515,          -0.5,          -0.5,          -0.5,          -0.5, 0.00288123474456, 0.00807936489582, 2.77644705772, -0.00115205952898, 0.0119925541803, -0.228490918875, -0.0394029840827, -0.00417859805748
         0.04, -0.00441169086844, -0.011084491387, 1.03157317638, 1.05357396603, 0.115103371441, -0.20143738389, 63.2690849304, 62.7162284851, 62.9197731018, 62.7589759827, 24.7454338074, 24.7454338074, 24.7454338074, 24.7454338074,          -0.5,          -0.5,          -0.5,          -0.5, 0.00440495368093, 0.0116541301832, 2.77620887756, -0.001396666863, 0.0136960670352, -0.223514720798, -0.0387346185744, -0.00515609746799
        0.045, -0.00436059292406, -0.0141059812158, 1.03236532211, 1.13975679874, 0.0463185608387, -0.216220125556, 63.2490158081, 62.8400421143, 62.9720878601, 62.8090667725, 26.1564788818, 26.1564788818, 26.1564788818, 26.1564788818,          -0.5,          -0.5,          -0.5,          -0.5, 0.00681605003774, 0.0167134478688, 2.77596020699, -0.00177218485624, 0.0152752147987, -0.218011692166, -0.0383160486817, -0.00620032800362
         0.05, -0.00475332839414, -0.0166043713689,  1.0303606987, 1.19294524193, -0.0546028017998, -0.233848050237, 63.2212181091, 62.9252510071, 63.0031814575, 62.8365440369,  27.533864975,  27.533864975,  27.533864975,  27.533864975,          -0.5,          -0.5,          -0.5,          -0.5, 0.0103104356676, 0.0232357364148, 2.77570939064, -0.00228611310013, 0.0168126877397, -0.212169468403, -0.0383310317993, -0.00732448790222
        0.055, -0.00648815184832, -0.0189431402832, 1.02890479565, 1.22739696503, -0.174712657928, -0.252776384354, 63.2183837891, 62.9889831543, 63.0469512939, 62.8638763428, 28.9064559937, 28.9064559937, 28.9064559937, 28.9064559937,          -0.5,          -0.5,          -0.5,          -0.5, 0.0148805743083, 0.031096495688, 2.77540636063, -0.0029184143059, 0.0182345639914, -0.206110909581, -0.0389016568661, -0.00853880587965
         0.06, -0.00787078216672, -0.0210759006441, 1.02841317654, 1.24891281128, -0.309310317039, -0.271674573421, 63.2635345459, 63.0448989868, 63.1161613464, 62.9091529846, 30.3885173798, 30.3885173798, 30.3885173798, 30.3885173798,          -0.5,          -0.5,          -0.5,          -0.5, 0.0203837621957, 0.0400784499943, 2.77501535416, -0.00366164022125, 0.0195772647858, -0.199914991856, -0.0401108264923, -0.00984579324722
        0.065, -0.00820708926767, -0.0229214951396, 1.02860164642, 1.26460635662, -0.454194515944, -0.289959281683, 63.3290138245, 63.0953865051, 63.1884536743,  62.958065033, 32.0406837463, 32.0406837463, 32.0406837463, 32.0406837463,          -0.5,          -0.5,          -0.5,          -0.5, 0.0264898557216, 0.0497803352773, 2.77458310127, -0.00450269412249, 0.0208828300238, -0.193629026413, -0.0420206487179, -0.0112437913194
         0.07, -0.0080038793385, -0.0245284102857, 1.02895903587, 1.28002142906, -0.606422245502, -0.306658864021, 63.3991317749, 63.1338348389, 63.2477416992, 62.9969482422, 33.8327026367, 33.8327026367, 33.8327026367, 33.8327026367,          -0.5,          -0.5,          -0.5,          -0.5, 0.0327047742903, 0.0596502386034, 2.77414917946, -0.00542937079445, 0.0221658889204, -0.187267184258, -0.0446744598448, -0.012727455236
        0.075, -0.00791859161109, -0.0259107723832, 1.02951657772, 1.29919934273, -0.763510525227, -0.320782989264, 63.4734153748, 63.1566963196, 63.2941246033, 63.0256385803, 35.7060890198, 35.7060890198, 35.7060890198, 35.7060890198,          -0.5,          -0.5,          -0.5,          -0.5, 0.0385499075055, 0.0691633075476, 2.77372193336, -0.00643074978143, 0.0234332624823, -0.180820211768, -0.0481027141213, -0.01428636536
         0.08, -0.00810198485851, -0.0271185394377, 1.03006196022, 1.32451033592, -0.923100888729, -0.331744402647, 63.5577087402, 63.1689224243, 63.3377723694, 63.0544624329, 37.6223754883, 37.6223754883, 37.6223754883, 37.6223754883,          -0.5,          -0.5,          -0.5,          -0.5, 0.0436433404684, 0.0778991580009, 2.77328872681, -0.00749778700992, 0.0246927142143, -0.174262389541, -0.0523239038885, -0.0159060433507
        0.085, -0.00820029247552, -0.0281346868724,  1.0305980444, 1.35703790188, -1.08244049549, -0.339424371719, 63.6520118713, 63.1793556213, 63.3837852478, 63.0903015137, 39.5670890808, 39.5670890808, 39.5670890808, 39.5670890808,          -0.5,          -0.5,          -0.5,          -0.5, 0.0476990640163, 0.0855463892221,  2.7728433609, -0.00862279627472, 0.0259385295212, -0.167560428381, -0.0573432184756, -0.0175704490393
         0.09, -0.00789748132229, -0.0289687197655, 1.03119170666, 1.39833319187, -1.23984992504, -0.343828827143, 63.7469902039, 63.1934394836, 63.4275436401, 63.1299705505, 41.5253257751, 41.5253257751, 41.5253257751, 41.5253257751,          -0.5,          -0.5,          -0.5,          -0.5, 0.0505008995533, 0.0918752402067, 2.77239847183, -0.00979702360928, 0.027172839269, -0.160674259067, -0.0631549209356, -0.0192633550614
        0.095, -0.0072583318688, -0.0296363793314,  1.0316144228, 1.44896686077, -1.39420282841, -0.345093756914, 63.8335952759, 63.2107887268, 63.4623641968, 63.1663742065, 43.4665145874, 43.4665145874, 43.4665145874, 43.4665145874,          -0.5,          -0.5,          -0.5,          -0.5, 0.0519134923816, 0.0967406406999, 2.77197241783, -0.011013568379, 0.0284003540874, -0.153558328748, -0.0697465464473, -0.0209689643234
          0.1, -0.00658910535276, -0.0301648192108, 1.03174448013, 1.51012563705, -1.54305183887, -0.3432315588, 63.9095153809, 63.2312088013, 63.4877700806, 63.1968612671, 45.3517799377, 45.3517799377, 45.3517799377, 45.3517799377,          -0.5,          -0.5,          -0.5,          -0.5, 0.0519131943583, 0.100121445954, 2.77157497406, -0.0122647210956, 0.0295998882502, -0.146162927151, -0.0770966112614, -0.0226718578488
        0.105, -0.00605753343552, -0.0306179709733,  1.0323331356, 1.58112215996, -1.68662583828, -0.338734567165, 63.9771766663, 63.2538070679, 63.5096359253, 63.2242431641, 47.1504173279, 47.1504173279, 47.1504173279, 47.1504173279,          -0.5,          -0.5,          -0.5,          -0.5, 0.0506027378142, 0.102128922939, 2.77120041847, -0.0135469483212, 0.0307778362185, -0.138436555862, -0.0851775109768, -0.0243577212095
         0.11, -0.0055656703189, -0.0310638230294, 1.03341960907, 1.66082918644, -1.82410764694, -0.332255154848, 64.0377349854, 63.2790298462, 63.5343132019, 63.2526016235, 48.8453979492, 48.8453979492, 48.8453979492, 48.8453979492,          -0.5,          -0.5,          -0.5,          -0.5, 0.0482066422701, 0.102976568043, 2.77084422112, -0.0148581583053, 0.0319644659758, -0.130332276225, -0.0939607769251, -0.0260153319687
        0.115, -0.00497756199911, -0.031525939703, 1.03444850445, 1.74623644352, -1.95641326904, -0.3244150877, 64.0894393921, 63.3057746887, 63.5617370605,  63.282119751, 50.4264297485, 50.4264297485, 50.4264297485, 50.4264297485,          -0.5,          -0.5,          -0.5,          -0.5, 0.0450195223093, 0.102926053107, 2.77050638199, -0.016200600192, 0.0331760086119, -0.12181391567, -0.103417985141, -0.0276367105544
         0.12, -0.00427600741386, -0.0319614522159, 1.03496873379, 1.83589780331, -2.08303785324, -0.315558075905, 64.1304321289, 63.3331565857, 63.5889015198,  63.309879303, 51.8833312988, 51.8833312988, 51.8833312988, 51.8833312988,          -0.5,          -0.5,          -0.5,          -0.5, 0.0413604602218, 0.102252863348, 2.77019286156, -0.0175740923733, 0.034394364804, -0.112857230008, -0.11352250725, -0.0292163472623
        0.125, -0.0035872249864, -0.0323695130646, 1.03501355648, 1.92883062363, -2.20338535309, -0.305924147367, 64.1616210938, 63.3598480225, 63.6142730713,  63.334236145, 53.2055702209, 53.2055702209, 53.2055702209, 53.2055702209,          -0.5,          -0.5,          -0.5,          -0.5, 0.0375365503132, 0.10123180598, 2.76990580559, -0.0189779549837, 0.0355972610414, -0.103443481028, -0.124244302511, -0.0307501107454
         0.13, -0.00300545524806, -0.0327635034919, 1.03480780125, 2.02424311638, -2.31723976135, -0.295750260353, 64.1859741211, 63.3852157593, 63.6388778687, 63.3562278748, 54.3870582581, 54.3870582581, 54.3870582581, 54.3870582581,          -0.5,          -0.5,          -0.5,          -0.5, 0.0338315814734, 0.100125424564, 2.76964139938, -0.0204113535583, 0.0367650426924, -0.0935582593083, -0.135551229119, -0.0322350375354
        0.135, -0.0025114454329, -0.0331501662731, 1.03456044197, 2.12059903145, -2.4252872467, -0.285372078419, 64.2058792114, 63.4085617065, 63.6642684937, 63.3780212402, 55.4286003113, 55.4286003113, 55.4286003113, 55.4286003113,          -0.5,          -0.5,          -0.5,          -0.5, 0.0304909255356, 0.0991600453854, 2.76939344406, -0.0218748990446, 0.0378980003297, -0.0831928178668, -0.147412255406, -0.0336695834994
         0.14, -0.002022304805, -0.0334828048944, 1.03401231766, 2.21730947495, -2.52751541138, -0.275013685226, 64.2219696045, 63.4302978516, 63.6904144287,  63.400062561, 56.3356552124, 56.3356552124, 56.3356552124, 56.3356552124,          -0.5,          -0.5,          -0.5,          -0.5, 0.027701344341, 0.0985022187233, 2.76915955544, -0.0233671907336, 0.03898620978, -0.0723444521427, -0.159798756242, -0.0350536927581
        0.145, -0.00151974195614, -0.0337520577013, 1.03324329853, 2.31423211098, -2.6238014698, -0.26483502984, 64.2342224121,  63.450668335, 63.7159347534, 63.4211196899, 57.1146812439, 57.1146812439, 57.1146812439, 57.1146812439,          -0.5,          -0.5,          -0.5,          -0.5, 0.0255667939782, 0.0982468873262, 2.76893997192, -0.0248857215047, 0.0400183685124, -0.0610118024051, -0.172681212425, -0.0363882184029
         0.15, -0.00104020605795, -0.0339496731758, 1.03232467175, 2.41132545471, -2.71416497231, -0.254963964224, 64.2433242798, 63.4695587158, 63.7396736145, 63.4401321411, 57.7721443176, 57.7721443176, 57.7721443176, 57.7721443176,          -0.5,          -0.5,          -0.5,          -0.5, 0.0241135712713, 0.098421677947, 2.76873397827, -0.026427526027, 0.0409869141877, -0.0491939596832, -0.186029940844, -0.0376747250557
        0.155, -0.000615669472609, -0.0340717062354, 1.03134155273, 2.50858688354, -2.7986805439, -0.245506986976, 64.2506790161, 63.4870147705, 63.7616539001, 63.4573478699, 58.3155021667, 58.3155021667, 58.3155021667, 58.3155021667,          -0.5,          -0.5,          -0.5,          -0.5, 0.0233042985201, 0.0989985540509, 2.76853919029, -0.0279892813414, 0.0418878346682, -0.0368900597095, -0.199815556407, -0.0389153473079
         0.16, -0.000237285712501, -0.0341108702123, 1.03031432629, 2.60598134995, -2.87742519379, -0.236563459039, 64.2572860718,  63.503364563, 63.7825088501, 63.4737243652, 58.7538642883, 58.7538642883, 58.7538642883, 58.7538642883,          -0.5,          -0.5,          -0.5,          -0.5, 0.0230503883213, 0.0999040305614, 2.76835250854, -0.0295674651861, 0.0427206195891, -0.0240993909538, -0.214008942246, -0.0401127226651
        0.165, 0.000129149135319, -0.0340622663498, 1.02925431728, 2.70358586311, -2.95062470436, -0.228250071406, 64.2631912231, 63.5189971924, 63.8024864197, 63.4894828796, 59.0972900391, 59.0972900391, 59.0972900391, 59.0972900391,          -0.5,          -0.5,          -0.5,          -0.5, 0.023222675547, 0.101027414203, 2.76817202568, -0.0311581231654, 0.0434844493866, -0.0108211105689, -0.228581786156, -0.0412700213492
         0.17, 0.000503898481838, -0.0339252986014, 1.02818441391, 2.80144906044, -3.01851391792, -0.220675423741, 64.2679748535, 63.5340805054, 63.8212509155, 63.5040588379, 59.3554916382, 59.3554916382, 59.3554916382, 59.3554916382,          -0.5,          -0.5,          -0.5,          -0.5, 0.0236647464335, 0.102232076228, 2.76799750328, -0.0327571853995, 0.0441796928644, 0.002945976099, -0.243506982923, -0.0423909686506
        0.175, 0.000881387386471, -0.0337004698813, 1.02711391449, 2.89957118034, -3.08129310608, -0.21392993629, 64.2714614868, 63.5485153198, 63.8384399414,  63.516834259, 59.5371627808, 59.5371627808, 59.5371627808, 59.5371627808,          -0.5,          -0.5,          -0.5,          -0.5, 0.0242103300989, 0.103371016681, 2.76782917976, -0.0343605615199, 0.0448074452579, 0.0172031912953, -0.25875851512, -0.0434797890484
         0.18, 0.00125864020083, -0.0333971232176, 1.02591443062, 2.99779176712, -3.13897633553, -0.208099544048, 64.2740020752, 63.5621337891, 63.8540916443,  63.527759552, 59.6501998901, 59.6501998901, 59.6501998901, 59.6501998901,          -0.5,          -0.5,          -0.5,          -0.5, 0.0247006919235, 0.104303300381, 2.76766633987, -0.0359643176198, 0.045366846025, 0.0319516249001, -0.274311065674, -0.0445411130786
        0.185, 0.00162904721219, -0.0330087207258, 1.02468883991, 3.09571003914, -3.19130134583, -0.203284293413, 64.2761993408, 63.5747642517, 63.8685073853, 63.5374412537, 59.7019424438, 59.7019424438, 59.7019424438, 59.7019424438,          -0.5,          -0.5,          -0.5,          -0.5, 0.0249973516911, 0.104909732938, 2.76750898361, -0.0375647880137, 0.0458531565964, 0.0471906326711, -0.290138363838, -0.0455800518394
         0.19, 0.00202437862754, -0.0325342677534, 1.02347660065, 3.19331097603, -3.2384531498, -0.199525699019, 64.2777557373, 63.5863037109, 63.8819274902, 63.5458106995, 59.6991958618, 59.6991958618, 59.6991958618, 59.6991958618,          -0.5,          -0.5,          -0.5,          -0.5, 0.0249890666455, 0.105095796287, 2.76735687256, -0.0391578599811, 0.0462687425315, 0.0629186481237, -0.306214004755, -0.046602062881
        0.195, 0.00244541582651, -0.0319784879684, 1.02223980427, 3.29051041603, -3.28054237366, -0.196857750416, 64.2779388428, 63.5966529846, 63.8943443298, 63.5521354675, 59.6475563049, 59.6475563049, 59.6475563049, 59.6475563049,          -0.5,          -0.5,          -0.5,          -0.5, 0.0245932638645, 0.104790024459, 2.76721119881, -0.0407395996153, 0.0466145649552, 0.0791339576244, -0.322512477636, -0.0476127490401
          0.2, 0.00288613303564, -0.0313465259969, 1.02094852924, 3.38714456558, -3.31757974625, -0.195326268673, 64.2759933472, 63.6057167053, 63.9056816101,  63.556804657, 59.5514602661, 59.5514602661, 59.5514602661, 59.5514602661,          -0.5,          -0.5,          -0.5,          -0.5, 0.0237569883466, 0.103945977986, 2.76707291603, -0.0423063077033, 0.0468899011612, 0.0958341881633, -0.33900848031, -0.0486178994179
        0.205, 0.00335014471784, -0.0306438319385, 1.01958096027, 3.48299074173, -3.34951329231, -0.194961205125,  64.271522522, 63.6133995056, 63.9159698486, 63.5599479675, 59.4145050049, 59.4145050049, 59.4145050049, 59.4145050049,          -0.5,          -0.5,          -0.5,          -0.5, 0.0224575083703, 0.102544113994, 2.76694297791, -0.0438545383513, 0.0470927618444, 0.113016024232, -0.355676651001, -0.0496234931052
         0.21, 0.00383329577744, -0.0298757012933, 1.01812374592, 3.57778406143, -3.37625837326, -0.195775926113, 64.2644729614, 63.6196327209, 63.9253120422, 63.5613555908, 59.2394943237, 59.2394943237, 59.2394943237, 59.2394943237,          -0.5,          -0.5,          -0.5,          -0.5, 0.0207012984902, 0.100591987371, 2.76682186127, -0.045381102711, 0.0472203046083, 0.130674913526, -0.372491270304, -0.0506355911493
        0.215, 0.00433264859021, -0.0290473438799, 1.01657176018, 3.67122888565, -3.39771723747, -0.197781860828, 64.2548522949, 63.6244316101, 63.9338150024, 63.5611000061, 59.0286407471, 59.0286407471, 59.0286407471, 59.0286407471,          -0.5,          -0.5,          -0.5,          -0.5, 0.0185200385749, 0.0981213599443, 2.76671075821, -0.0468830615282, 0.0472692623734, 0.148804917932, -0.389426082373, -0.0516602806747
         0.22, 0.00485343020409, -0.028162220493, 1.01494121552, 3.76300859451, -3.41380524635, -0.200987562537, 64.2425689697, 63.6278648376, 63.9414978027, 63.5592536926,  58.783706665,  58.783706665,  58.783706665,  58.783706665,          -0.5,          -0.5,          -0.5,          -0.5, 0.015963960439, 0.0951826646924, 2.76661014557, -0.048357732594, 0.047236315906, 0.167398557067, -0.406454443932, -0.0527036860585
        0.225, 0.00540014123544, -0.0272118914872,  1.0133587122, 3.85303997993, -3.42423892021, -0.20543025434, 64.2274627686,  63.630027771, 63.9485054016, 63.5557479858, 58.5058937073, 58.5058937073, 58.5058937073, 58.5058937073,          -0.5,          -0.5,          -0.5,          -0.5, 0.0130947250873, 0.0918387323618, 2.76652145386, -0.0498021654785, 0.0471228323877, 0.186447188258, -0.423548877239, -0.0537719875574
         0.23, 0.00595563091338, -0.0262201223522, 1.01168262959, 3.94111132622, -3.42887926102, -0.211121708155, 64.2095718384, 63.6310157776,   63.95495224, 63.5505523682, 58.1958732605, 58.1958732605, 58.1958732605, 58.1958732605,          -0.5,          -0.5,          -0.5,          -0.5, 0.00997950322926, 0.088159635663, 2.76644492149, -0.0512139163911, 0.0469286181033, 0.205941796303, -0.440680533648, -0.0548715144396
        0.235, 0.00651564681903, -0.0251921731979, 1.00993251801, 4.02681446075, -3.42778992653, -0.21803958714, 64.1891021729, 63.6309356689,  63.960735321, 63.5437240601, 57.8541679382, 57.8541679382, 57.8541679382, 57.8541679382,          -0.5,          -0.5,          -0.5,          -0.5, 0.00668551027775, 0.0842174142599, 2.76638126373, -0.0525912046432, 0.0466509535909, 0.225871652365, -0.457820534706, -0.0560085065663
         0.24, 0.00707593280822, -0.0241320822388, 1.00812983513, 4.10974264145, -3.42106533051, -0.226155549288, 64.1664047241, 63.6299514771, 63.9656333923, 63.5353164673, 57.4813117981, 57.4813117981, 57.4813117981, 57.4813117981,          -0.5,          -0.5,          -0.5,          -0.5, 0.00327542354353, 0.0800816789269, 2.76633024216, -0.0539324767888, 0.0462881028652, 0.246223956347, -0.474940389395, -0.0571890436113
        0.245, 0.00763628678396, -0.0230426993221, 1.00629580021, 4.18949508667, -3.40882849693, -0.235438600183, 64.1418075562, 63.6283416748, 63.9694366455, 63.5253791809, 57.0778770447, 57.0778770447, 57.0778770447, 57.0778770447,          -0.5,          -0.5,          -0.5,          -0.5, -0.000196116699954, 0.0758160501719, 2.76629209518, -0.0552363470197, 0.0458393618464, 0.266983926296, -0.492012172937, -0.0584190264344
         0.25, 0.00819797813892, -0.0219258721918, 1.00445079803, 4.26567935944, -3.3912332058, -0.245860621333, 64.1152114868, 63.6264228821, 63.9720001221, 63.5139808655, 56.6444816589, 56.6444816589, 56.6444816589, 56.6444816589,          -0.5,          -0.5,          -0.5,          -0.5, -0.00368722015992, 0.0714732781053,  2.7662665844, -0.0565015487373, 0.0453050136566, 0.288134723902, -0.509008586407, -0.0597041733563
        0.255, 0.00875440519303, -0.0207796506584, 1.00266194344,  4.3379406929, -3.36848735809, -0.257376998663, 64.0868301392, 63.6240844727,  63.973236084, 63.5011940002, 56.1817131042, 56.1817131042, 56.1817131042, 56.1817131042,          -0.5,          -0.5,          -0.5,          -0.5, -0.00716878706589, 0.0670948252082, 2.76625394821, -0.0577268376946, 0.0446866750717, 0.309657692909, -0.52590328455, -0.0610499978065
         0.26, 0.00930324289948, -0.0196045413613, 1.00094342232, 4.40613365173, -3.34104585648, -0.269923478365,  64.056602478, 63.6213226318, 63.9731254578, 63.4871559143, 55.6902236938, 55.6902236938, 55.6902236938, 55.6902236938,          -0.5,          -0.5,          -0.5,          -0.5, -0.0106216119602, 0.062711417675, 2.76625370979, -0.058910805732, 0.0439903326333, 0.331532895565, -0.542671501637, -0.0624617002904
        0.265, 0.00984592363238, -0.0184047706425, 0.999226033688, 4.46986865997, -3.3090877533, -0.283460944891,  64.024597168, 63.6183319092, 63.9716835022, 63.4719734192, 55.1707687378, 55.1707687378, 55.1707687378, 55.1707687378,          -0.5,          -0.5,          -0.5,          -0.5, -0.0140375541523, 0.0583417601883, 2.76626586914, -0.0600522942841, 0.0432178489864, 0.353739202023, -0.55929017067, -0.0639441981912
         0.27, 0.0103826485574, -0.0171812679619, 0.997480332851, 4.52870798111, -3.27274155617, -0.297945469618, 63.9912796021, 63.6152000427,  63.968914032, 63.4556808472, 54.6241455078, 54.6241455078, 54.6241455078, 54.6241455078,          -0.5,          -0.5,          -0.5,          -0.5, -0.017416941002, 0.0539976917207, 2.76628994942, -0.0611501820385, 0.0423703938723, 0.376253336668, -0.575737059116, -0.0655021816492
        0.275, 0.0109132928774, -0.0159411150962, 0.995721459389, 4.58205413818, -3.2319662571, -0.313350409269, 63.9573974609, 63.6118812561, 63.9648017883,  63.438293457, 54.0512046814, 54.0512046814, 54.0512046814, 54.0512046814,          -0.5,          -0.5,          -0.5,          -0.5, -0.0207647457719, 0.0496891923249, 2.76632595062, -0.0622035749257, 0.0414463728666, 0.399049431086, -0.591990053654, -0.0671400949359
         0.28, 0.0114199994132, -0.0147017473355, 0.994271099567, 4.62943410873, -3.18719911575, -0.32966247201, 63.9231681824, 63.6081428528, 63.9594497681, 63.4198913574, 53.4528121948, 53.4528121948, 53.4528121948, 53.4528121948,          -0.5,          -0.5,          -0.5,          -0.5, -0.0240890290588, 0.0454243719578, 2.76637339592, -0.0632118359208, 0.0404516719282, 0.42209905386, -0.608027458191, -0.068862259388
        0.285, 0.0119146248326, -0.0134669309482, 0.992840588093, 4.66943264008, -3.13976669312, -0.346983402967, 63.8888282776, 63.6024856567, 63.9532051086,  63.400844574, 52.8300743103, 52.8300743103, 52.8300743103, 52.8300743103,          -0.5,          -0.5,          -0.5,          -0.5, -0.0273923017085, 0.0412034541368, 2.76643109322, -0.0641757398844, 0.0394061170518, 0.44536921382, -0.623832881451, -0.0706732198596
         0.29, 0.0124144889414, -0.0121911643073, 0.991169333458, 4.70076131821, -3.08867049217, -0.365322887897, 63.8561820984, 63.5948295593, 63.9461288452, 63.3810958862, 52.1841392517, 52.1841392517, 52.1841392517, 52.1841392517,          -0.5,          -0.5,          -0.5,          -0.5, -0.0306705813855, 0.0370312556624, 2.76649975777, -0.0650943517685, 0.0382921472192, 0.468819499016, -0.63939088583, -0.0725778415799
        0.295, 0.0129008591175, -0.0108552528545, 0.989668130875, 4.72361183167, -3.03432583809, -0.38455414772, 63.8250045776,   63.58568573, 63.9381484985,  63.360458374, 51.5159606934, 51.5159606934, 51.5159606934, 51.5159606934,          -0.5,          -0.5,          -0.5,          -0.5, -0.0339265093207, 0.0329171009362, 2.76657891273, -0.0659648627043, 0.0371144674718, 0.492406696081, -0.654683411121, -0.0745806321502
          0.3, 0.0133463013917, -0.00952564179897, 0.988713741302, 4.73756504059, -2.97782802582, -0.404662430286, 63.7940139771, 63.5751075745, 63.9294776917, 63.3393249512, 50.8265647888, 50.8265647888, 50.8265647888, 50.8265647888,          -0.5,          -0.5,          -0.5,          -0.5, -0.0371745415032, 0.0288527272642, 2.76666784286, -0.0667856037617, 0.0358885936439, 0.516088366508, -0.669696211815, -0.0766855701804
        0.305, 0.0137544432655, -0.00811597611755, 0.988139271736, 4.74179649353, -2.92085957527, -0.425686538219, 63.7621994019, 63.5623664856, 63.9207191467, 63.3182220459, 50.1173210144, 50.1173210144, 50.1173210144, 50.1173210144,          -0.5,          -0.5,          -0.5,          -0.5, -0.0404238887131, 0.0248145516962, 2.76676440239, -0.0675556063652, 0.0346391834319, 0.53981667757, -0.684423029423, -0.0788970515132
         0.31, 0.0141506707296, -0.00663541583344, 0.987565696239, 4.73749780655, -2.86441016197, -0.44739100337, 63.7276115417,   63.54870224, 63.9122962952, 63.2973937988, 49.3899459839, 49.3899459839, 49.3899459839, 49.3899459839,          -0.5,          -0.5,          -0.5,          -0.5, -0.0436853021383, 0.020765054971, 2.76686787605, -0.0682701021433, 0.0333799645305, 0.563546776772, -0.698864340782, -0.0812187790871
        0.315, 0.0145334033296, -0.00510615110397, 0.986860871315, 4.72403430939, -2.80811548233, -0.469728171825, 63.6903762817, 63.5353164673, 63.9039878845, 63.2769165039, 48.6461410522, 48.6461410522, 48.6461410522, 48.6461410522,          -0.5,          -0.5,          -0.5,          -0.5, -0.0469773001969, 0.0166649892926, 2.76697802544, -0.0689263194799, 0.032102946192, 0.587234795094, -0.713021934032, -0.0836537852883
         0.32, 0.014871920459, -0.00346819707192, 0.986433029175, 4.70119285583, -2.75228953362, -0.492592811584, 63.6509933472, 63.5231666565, 63.8956680298, 63.2567367554, 47.8876457214, 47.8876457214, 47.8876457214, 47.8876457214,          -0.5,          -0.5,          -0.5,          -0.5, -0.0503109507263, 0.0124941859394, 2.76709342003, -0.0695208832622, 0.0308108534664, 0.610833525658, -0.726896464825, -0.0862048342824
        0.325, 0.0151838818565, -0.00173824618105, 0.986027359962, 4.67061758041, -2.69761824608, -0.515652894974, 63.6081428528, 63.5141563416, 63.8875350952, 63.2370796204, 47.1165466309, 47.1165466309, 47.1165466309, 47.1165466309,          -0.5,          -0.5,          -0.5,          -0.5, -0.0536911226809, 0.00824065878987, 2.76721286774, -0.0700473859906, 0.0295127145946, 0.634300768375, -0.740492522717, -0.08887347579
         0.33, 0.0154611738399, 4.27636077802e-05, 0.985712528229, 4.63149309158, -2.64432692528, -0.538854241371, 63.5625457764, 63.5085868835, 63.8795280457, 63.2182044983, 46.3351249695, 46.3351249695, 46.3351249695, 46.3351249695,          -0.5,          -0.5,          -0.5,          -0.5, -0.0571171157062, 0.00390491262078, 2.76733493805, -0.0705029219389, 0.028210349381, 0.657596349716, -0.753816127777, -0.0916603133082
        0.335, 0.0156558547169, 0.00189559697174, 0.98544383049, 4.58301448822, -2.59272813797, -0.562103271484, 63.5163230896, 63.5060577393, 63.8715400696, 63.2000808716, 45.5459442139, 45.5459442139, 45.5459442139, 45.5459442139,          -0.5,          -0.5,          -0.5,          -0.5, -0.0605607777834, -0.000481269264128, 2.76745724678, -0.0708843767643, 0.0269072260708, 0.680675327778, -0.766874969006, -0.0945656746626
         0.34, 0.0157257225364, 0.0038346236106, 0.985288619995, 4.52489089966, -2.54296135902, -0.585245490074, 63.4718322754, 63.5069313049, 63.8634757996, 63.1827392578, 44.7525253296, 44.7525253296, 44.7525253296, 44.7525253296,          -0.5,          -0.5,          -0.5,          -0.5, -0.0639748722315, -0.00485359691083, 2.76757502556, -0.0711874887347, 0.0256048087031, 0.703490197659, -0.779677689075, -0.0975892543793
        0.345, 0.0156930834055, 0.00586368655786, 0.985410928726, 4.45682954788, -2.49564957619, -0.608156085014,  63.430847168,  63.512676239, 63.8552398682, 63.1662368774, 43.9598884583, 43.9598884583, 43.9598884583, 43.9598884583,          -0.5,          -0.5,          -0.5,          -0.5, -0.0673168152571, -0.00913821067661,  2.7676820755, -0.0714078098536, 0.0243127681315, 0.72599196434, -0.7922347188, -0.100730076432
         0.35, 0.0155724724755, 0.00798556488007, 0.985942602158, 4.37847995758, -2.45192265511, -0.630660891533, 63.3946495056, 63.5203170776, 63.8469352722, 63.1507835388, 43.1739997864, 43.1739997864, 43.1739997864, 43.1739997864,          -0.5,          -0.5,          -0.5,          -0.5, -0.0705451965332, -0.0132599147037, 2.76777482033, -0.0715407729149, 0.0230485554785, 0.748130142689, -0.804561018944, -0.103986486793
        0.355, 0.0153501667082, 0.0102295922115,  0.9866771698, 4.28997516632, -2.41260719299, -0.652553021908, 63.3639335632, 63.5290298462, 63.8387908936, 63.1366767883, 42.4013404846, 42.4013404846, 42.4013404846, 42.4013404846,          -0.5,          -0.5,          -0.5,          -0.5, -0.0736130774021, -0.0171433296055, 2.76784825325, -0.0715807899833, 0.0218253135681, 0.769853293896, -0.816676676273, -0.107355967164
         0.36, 0.0150434691459, 0.0126138310879, 0.987635791302, 4.19188165665,  -2.378251791, -0.673578202724, 63.3387145996, 63.5396499634, 63.8308830261, 63.1239891052, 41.6490402222, 41.6490402222, 41.6490402222, 41.6490402222,          -0.5,          -0.5,          -0.5,          -0.5, -0.0764897689223, -0.02073161304, 2.76789832115, -0.0715212076902, 0.0206520538777, 0.791111946106, -0.828605234623, -0.110834911466
        0.365, 0.0146731408313, 0.0151382042095, 0.98876619339, 4.08494663239, -2.34941482544, -0.693437516689, 63.3184051514,  63.551940918, 63.8232040405, 63.1128196716, 40.9245262146, 40.9245262146, 40.9245262146, 40.9245262146,          -0.5,          -0.5,          -0.5,          -0.5, -0.0791617333889, -0.023990932852, 2.76792144775, -0.0713548734784, 0.0195379257202, 0.81185990572, -0.840372979641, -0.114418372512
         0.37, 0.0142471306026, 0.0177977886051, 0.99000108242, 3.96982312202, -2.32638835907, -0.711839437485, 63.3021316528,  63.565246582, 63.8157920837, 63.1033439636, 40.2351608276, 40.2351608276, 40.2351608276, 40.2351608276,          -0.5,          -0.5,          -0.5,          -0.5, -0.0816229730844, -0.0269029121846, 2.76791477203, -0.0710748955607, 0.0184878576547, 0.832054674625, -0.852008283138, -0.118099965155
        0.375, 0.0137698091567, 0.020551642403, 0.991282343864, 3.84712529182, -2.30930161476, -0.728526115417, 63.2887306213, 63.5792922974, 63.8086662292, 63.0956001282, 39.5880966187, 39.5880966187, 39.5880966187, 39.5880966187,          -0.5,          -0.5,          -0.5,          -0.5, -0.0838680788875, -0.0294585097581, 2.76787590981, -0.0706750378013, 0.0175042375922, 0.851656734943, -0.863540709019, -0.121871933341
         0.38, 0.0132656106725, 0.0233793444932, 0.992576956749, 3.71726131439, -2.2981030941, -0.743375003338, 63.2769966125, 63.5939369202, 63.8017501831, 63.0895690918, 38.9902038574, 38.9902038574, 38.9902038574, 38.9902038574,          -0.5,          -0.5,          -0.5,          -0.5, -0.0858701094985, -0.0316360928118, 2.76780295372, -0.0701518803835, 0.0165865141898, 0.870629191399, -0.875000059605, -0.125725641847
        0.385, 0.0127665707842, 0.0263042114675, 0.993908047676, 3.58054661751, -2.29278302193, -0.756191670895, 63.2658538818, 63.6103668213,  63.795009613, 63.0852584839, 38.4477462769, 38.4477462769, 38.4477462769, 38.4477462769,          -0.5,          -0.5,          -0.5,          -0.5, -0.0875690355897, -0.0333848297596, 2.76769518852, -0.0695007741451, 0.0157344974577, 0.88893699646, -0.886415719986, -0.129651710391
         0.39, 0.0122877545655, 0.0293191019446, 0.995265722275, 3.43721985817, -2.2933921814, -0.766782581806, 63.2549858093, 63.6292495728, 63.7884597778, 63.0827598572, 37.9660301208, 37.9660301208, 37.9660301208, 37.9660301208,          -0.5,          -0.5,          -0.5,          -0.5, -0.0889024958014, -0.0346510820091, 2.76755356789, -0.0687170252204, 0.0149487927556, 0.906546354294, -0.897817492485, -0.133639797568
        0.395, 0.011854515411, 0.0324425324798, 0.996371030807, 3.28798985481, -2.29941678047, -0.774888217449, 63.2444725037, 63.6511421204, 63.7820587158, 63.0820503235, 37.5492286682, 37.5492286682, 37.5492286682, 37.5492286682,          -0.5,          -0.5,          -0.5,          -0.5, -0.0898128822446, -0.0353830270469, 2.76737952232, -0.0677955448627, 0.0142210777849, 0.92342543602, -0.909234285355, -0.137678459287
          0.4, 0.0114537645131, 0.0356119908392, 0.997613549232, 3.13324546814, -2.31059551239, -0.780318260193, 63.2341918945, 63.6762733459, 63.7756538391, 63.0831298828, 37.2002792358, 37.2002792358, 37.2002792358, 37.2002792358,          -0.5,          -0.5,          -0.5,          -0.5, -0.0902520492673, -0.0355311892927,  2.7671751976, -0.0667326003313, 0.0135482270271, 0.939546108246, -0.920692265034, -0.141755014658
        0.405, 0.0110940020531, 0.0388195477426, 0.998897373676, 2.97296953201, -2.32703876495, -0.782964169979, 63.2240371704, 63.7039642334, 63.7692451477, 63.0861701965, 36.9211082458, 36.9211082458, 36.9211082458, 36.9211082458,          -0.5,          -0.5,          -0.5,          -0.5, -0.090171135962, -0.0350520201027, 2.76694226265, -0.0655261352658, 0.0129335867241, 0.954880297184, -0.93221783638, -0.145856112242
         0.41, 0.0107864364982, 0.0420548319817, 1.00015902519, 2.80735135078, -2.34871673584, -0.782722234726, 63.2140922546, 63.7330589294, 63.7629394531, 63.0912132263, 36.7126464844, 36.7126464844, 36.7126464844, 36.7126464844,          -0.5,          -0.5,          -0.5,          -0.5, -0.0895168408751, -0.033906083554, 2.76668262482, -0.0641744956374, 0.0123761342838, 0.969400703907, -0.943837583065, -0.149967864156
        0.415, 0.0105374436826, 0.0453061759472, 1.00135040283, 2.63669371605, -2.37541174889, -0.779501140118, 63.2044258118, 63.7625274658, 63.7567329407, 63.0981941223, 36.5748329163, 36.5748329163, 36.5748329163, 36.5748329163,          -0.5,          -0.5,          -0.5,          -0.5, -0.0882338359952, -0.0320589244366, 2.76639938354, -0.0626765862107, 0.0118722943589, 0.983081042767, -0.955577492714, -0.154075950384
         0.42, 0.010345870629, 0.0485607795417, 1.00243365765, 2.46138906479, -2.40674829483, -0.773226439953, 63.1952133179, 63.7916183472, 63.7505683899, 63.1070404053, 36.5066642761, 36.5066642761, 36.5066642761, 36.5066642761,          -0.5,          -0.5,          -0.5,          -0.5, -0.0862707570195, -0.0294851120561, 2.76609492302, -0.061031896621, 0.0114164622501, 0.995896816254, -0.967462062836, -0.158165559173
        0.425, 0.0102174971253, 0.0517644956708, 1.00339365005, 2.28184938431, -2.44224643707, -0.763884663582, 63.1866798401, 63.8196563721, 63.7445487976, 63.1176567078, 36.5063171387, 36.5063171387, 36.5063171387, 36.5063171387,          -0.5,          -0.5,          -0.5,          -0.5, -0.0835846289992, -0.0261706262827, 2.76577210426, -0.0592413283885, 0.0110017806292, 1.00782561302, -0.979513764381, -0.162221595645
         0.43, 0.0101720001549, 0.0549553707242, 1.00439405441,  2.0986135006, -2.48123264313, -0.751579284668, 63.1786079407, 63.8460464478,  63.738822937, 63.1298751831, 36.5711936951, 36.5711936951, 36.5711936951, 36.5711936951,          -0.5,          -0.5,          -0.5,          -0.5, -0.0801462233067, -0.0221164729446, 2.76543426514, -0.0573071241379, 0.0106234801933, 1.01884698868, -0.991752326488, -0.166229203343
        0.435, 0.0101997517049, 0.0581124089658, 1.00530099869, 1.91275501251, -2.52259016037, -0.736402094364, 63.1706733704, 63.8703117371, 63.7339286804, 63.1434669495, 36.6977920532, 36.6977920532, 36.6977920532, 36.6977920532,          -0.5,          -0.5,          -0.5,          -0.5, -0.0759425610304, -0.0173391904682, 2.76508545876, -0.0552295260131, 0.0102835893631,  1.0289452076, -1.0041924715, -0.170173957944
         0.44, 0.0102813160047, 0.0611999183893, 1.00599336624, 1.72461342812, -2.56583857536, -0.71836745739, 63.1628570557, 63.8922195435, 63.7293014526, 63.1584281921, 36.8819313049, 36.8819313049, 36.8819313049, 36.8819313049,          -0.5,          -0.5,          -0.5,          -0.5, -0.0709771737456, -0.0118699977174, 2.76472830772, -0.0530112534761, 0.00997168570757,  1.0381077528, -1.01684510708, -0.174041599035
        0.445, 0.0104146217927, 0.0642028227448,   1.006508708, 1.53448200226, -2.6105029583, -0.697516739368, 63.1553115845, 63.9118347168, 63.7244491577, 63.1747322083, 37.1191253662, 37.1191253662, 37.1191253662, 37.1191253662,          -0.5,          -0.5,          -0.5,          -0.5, -0.0652697458863, -0.00575369549915, 2.76436519623, -0.0506559573114, 0.00967780593783, 1.04632377625, -1.02971887589, -0.177817940712
         0.45, 0.0106010632589, 0.0671067908406, 1.00686943531, 1.34267306328, -2.65608382225, -0.67392963171, 63.1481666565, 63.9292488098, 63.7190666199, 63.1920433044, 37.4046554565, 37.4046554565, 37.4046554565, 37.4046554565,          -0.5,          -0.5,          -0.5,          -0.5, -0.0588537827134, 0.00095426797634, 2.76399874687, -0.0481679923832, 0.00939380191267, 1.05358374119, -1.04281997681, -0.181489035487
        0.455, 0.0108331041411, 0.0698961690068, 1.00710642338, 1.14954292774, -2.70213079453, -0.647735476494, 63.1414451599, 63.9444847107, 63.7128944397, 63.2099609375, 37.7336120605, 37.7336120605, 37.7336120605, 37.7336120605,          -0.5,          -0.5,          -0.5,          -0.5, -0.0517729483545, 0.00819172058254,   2.763630867, -0.0455523729324, 0.00911231245846, 1.05987977982, -1.05615222454, -0.18504139781
         0.46, 0.011094564572, 0.0725354626775, 1.00728881359, 0.955333650112, -2.7481303215, -0.619094133377, 63.1365966797, 63.9575119019, 63.7056922913,  63.228427887, 38.1010665894, 38.1010665894, 38.1010665894, 38.1010665894,          -0.5,          -0.5,          -0.5,          -0.5, -0.0440746471286, 0.015896236524, 2.76326298714, -0.0428151972592, 0.00882864184678, 1.06520593166, -1.06971693039, -0.188462227583
        0.465, 0.0114386072382, 0.0750542655587, 1.00773024559, 0.760784626007, -2.79302358627, -0.58839404583, 63.1325912476,  63.968082428, 63.6981620789, 63.2474479675, 38.5021286011, 38.5021286011, 38.5021286011, 38.5021286011,          -0.5,          -0.5,          -0.5,          -0.5, -0.0357845686376, 0.0240306165069, 2.76289844513, -0.0399631150067, 0.00855004508048, 1.06955766678, -1.08351182938, -0.191739916801
         0.47, 0.0118211014196, 0.0773999094963, 1.00798583031, 0.566224217415, -2.83628606796, -0.555930018425, 63.1272735596, 63.9773826599, 63.6904029846, 63.2668266296, 38.9315338135, 38.9315338135, 38.9315338135, 38.9315338135,          -0.5,          -0.5,          -0.5,          -0.5, -0.0269220881164, 0.0325672142208, 2.76253914833, -0.0370028503239, 0.00827699247748, 1.07293474674, -1.09752988815, -0.194864660501
        0.475, 0.0122366519645, 0.0795674026012, 1.00813961029, 0.371515929699, -2.87782287598, -0.521892309189,  63.120464325,  63.985408783, 63.6819229126, 63.2863044739, 39.3840446472, 39.3840446472, 39.3840446472, 39.3840446472,          -0.5,          -0.5,          -0.5,          -0.5, -0.0175295639783, 0.0414577238262, 2.76218748093, -0.0339425727725, 0.00800306349993, 1.07533633709, -1.11176288128, -0.197827771306
         0.48, 0.0126661602408, 0.0815509259701, 1.00824081898, 0.176637500525, -2.91742539406, -0.486484974623, 63.1134757996, 63.9915885925, 63.6724777222, 63.3057899475, 39.8546333313, 39.8546333313, 39.8546333313, 39.8546333313,          -0.5,          -0.5,          -0.5,          -0.5, -0.00765329319984, 0.050652064383, 2.76184368134, -0.0307906698436, 0.00772512797266, 1.07676136494, -1.12620198727, -0.200621470809
        0.485, 0.0131111918017, 0.0832673981786, 1.00829207897, -0.0185245294124, -2.95479989052, -0.450037688017, 63.1075820923,  63.996181488, 63.6618919373, 63.3253173828, 40.3386688232, 40.3386688232, 40.3386688232, 40.3386688232,          -0.5,          -0.5,          -0.5,          -0.5, 0.00266477488913, 0.0601067133248, 2.76150870323, -0.0275572482497, 0.00744124362245, 1.07720863819, -1.14083695412, -0.203239172697
         0.49, 0.0135905174538, 0.0847745910287, 1.00834214687, -0.214148595929, -2.98970532417, -0.412995874882, 63.1028366089, 63.9994926453, 63.6500968933,  63.344833374, 40.8318939209, 40.8318939209, 40.8318939209, 40.8318939209,          -0.5,          -0.5,          -0.5,          -0.5, 0.0134103586897, 0.0698082819581, 2.76118350029, -0.0242541600019, 0.00715103885159, 1.07667589188, -1.15565621853, -0.205676436424
        0.495, 0.014105184935, 0.0860829651356, 1.00833952427, -0.410156160593, -3.02197599411, -0.375630617142, 63.0981712341, 64.0014572144, 63.6371574402, 63.3641052246,  41.330116272,  41.330116272,  41.330116272,  41.330116272,          -0.5,          -0.5,          -0.5,          -0.5, 0.0245718006045, 0.0797469839454, 2.76086974144, -0.0208901055157, 0.00685494113714, 1.07516109943, -1.1706469059, -0.207930445671
          0.5, 0.0146213285625, 0.0871717482805, 1.00800812244, -0.606979608536, -3.05197668076, -0.338123321533, 63.0930595398,  64.001953125, 63.6224784851, 63.3829269409, 41.8292503357, 41.8292503357, 41.8292503357, 41.8292503357,          -0.5,          -0.5,          -0.5,          -0.5, 0.0361197851598, 0.0898958742619, 2.76056814194, -0.0174750033766, 0.00654310500249, 1.07266116142, -1.18579649925, -0.209999620914
        0.505, 0.0151421576738, 0.0880836248398, 1.00766587257, -0.804307460785, -3.08001852036, -0.300734966993, 63.0878715515, 64.0011520386, 63.6061897278, 63.4007797241, 42.3256263733, 42.3256263733, 42.3256263733, 42.3256263733,          -0.5,          -0.5,          -0.5,          -0.5, 0.0480131395161, 0.100216425955, 2.76027870178, -0.0140172587708, 0.00620643701404, 1.06917238235, -1.2010948658, -0.211883336306
         0.51, 0.0156753286719, 0.0888030678034, 1.00740516186, -1.00202691555, -3.10574626923, -0.263703435659, 63.0833053589, 63.9990463257, 63.5888938904, 63.4179191589,  42.815990448,  42.815990448,  42.815990448,  42.815990448,          -0.5,          -0.5,          -0.5,          -0.5, 0.0602054782212, 0.110665567219, 2.76000165939, -0.0105251669884, 0.00584918959066, 1.06469249725, -1.21653139591, -0.213582366705
        0.515, 0.0162243098021, 0.0893153399229, 1.00714445114, -1.20016157627, -3.12891364098, -0.227238938212, 63.0797157288, 63.9954376221, 63.5710334778, 63.4345054626,   43.29737854,   43.29737854,   43.29737854,   43.29737854,          -0.5,          -0.5,          -0.5,          -0.5, 0.0726480185986, 0.121198639274, 2.75973773003, -0.00700727663934, 0.00547402584925, 1.05921959877, -1.23209381104, -0.215098470449
         0.52, 0.0167793836445, 0.0895993560553, 1.00681304932, -1.39882600307, -3.14941740036, -0.191622003913, 63.0769119263, 63.9899902344,  63.552898407,  63.450504303, 43.7670211792, 43.7670211792, 43.7670211792, 43.7670211792,          -0.5,          -0.5,          -0.5,          -0.5, 0.0853060930967, 0.131785914302, 2.75948739052, -0.00347372959368, 0.00507997674868, 1.05275130272, -1.24776887894, -0.216434642673
        0.525, 0.0173320546746, 0.0896894112229, 1.00636219978, -1.59819078445, -3.16740131378, -0.157052382827, 63.0744781494, 63.9833984375, 63.5345802307, 63.4659156799, 44.2224311829, 44.2224311829, 44.2224311829, 44.2224311829,          -0.5,          -0.5,          -0.5,          -0.5, 0.0981748923659, 0.142428308725, 2.75925064087, 6.63704850012e-05, 0.00466240430251, 1.04528450966, -1.26354336739, -0.217595130205
         0.53, 0.0178973823786, 0.0896136462688, 1.00571334362, -1.79815661907, -3.18286514282, -0.123668238521, 63.0722236633, 63.9759216309, 63.5163116455, 63.4808006287, 44.6614646912, 44.6614646912, 44.6614646912, 44.6614646912,          -0.5,          -0.5,          -0.5,          -0.5, 0.111242823303, 0.153120785952, 2.75902748108, 0.00360529194586, 0.00421600695699, 1.03681576252, -1.27940487862, -0.218585014343
        0.535, 0.018461259082, 0.0893692299724, 1.00495016575, -1.99825358391, -3.19547343254, -0.091546908021, 63.0703163147, 63.9678993225, 63.4982833862,  63.495174408, 45.0821647644, 45.0821647644, 45.0821647644, 45.0821647644,          -0.5,          -0.5,          -0.5,          -0.5, 0.124487690628, 0.163853481412, 2.75881838799, 0.0071362699382, 0.00373084121384, 1.02734327316, -1.29533970356, -0.21940985322
         0.54, 0.0190194807947, 0.08895496279, 1.00415658951, -2.1985206604, -3.20550870895, -0.0608063340187, 63.0690917969, 63.9593658447, 63.4805679321, 63.5090408325,  45.482837677,  45.482837677,  45.482837677,  45.482837677,          -0.5,          -0.5,          -0.5,          -0.5, 0.137880310416, 0.174611613154, 2.75862288475, 0.0106520466506, 0.00320586538874, 1.01686656475, -1.31133389473, -0.220075726509
        0.545, 0.0195824746042, 0.0883776023984, 1.00336229801, -2.39896798134, -3.21324419975, -0.0315366759896, 63.0687599182, 63.9500198364, 63.4631958008,  63.522354126, 45.8621025085, 45.8621025085, 45.8621025085, 45.8621025085,          -0.5,          -0.5,          -0.5,          -0.5, 0.151390165091, 0.185376390815, 2.75844097137, 0.0141457710415, 0.00263978284784, 1.00538480282, -1.32737517357, -0.220589235425
         0.55, 0.0201693102717, 0.087632983923, 1.00275552273, -2.60007953644, -3.21819043159, -0.00376830436289,  63.069393158, 63.9393577576, 63.4462852478, 63.5359268188, 46.2186813354, 46.2186813354, 46.2186813354, 46.2186813354,          -0.5,          -0.5,          -0.5,          -0.5, 0.164985194802, 0.196126282215, 2.75827336311, 0.0176103916019, 0.00204071332701, 0.992896139622, -1.34345114231, -0.22095733881
        0.555, 0.0207523982972, 0.0867591947317, 1.00198364258, -2.80189323425, -3.2202501297, 0.0224504154176, 63.0709342957, 63.9271469116, 63.4298095703, 63.5499343872,   46.55128479,   46.55128479,   46.55128479,   46.55128479,          -0.5,          -0.5,          -0.5,          -0.5, 0.178629651666, 0.206837296486, 2.75812077522, 0.0210400018841, 0.00140804552939, 0.979396820068, -1.35954678059, -0.221187084913
         0.56, 0.0213327985257, 0.0857688933611, 1.00109732151, -3.00404286385, -3.21974802017, 0.0470790788531, 63.0732574463, 63.9134178162, 63.4135780334, 63.5639533997, 46.8588142395, 46.8588142395, 46.8588142395, 46.8588142395,          -0.5,          -0.5,          -0.5,          -0.5, 0.192284271121, 0.217481553555, 2.75798249245, 0.0244298614562, 0.000735700712539, 0.964884400368, -1.37564849854, -0.221285805106
        0.565, 0.0219109877944, 0.0846731588244, 1.00014221668, -3.20616436005, -3.21686697006, 0.0701014101505, 63.0763702393, 63.8982200623, 63.3974609375,  63.577545166, 47.1403388977, 47.1403388977, 47.1403388977, 47.1403388977,          -0.5,          -0.5,          -0.5,          -0.5, 0.205907508731, 0.22802811861, 2.75785899162, 0.0277758222073, 1.99058376893e-05, 0.949358224869, -1.39174377918, -0.221261024475
         0.57, 0.0224873498082, 0.0834816768765, 0.999156057835, -3.40790557861, -3.21168422699, 0.0915226712823, 63.0803451538, 63.8815917969, 63.3813896179, 63.5903244019, 47.3950920105, 47.3950920105, 47.3950920105, 47.3950920105,          -0.5,          -0.5,          -0.5,          -0.5, 0.219457611442, 0.238445326686, 2.75774979591, 0.0310742501169, -0.000741097435821, 0.932819366455, -1.40782058239, -0.221120283008
        0.575, 0.0230742227286, 0.0821846276522, 0.998395562172, -3.60912656784, -3.20402359962, 0.111384145916, 63.0851669312, 63.8635787964, 63.3653945923, 63.6023101807,  47.622428894,  47.622428894,  47.622428894,  47.622428894,          -0.5,          -0.5,          -0.5,          -0.5, 0.232894033194, 0.248702302575, 2.75765514374, 0.0343216620386, -0.00154388486408, 0.915270507336, -1.42386722565, -0.220871061087
         0.58, 0.0236708670855, 0.0808045640588, 0.997722566128, -3.81015753746, -3.19325566292, 0.129782453179, 63.0906143188,  63.844127655, 63.3493003845, 63.6143226624, 47.8217086792, 47.8217086792, 47.8217086792, 47.8217086792,          -0.5,          -0.5,          -0.5,          -0.5, 0.246177241206, 0.258769184351, 2.75757575035, 0.0375143364072, -0.00237558991648, 0.896713376045, -1.43986940384, -0.220520406961
        0.585, 0.024265954271, 0.0793630555272, 0.997016906738, -4.01055574417, -3.17945361137, 0.146738052368, 63.0964202881, 63.8233108521, 63.3327140808, 63.6260147095, 47.9922828674, 47.9922828674, 47.9922828674, 47.9922828674,          -0.5,          -0.5,          -0.5,          -0.5, 0.259269952774, 0.268618136644, 2.75751185417, 0.040650177747, -0.00323643628508, 0.877149939537, -1.45581126213, -0.220075085759
         0.59, 0.0248547177762, 0.0778671205044, 0.996303677559, -4.2098402977, -3.16270518303, 0.162279233336, 63.1023788452, 63.8013000488, 63.3157310486, 63.6369018555, 48.1335983276, 48.1335983276, 48.1335983276, 48.1335983276,          -0.5,          -0.5,          -0.5,          -0.5, 0.27213832736, 0.278224378824, 2.75746297836, 0.0437276028097, -0.00412659579888, 0.856584787369, -1.47167778015, -0.2195417732
        0.595, 0.025439819321, 0.0763215571642, 0.995603263378, -4.40757369995, -3.14306211472, 0.176446869969, 63.1084365845, 63.7782211304, 63.2984848022, 63.6464920044, 48.2452507019, 48.2452507019, 48.2452507019, 48.2452507019,          -0.5,          -0.5,          -0.5,          -0.5, 0.284752756357, 0.287567138672, 2.75742959976, 0.0467452965677, -0.00504514249042, 0.835024595261, -1.48745429516, -0.218926995993
          0.6, 0.0260210912675, 0.0747293829918, 0.994930684566, -4.60335969925, -3.12055540085, 0.189289405942, 63.1146125793, 63.7541618347, 63.2809181213, 63.6544075012, 48.3269386292, 48.3269386292, 48.3269386292, 48.3269386292,          -0.5,          -0.5,          -0.5,          -0.5, 0.297088652849, 0.29663041234, 2.75741100311, 0.0497021190822, -0.00599029799923, 0.812478303909, -1.5031260252, -0.218237116933
        0.605, 0.02659294568, 0.0730884298682, 0.994348049164, -4.79687261581, -3.09524178505, 0.200858905911, 63.1208992004, 63.7291641235, 63.2630348206, 63.6604766846, 48.3784484863, 48.3784484863, 48.3784484863, 48.3784484863,          -0.5,          -0.5,          -0.5,          -0.5, 0.309126377106, 0.305403143167, 2.75740718842, 0.0525969825685, -0.00695908116177, 0.788956701756, -1.51867890358, -0.217478230596
         0.61, 0.0271566230804, 0.0714024305344, 0.993837296963, -4.98797178268, -3.06735801697, 0.211197957397, 63.1272506714, 63.7029914856, 63.2449531555, 63.6647415161, 48.3997116089, 48.3997116089, 48.3997116089, 48.3997116089,          -0.5,          -0.5,          -0.5,          -0.5, 0.320852220058, 0.313878148794, 2.75741767883, 0.0554286390543, -0.00794531591237, 0.764471590519, -1.53409898281, -0.216656267643
        0.615, 0.0277134831995, 0.0696108862758, 0.993324160576, -5.1763792038, -3.03685617447, 0.22029876709, 63.1336097717, 63.6757049561, 63.2267227173, 63.6673126221, 48.3907661438, 48.3907661438, 48.3907661438, 48.3907661438,          -0.5,          -0.5,          -0.5,          -0.5, 0.332260608673, 0.322055518627, 2.75744247437, 0.0581947341561, -0.00894746277481, 0.739035844803, -1.54937362671, -0.215776994824
         0.62, 0.0282588489354,  0.0677786991, 0.992838025093, -5.36183547974, -3.00370001793, 0.228132873774, 63.1398887634, 63.6476974487, 63.2083435059, 63.6683044434, 48.3517494202, 48.3517494202, 48.3517494202, 48.3517494202,          -0.5,          -0.5,          -0.5,          -0.5, 0.343369543552, 0.329960823059, 2.75748133659, 0.060892585665, -0.00996425934136, 0.712663650513, -1.56448912621, -0.214846462011
        0.625, 0.0288004036993, 0.0659178346395, 0.992289066315, -5.54384946823, -2.96780610085, 0.234800368547, 63.1460151672, 63.6194534302,   63.18983078, 63.6678314209, 48.2828941345, 48.2828941345, 48.2828941345, 48.2828941345,          -0.5,          -0.5,          -0.5,          -0.5, 0.354197353125, 0.337621867657, 2.75753355026, 0.0635217577219, -0.010995965451, 0.685371041298, -1.57943212986, -0.213870540261
         0.63, 0.0293272677809, 0.0640212222934, 0.991815268993, -5.72198629379, -2.9292178154, 0.240395843983,  63.151966095, 63.5910758972, 63.1711730957, 63.6661224365, 48.1845016479, 48.1845016479, 48.1845016479, 48.1845016479,          -0.5,          -0.5,          -0.5,          -0.5, 0.364750981331, 0.345057994127, 2.75759935379, 0.0660817027092, -0.0120417773724, 0.657176494598, -1.59418869019, -0.212854549289
        0.635, 0.02983507514, 0.0620918646455, 0.991412758827, -5.8958325386, -2.88829731941, 0.245010122657, 63.1576347351, 63.5624771118, 63.1524391174, 63.6635322571, 48.0569839478, 48.0569839478, 48.0569839478, 48.0569839478,          -0.5,          -0.5,          -0.5,          -0.5, 0.375031232834, 0.352280527353,  2.7576777935, 0.0685718804598, -0.0130966939032, 0.628100633621,  -1.608746171, -0.21180345118
         0.64, 0.0303358677775, 0.0601351298392, 0.990869820118, -6.06498289108, -2.84521985054, 0.248719111085, 63.1631164551, 63.5336761475, 63.1337242126,   63.66040802, 47.9009132385, 47.9009132385, 47.9009132385, 47.9009132385,          -0.5,          -0.5,          -0.5,          -0.5, 0.385034531355, 0.359293311834, 2.75776839256, 0.0709915682673, -0.0141595974565, 0.598165869713, -1.62309336662, -0.210721820593
        0.645, 0.0308355782181, 0.058152679354, 0.990103423595, -6.22825288773, -2.79922676086, 0.251665741205, 63.1684494019, 63.5058517456, 63.1149024963, 63.6568145752, 47.7168731689, 47.7168731689, 47.7168731689, 47.7168731689,          -0.5,          -0.5,          -0.5,          -0.5, 0.394747316837, 0.366096377373, 2.75787115097, 0.0733409151435, -0.0152451414615, 0.567398548126, -1.63721776009, -0.209613710642
         0.65, 0.0313001051545, 0.056112062186, 0.989474952221, -6.38543319702, -2.75069451332, 0.253866404295, 63.1737709045, 63.4792976379, 63.0958557129,  63.652797699, 47.5054168701, 47.5054168701, 47.5054168701, 47.5054168701,          -0.5,          -0.5,          -0.5,          -0.5, 0.40414494276, 0.372685015202, 2.75798559189, 0.0756184607744, -0.0163505841047, 0.535829246044, -1.65110504627, -0.208482757211
        0.655, 0.031772620976, 0.0540178641677, 0.988879799843, -6.53643083572, -2.70012784004, 0.255316227674, 63.1791343689, 63.4535598755, 63.0767860413, 63.6484069824, 47.2673339844, 47.2673339844, 47.2673339844, 47.2673339844,          -0.5,          -0.5,          -0.5,          -0.5, 0.413207530975, 0.37905189395, 2.75811100006, 0.0778223574162, -0.0174714364111, 0.503488540649, -1.6647439003, -0.20733268559
         0.66, 0.0322374626994, 0.0518736690283,  0.9882594347, -6.68094348907, -2.64780831337, 0.256048321724, 63.1844367981, 63.4263420105,  63.057888031, 63.6437492371,  47.003276825,  47.003276825,  47.003276825,  47.003276825,          -0.5,          -0.5,          -0.5,          -0.5, 0.421927422285, 0.385196715593, 2.75824761391, 0.0799509212375, -0.0186072271317, 0.470408201218, -1.67812490463, -0.206167161465
        0.665, 0.0326603539288, 0.049665171653, 0.987803280354, -6.81867742538, -2.59399104118, 0.256047487259,  63.189666748, 63.3981552124, 63.0391807556, 63.6390075684, 46.7138633728, 46.7138633728, 46.7138633728, 46.7138633728,          -0.5,          -0.5,          -0.5,          -0.5, 0.430303275585, 0.391122400761, 2.75839495659, 0.0820024088025, -0.0197575874627, 0.436621636152, -1.69123959541, -0.204989865422
         0.67, 0.0330636017025, 0.0473970100284, 0.987505733967, -6.95017385483, -2.5398542881, 0.255221962929, 63.1950149536, 63.3679008484, 63.0208740234, 63.6343574524, 46.4000396729, 46.4000396729, 46.4000396729, 46.4000396729,          -0.5,          -0.5,          -0.5,          -0.5, 0.438338398933, 0.396825909615, 2.75855088234, 0.0839740410447, -0.020907279104, 0.402161628008, -1.70408320427, -0.203804835677
        0.675, 0.0334628485143, 0.0450993925333, 0.987038135529, -7.07489490509, -2.48533177376, 0.253625929356, 63.2006149292, 63.3350524902, 63.0032043457, 63.6294822693,  46.062828064,  46.062828064,  46.062828064,  46.062828064,          -0.5,          -0.5,          -0.5,          -0.5, 0.446046501398, 0.402305752039, 2.75871562958, 0.0858647078276, -0.0220607295632, 0.367060363293, -1.71665477753, -0.202616244555
         0.68, 0.0338440835476, 0.042771153152, 0.986458420753, -7.19217443466, -2.43018817902, 0.251316726208, 63.2063941956, 63.3005638123, 62.9860458374, 63.6241874695, 45.7031707764, 45.7031707764, 45.7031707764, 45.7031707764,          -0.5,          -0.5,          -0.5,          -0.5, 0.453433871269, 0.407558828592, 2.75888872147, 0.0876736789942, -0.0232247598469, 0.331353574991, -1.72895133495, -0.201427996159
        0.685, 0.0341596864164, 0.0404312759638, 0.986632406712, -7.30162191391, -2.3751437664, 0.248347759247, 63.2118644714, 63.2649307251,  62.969379425, 63.6184577942, 45.3220825195, 45.3220825195, 45.3220825195, 45.3220825195,          -0.5,          -0.5,          -0.5,          -0.5, 0.460497528315, 0.412575542927, 2.75906872749, 0.0894002318382, -0.0243905950338, 0.295079737902, -1.74097037315, -0.200243741274
         0.69, 0.0344307646155, 0.0380733720958, 0.987012445927, -7.40259122849, -2.32274031639, 0.244882747531, 63.2155609131, 63.2272071838, 62.9538993835,   63.61277771, 44.9210853577, 44.9210853577, 44.9210853577, 44.9210853577,          -0.5,          -0.5,          -0.5,          -0.5, 0.467247933149, 0.417330235243, 2.75925254822, 0.0910450294614, -0.0255198758096, 0.258279532194, -1.75271987915, -0.199066653848
