Time,AxG_S1,AyG_S1,AzG_S1,AVx_S1,AVy_S1,AVz_S1,AVy_L1,AVy_R1,AVy_L2,AVy_R2,My_Dr_L1,My_Dr_R1,My_Dr_L2,My_Dr_R2,My_Bk_L1,My_Bk_R1,My_Bk_L2,My_Bk_R2,StrK_L1,StrK_R1,sv_vx,sv_vy,sv_vz,Roll_E,Pitch,Yaw
            0, 0.000796855776571, -1.68628853559e-18, 0.999469280243,             0,             0,             0,             0,             0,             0,             0,             0,             0,             0,             0,           0.5,           0.5,           0.5,           0.5, -9.87841267488e-05, 9.87841267488e-05,             0,             0,             0,             0, -0.0446785651147,             0
        0.005, 0.014033857733, -5.34792738736e-19, 0.999535381794, -9.8575154957e-18, -0.0202845130116, 4.67743670311e-18, 0.811746358871, 0.811746358871, 0.808314681053, 0.808314681053, 185.969329834, 185.969329834, 185.969329834, 185.969329834,          -0.5,          -0.5,          -0.5,          -0.5, -0.000117707648315, 0.000117707648315, 0.000108469161205, -9.85310016068e-20, -1.83516422112e-05, 3.88173824863e-20, -0.0447021573782, 2.34411724955e-20
         0.01, 0.123911336064, -0.000100479112007, 0.998185515404, 4.11805413023e-05, -0.139301136136, 0.00264604762197, 2.83138537407, 2.72590041161, 2.74309110641,  2.6587433815, 385.234741211, 385.234741211, 385.234741211, 385.234741211,          -0.5,          -0.5,          -0.5,          -0.5, -0.000204004943953, 0.000268593343208, 0.0029639408458, -1.00342379028e-06, -7.0391666668e-05, 2.42524578198e-08, -0.0450411587954, 1.718114504e-06
        0.015, 0.250387281179, -0.00057805958204, 0.996911585331, 0.00120575609617, -0.408838838339, 0.0576250851154, 5.12377929688,   2.962931633, 4.61180830002, 2.64930009842, 553.395751953, 553.395751953, 553.395751953, 553.395751953,          -0.5,          -0.5,          -0.5,          -0.5, 0.00246466742828, 0.00338513660245, 0.012561539188, -1.77431611519e-05, -0.000195080705453, 2.03439230972e-06, -0.0463498272002, 0.000110033259261
         0.02, 0.261960566044, -0.000751681625843, 0.99648809433, 0.00457299919799, -0.761753499508, 0.185712248087, 8.99223995209, 2.31151986122, 7.76838779449, 1.18775486946, 658.936523438, 658.936523438, 658.936523438, 658.936523438,          -0.5,          -0.5,          -0.5,          -0.5, 0.0186197739094, 0.0201063957065, 0.0253116749227, -5.22391746927e-05, -0.000359241501428, 1.52522188728e-05, -0.0492610000074, 0.00070135621354
        0.025, 0.247928857803, -0.000497092900332, 0.996342718601, 0.00918891467154, -1.13321006298, 0.323642581701, 13.9570703506, 2.39808988571, 12.1372346878, 0.582632362843, 723.325683594, 723.325683594, 723.325683594, 723.325683594,          -0.5,          -0.5,          -0.5,          -0.5, 0.0510034188628, 0.0530785396695, 0.0378799252212, -8.53230594657e-05, -0.00053927663248, 4.80542003061e-05, -0.0539969243109, 0.00198145629838
         0.03, 0.231246247888, -0.000101929603261, 0.99643445015, 0.0149744851515, -1.49623227119, 0.438573151827,  19.518535614, 3.16262531281, 17.0269908905,  2.0309817791, 764.294921875, 764.294921875, 764.294921875, 764.294921875,          -0.5,          -0.5,          -0.5,          -0.5, 0.0944301486015, 0.0969804078341, 0.0494781397283, -0.000100999153801, -0.000721769523807, 0.000105944709503, -0.0605768412352, 0.00389639823698
        0.035, 0.248437717557, 3.14360986522e-05, 0.996481180191, 0.0223660636693, -1.85058045387, 0.552637338638, 25.4865589142, 4.36544132233, 22.2331924438,  3.7657430172, 791.446411133, 791.446411133, 791.446411133, 791.446411133,          -0.5,          -0.5,          -0.5,          -0.5, 0.142938926816, 0.145684987307, 0.0610798373818, -0.000104442777229, -0.000901686027646, 0.000195737840841, -0.0689451545477, 0.00636568246409
         0.04, 0.265289515257, 0.000108193395135, 0.994234383106, 0.0315719917417, -2.19405055046,  0.6893876791, 31.7337226868,  5.9006729126, 27.6157836914, 3.93940782547, 807.149414062, 807.149414062, 807.149414062, 807.149414062,          -0.5,          -0.5,          -0.5,          -0.5, 0.190970614552, 0.193460568786, 0.0737051442266, -0.00010559605289, -0.0011320814956, 0.000326208944898, -0.0790662243962, 0.0094629181549
        0.045, 0.265281289816, 0.000539157714229, 0.992170274258, 0.041822258383, -2.50716948509, 0.833039879799, 38.1465110779, 7.83840608597, 33.0500717163, 3.36807203293, 812.962890625, 812.962890625, 812.962890625, 812.962890625,          -0.5,          -0.5,          -0.5,          -0.5, 0.233267888427, 0.234967797995, 0.0866932347417, -9.73336573225e-05, -0.00149617344141, 0.00050360680325, -0.0908362567425, 0.013270017691
         0.05, 0.253268033266, 0.00165049580391, 0.992864370346, 0.0536505617201, -2.77990317345, 0.96713155508, 44.6284980774, 10.2301683426,  38.442073822, 2.92407894135, 811.614501953, 811.614501953, 811.614501953, 811.614501953,          -0.5,          -0.5,          -0.5,          -0.5, 0.265169739723, 0.265473484993, 0.0993803143501, -5.46597766515e-05, -0.00188078009523, 0.000733419670723, -0.104073338211, 0.0177776776254
        0.055, 0.23337058723, 0.00322892842814, 0.995244920254, 0.068376518786, -3.0039563179, 1.07738852501, 51.1154670715,  13.064786911, 43.7323989868, 3.43074035645,  806.12310791,  806.12310791,  806.12310791,  806.12310791,          -0.5,          -0.5,          -0.5,          -0.5, 0.283245563507, 0.281418144703, 0.111208118498, 5.40727633052e-05, -0.00221425667405, 0.00102725531906, -0.118554443121, 0.0229012332857
         0.06, 0.231122121215, 0.00455828942358, 0.998302876949, 0.0863921493292, -3.18369460106, 1.16830778122, 57.5720596313, 16.1848621368, 48.8980445862, 4.64389228821, 799.085327148, 799.085327148, 799.085327148, 799.085327148,          -0.5,          -0.5,          -0.5,          -0.5, 0.285843849182, 0.280993491411, 0.12238048017, 0.000234601451666, -0.00239996635355,    0.00140044, -0.134040474892, 0.0285180006176
        0.065, 0.242934122682, 0.00541053432971,  1.0005710125, 0.10691177845, -3.33015060425, 1.26295125484, 63.9836997986, 19.3275089264, 53.9359855652, 5.21083545685, 791.246032715, 791.246032715, 791.246032715, 791.246032715,          -0.5,          -0.5,          -0.5,          -0.5, 0.273755520582, 0.264845222235, 0.133854046464, 0.000465233111754, -0.00246110232547, 0.00186781072989, -0.150338366628, 0.034591011703
         0.07, 0.248009562492, 0.00655681779608, 1.00240910053, 0.129217654467, -3.44501519203, 1.36591565609, 70.3343505859, 22.4536514282, 58.8432884216, 4.84317541122, 782.245361328, 782.245361328, 782.245361328, 782.245361328,          -0.5,          -0.5,          -0.5,          -0.5, 0.249280750751, 0.235203102231, 0.145817697048, 0.000736710964702, -0.00242823502049, 0.00243899039924, -0.167292058468, 0.0411619283259
        0.075, 0.23930311203, 0.00873979460448, 1.00431275368, 0.154883235693, -3.52053546906, 1.46104443073, 76.6031799316, 25.5249214172, 63.6139678955, 4.58085727692, 772.200622559, 772.200622559, 772.200622559, 772.200622559,          -0.5,          -0.5,          -0.5,          -0.5, 0.215446174145, 0.195120185614, 0.157664448023, 0.00108713051304, -0.00230975542217, 0.00312549853697, -0.184724986553, 0.0482361502945
         0.08, 0.229031965137, 0.0110961692408, 1.00584053993, 0.185545563698, -3.5540792942, 1.53633952141, 82.7743301392,  28.508934021, 68.2473449707, 5.17265129089, 761.952453613, 761.952453613, 761.952453613, 761.952453613,          -0.5,          -0.5,          -0.5,          -0.5, 0.175726518035, 0.148180305958, 0.168960884213, 0.0015513964463, -0.00210865330882, 0.00394907034934, -0.202429443598, 0.0557372309268
        0.085, 0.233927160501, 0.012712652795,   1.006914258, 0.220309406519, -3.55499720573,  1.6006077528, 88.8427047729, 31.3861446381, 72.7520828247, 6.06085729599, 752.200866699, 752.200866699, 752.200866699, 752.200866699,          -0.5,          -0.5,          -0.5,          -0.5, 0.133547380567, 0.0979761183262, 0.180053725839, 0.00211093924008, -0.00184847321361, 0.00493336468935, -0.220213264227, 0.0635782629251
         0.09, 0.243261143565, 0.0138492723927,  1.0078920126, 0.257555574179, -3.53695821762,  1.6704428196, 94.8073883057, 34.1442184448, 77.1399536133, 6.18473100662, 742.786621094, 742.786621094, 742.786621094, 742.786621094,          -0.5,          -0.5,          -0.5,          -0.5, 0.0918151587248, 0.0476076751947, 0.191587805748, 0.00273087224923, -0.00154311396182, 0.00609453441575, -0.237951338291, 0.0717516094446
        0.095, 0.243165358901, 0.0157565493137, 1.00914824009, 0.297422140837, -3.50098323822, 1.74059426785, 100.664077759,  36.770942688, 81.4175796509,  5.9132642746, 733.353637695, 733.353637695, 733.353637695, 733.353637695,          -0.5,          -0.5,          -0.5,          -0.5, 0.0528026744723, -0.000438402435975, 0.203350663185, 0.00341640715487, -0.00118707004003, 0.00744356773794, -0.25555574894, 0.0802801400423
          0.1, 0.234543055296, 0.0183611456305, 1.01056110859, 0.342325717211, -3.44431853294, 1.79749977589, 106.408317566, 39.2579650879,  85.588973999, 6.05504465103, 724.028564453, 724.028564453, 724.028564453, 724.028564453,          -0.5,          -0.5,          -0.5,          -0.5, 0.0182082485408, -0.0442332178354, 0.214862436056, 0.00421415269375, -0.000766475568525, 0.00899963080883, -0.27292957902, 0.0891310945153
        0.105, 0.232419595122, 0.0204070787877,  1.0118035078, 0.392332017422, -3.37016224861, 1.83858752251, 112.042823792, 41.6075592041, 89.6622695923,  6.7980260849, 715.906555176, 715.906555176, 715.906555176, 715.906555176,          -0.5,          -0.5,          -0.5,          -0.5, -0.0109074404463, -0.0824921131134, 0.226009577513, 0.00512544810772, -0.000282271998003, 0.010789715685, -0.289972424507, 0.0982225313783
         0.11, 0.241151481867, 0.0216415394098, 1.01289331913, 0.445499747992, -3.29114627838, 1.87903118134, 117.595985413, 43.8506660461, 93.6688537598,  7.2256102562, 711.282043457, 711.282043457, 711.282043457, 711.282043457,          -0.5,          -0.5,          -0.5,          -0.5, -0.034270670265, -0.114758521318, 0.237345650792, 0.00611015735194, 0.000256444473052, 0.0128349540755, -0.306627303362, 0.107510596514
        0.115, 0.244064584374, 0.0230731219053, 1.01403665543, 0.500835120678, -3.21287298203, 1.92331409454, 123.105499268, 46.0295944214, 97.6473464966, 7.11811447144, 709.518737793, 709.518737793, 709.518737793, 709.518737793,          -0.5,          -0.5,          -0.5,          -0.5, -0.0523617379367, -0.14138302207, 0.249012082815, 0.00715047260746, 0.000847595278174, 0.0151475155726, -0.322890013456, 0.117013148963
         0.12, 0.239063203335, 0.0253077745438, 1.01517367363, 0.55980861187, -3.13212251663, 1.96066749096, 128.602111816, 48.1812477112, 101.627433777, 7.16160774231,  710.16418457,  710.16418457,  710.16418457,  710.16418457,          -0.5,          -0.5,          -0.5,          -0.5, -0.0661033689976, -0.163198232651, 0.260605126619, 0.00827850401402, 0.00149473710917, 0.0177410747856, -0.338757008314, 0.126724004745
        0.125, 0.235683783889, 0.0272523704916, 1.01589560509, 0.622943282127, -3.04825210571, 1.98568964005, 134.116073608, 50.3426856995, 105.636329651, 7.72156953812, 713.320373535, 713.320373535, 713.320373535, 713.320373535,          -0.5,          -0.5,          -0.5,          -0.5, -0.0766505748034, -0.181308180094, 0.271909356117, 0.00950834527612, 0.00218745158054, 0.0206367466599, -0.354211479425, 0.136588945985
         0.13, 0.241303265095, 0.0283596515656, 1.01610803604, 0.688364267349, -2.96826696396, 2.00862932205, 139.680114746, 52.5533599854, 109.702522278, 8.21284294128,  718.99786377,  718.99786377,  718.99786377,  718.99786377,          -0.5,          -0.5,          -0.5,          -0.5, -0.0853540375829, -0.197063237429, 0.283276170492, 0.0108073400334, 0.00290119787678, 0.0238515250385, -0.369253277779, 0.146567195654
        0.135, 0.245201915503, 0.0291368272156, 1.01600372791, 0.753843545914, -2.89599514008, 2.03608417511, 145.324310303, 54.8489074707, 113.851455688, 8.31187152863,  726.73828125,  726.73828125,  726.73828125,  726.73828125,          -0.5,          -0.5,          -0.5,          -0.5, -0.0936929434538, -0.211994573474, 0.294901520014, 0.012142018415, 0.0036157912109, 0.0273908469826, -0.383915454149, 0.156671240926
         0.14, 0.243977636099, 0.0306664928794, 1.01567924023, 0.819707930088, -2.8283905983, 2.06281208992,   151.0730896, 57.2583045959, 118.103088379, 8.36414337158, 736.205749512, 736.205749512, 736.205749512, 736.205749512,          -0.5,          -0.5,          -0.5,          -0.5, -0.103028938174, -0.227545499802, 0.306583315134, 0.0135266128927, 0.00431895861402, 0.0312542431056, -0.398230582476, 0.166913494468
        0.145, 0.241348654032, 0.0323608443141, 1.01492357254, 0.887169122696, -2.76227426529, 2.08303618431, 156.948547363, 59.8068618774, 122.475311279,  8.7003660202, 747.427062988, 747.427062988, 747.427062988, 747.427062988,          -0.5,          -0.5,          -0.5,          -0.5, -0.114434540272, -0.244880199432, 0.318129837513, 0.0149889523163, 0.00499562220648, 0.035447511822, -0.412212729454, 0.177273198962
         0.15, 0.242867365479, 0.0332598276436, 1.01360654831, 0.954995453358, -2.69879603386, 2.09978532791, 162.973556519, 62.5189476013, 126.987174988,  9.1930065155, 760.528076172, 760.528076172, 760.528076172, 760.528076172,          -0.5,          -0.5,          -0.5,          -0.5, -0.128679350019, -0.26486441493, 0.329624563456, 0.0165109932423, 0.0056203645654, 0.0399769209325, -0.425870388746, 0.18772135675
        0.155, 0.247653096914, 0.0335491336882,   1.011890769, 1.02066981792, -2.64078116417, 2.12025547028, 169.170501709, 65.4168548584, 131.658065796, 9.49873924255, 775.393310547, 775.393310547, 775.393310547, 775.393310547,          -0.5,          -0.5,          -0.5,          -0.5, -0.146280094981, -0.288112431765, 0.341282337904, 0.0180519465357, 0.00616820342839, 0.0448378436267, -0.439224481583, 0.198259294033
         0.16, 0.250053197145, 0.0340531803668, 1.01006448269,  1.0832901001, -2.58775472641, 2.14541363716, 175.557174683, 68.5171051025, 136.503921509, 9.59642887115, 791.193359375, 791.193359375, 791.193359375, 791.193359375,          -0.5,          -0.5,          -0.5,          -0.5, -0.167488351464, -0.314962625504, 0.353127270937, 0.0196018014103, 0.00662693521008, 0.0500161014497, -0.452303171158, 0.208911940455
        0.165, 0.248920693994, 0.0351585038006, 1.00827002525, 1.14392018318, -2.5358672142, 2.16957783699, 182.127792358, 71.8119125366, 141.518112183, 9.78852844238, 805.262329102, 805.262329102, 805.262329102, 805.262329102,          -0.5,          -0.5,          -0.5,          -0.5, -0.192239940166, -0.345414459705, 0.364979952574, 0.0211855079979, 0.00699583813548, 0.0554984137416, -0.465122431517, 0.219689562917
         0.17, 0.248901158571, 0.0359722822905, 1.00636696815, 1.20296192169, -2.48311090469, 2.19047617912, 188.860443115, 75.2770004272, 146.678741455, 10.1752223969, 817.561584473, 817.561584473, 817.561584473, 817.561584473,          -0.5,          -0.5,          -0.5,          -0.5, -0.220183879137, -0.379157483578, 0.376773148775, 0.0228127483279, 0.00727355433628, 0.0612770020962, -0.477681219578, 0.230578050017
        0.175, 0.251863986254, 0.036097291857,  1.0044054985, 1.25871324539, -2.43073010445, 2.21243047714, 195.735641479, 78.8899459839, 151.966766357, 10.5291404724, 828.302978516, 828.302978516, 828.302978516, 828.302978516,          -0.5,          -0.5,          -0.5,          -0.5, -0.25081422925, -0.415708810091, 0.388636440039, 0.0244539882988, 0.00745456619188, 0.0673402100801, -0.489977657795, 0.24157038331
         0.18, 0.254023641348, 0.0361183322966,  1.0026371479, 1.30988371372, -2.37883663177, 2.23762202263,  202.73487854, 82.6293106079, 157.365097046, 10.7493581772, 837.566101074, 837.566101074, 837.566101074, 837.566101074,          -0.5,          -0.5,          -0.5,          -0.5, -0.283570587635, -0.454514682293, 0.400625735521, 0.0260872524232, 0.00754217291251, 0.0736675485969, -0.502015411854, 0.252680063248
        0.185, 0.254738271236, 0.0364930704236, 1.00118088722, 1.35691738129, -2.32577967644, 2.26385092735, 209.840148926, 86.4743804932, 162.857757568, 10.9371356964, 845.445556641, 845.445556641, 845.445556641, 845.445556641,          -0.5,          -0.5,          -0.5,          -0.5, -0.317856818438, -0.49496614933, 0.412677407265, 0.027721086517, 0.00754984840751, 0.0802365019917, -0.513792932034, 0.263918578625
         0.19, 0.254643678665, 0.0370300225914, 0.999971210957, 1.40069067478, -2.2702562809, 2.28864336014, 217.034759521, 90.4061126709, 168.430328369,  11.192943573, 852.088867188, 852.088867188, 852.088867188, 852.088867188,          -0.5,          -0.5,          -0.5,          -0.5, -0.353076934814, -0.536436855793, 0.424728304148, 0.0293700713664, 0.00749194249511, 0.0870287939906, -0.5253008008, 0.275284409523
        0.195, 0.255209386349, 0.0373125597835, 0.998941421509, 1.44118964672, -2.21230149269,  2.3118994236,  224.30406189, 94.4078674316,   174.0703125, 11.5140581131,  857.65838623,  857.65838623,  857.65838623,  857.65838623,          -0.5,          -0.5,          -0.5,          -0.5, -0.388696938753, -0.578350663185, 0.436776489019, 0.0310313496739, 0.00737857678905, 0.0940286293626, -0.536526203156, 0.286768853664
          0.2, 0.256716310978, 0.0372339896858, 0.998069107533,  1.4776904583, -2.15282988548, 2.33543181419, 231.635406494, 98.4653625488,  179.76713562, 11.8151311874, 862.274047852, 862.274047852, 862.274047852, 862.274047852,          -0.5,          -0.5,          -0.5,          -0.5, -0.424305319786, -0.62024897337, 0.448868900537, 0.0326879695058, 0.00721853040159, 0.101218029857, -0.547459304333, 0.298368602991
        0.205, 0.258087575436, 0.0370823666453, 0.997396349907, 1.50957846642, -2.09248828888, 2.36030268669, 239.017471313, 102.566177368, 185.511169434,  12.050567627, 866.009521484, 866.009521484, 866.009521484, 866.009521484,          -0.5,          -0.5,          -0.5,          -0.5, -0.45963665843, -0.661819040775, 0.461028516293, 0.0343271456659, 0.00702003063634, 0.108575128019, -0.558094441891, 0.310088545084
         0.21, 0.258481621742, 0.0371789634228, 0.996950149536, 1.53727400303, -2.03099989891, 2.38538146019, 246.440093994, 106.699455261, 191.293609619, 12.2660131454, 868.936523438, 868.936523438, 868.936523438, 868.936523438,          -0.5,          -0.5,          -0.5,          -0.5, -0.494556546211, -0.702881395817, 0.473223745823, 0.0359547957778, 0.00679435767233, 0.116077467799, -0.568427026272, 0.321933418512
        0.215, 0.25832799077, 0.0373778194189, 0.996627569199,  1.5614528656, -1.96799814701, 2.40911126137, 253.894348145, 110.856086731, 197.106552124, 12.5242233276, 871.153625488, 871.153625488, 871.153625488, 871.153625488,          -0.5,          -0.5,          -0.5,          -0.5, -0.529036521912, -0.743367195129, 0.485412448645, 0.0375809893012, 0.00655061285943, 0.123705990613, -0.578450202942, 0.333900034428
         0.22, 0.258540034294, 0.0373720899224, 0.99631613493,   1.582067132, -1.90383756161, 2.43153810501, 261.372955322, 115.028823853, 202.943222046, 12.8215751648, 872.767150879, 872.767150879, 872.767150879, 872.767150879,          -0.5,          -0.5,          -0.5,          -0.5, -0.563144207001, -0.78331130743, 0.497591555119, 0.0392027832568, 0.0062920646742, 0.131443470716, -0.588157057762, 0.345981031656
        0.225, 0.259257256985, 0.0371209643781, 0.995991051197, 1.59848439693, -1.83928799629, 2.45390892029,  268.87008667, 119.211982727, 208.797927856, 13.1053218842,  873.85925293,  873.85925293,  873.85925293,  873.85925293,          -0.5,          -0.5,          -0.5,          -0.5, -0.597035825253, -0.822847664356, 0.509787321091, 0.0408073291183, 0.00601837877184, 0.139270663261, -0.597543716431, 0.358172953129
         0.23, 0.259742289782, 0.0369252599776, 0.995702207088, 1.61044597626, -1.77471590042,  2.4768807888, 276.380706787, 123.400848389, 214.665679932, 13.3520011902, 874.486877441, 874.486877441, 874.486877441, 874.486877441,          -0.5,          -0.5,          -0.5,          -0.5, -0.630931615829, -0.862185001373, 0.522008895874, 0.0423890948296, 0.00573019729927, 0.147165551782, -0.606609582901, 0.370477795601
        0.235, 0.259551107883, 0.0369260124862, 0.995466589928, 1.61846399307, -1.7098814249, 2.49975156784,  283.90045166, 127.591293335, 220.542114258, 13.5991020203, 874.708251953, 874.708251953, 874.708251953, 874.708251953,          -0.5,          -0.5,          -0.5,          -0.5, -0.665077328682, -0.90156763792, 0.534229874611, 0.0439558438957, 0.00543037243187, 0.155106976628, -0.615354061127, 0.38289731741
         0.24, 0.259180217981, 0.0369479879737, 0.995158791542, 1.62294173241, -1.64457273483, 2.52188920975, 291.425598145, 131.779953003, 226.423446655, 13.8794326782, 874.595825195, 874.595825195, 874.595825195, 874.595825195,          -0.5,          -0.5,          -0.5,          -0.5, -0.699709534645, -0.941238820553, 0.54642701149, 0.0455136299133, 0.00511872023344, 0.163076519966, -0.623775184155, 0.395429134369
        0.245, 0.25917840004, 0.0368027277291, 0.994707405567, 1.62360596657, -1.57905721664,    2.54383111, 298.953338623, 135.964080811, 232.306564331, 14.1762485504, 874.218994141, 874.218994141, 874.218994141, 874.218994141,          -0.5,          -0.5,          -0.5,          -0.5, -0.735040962696, -0.981423735619, 0.55860710144, 0.0470581762493, 0.00478960480541, 0.171056166291, -0.631871163845, 0.408070474863
         0.25, 0.259425729513, 0.0365330725908, 0.994172692299, 1.61999332905, -1.51369214058, 2.56653761864, 306.481384277, 140.141372681,  238.18901062, 14.4547901154, 873.627746582, 873.627746582, 873.627746582, 873.627746582,          -0.5,          -0.5,          -0.5,          -0.5, -0.771253705025, -1.02232015133, 0.570788681507, 0.0485812611878, 0.00443752342835, 0.179025575519, -0.639641940594, 0.420823037624
        0.255, 0.259454935789, 0.0362941846251, 0.993595182896, 1.61200404167, -1.44845223427,  2.5902068615, 314.007598877, 144.309631348, 244.068893433, 14.7112779617, 872.858276367, 872.858276367, 872.858276367, 872.858276367,          -0.5,          -0.5,          -0.5,          -0.5, -0.808485805988, -1.06408262253, 0.58297264576, 0.0500805564225, 0.00405958900228, 0.186962947249, -0.64708840847, 0.433691680431
         0.26, 0.259132117033, 0.0361162126064, 0.992980122566, 1.59986174107, -1.3830589056, 2.61430907249, 321.530059814, 148.466705322, 249.944610596, 14.9718399048, 871.948608398, 871.948608398, 871.948608398, 871.948608398,          -0.5,          -0.5,          -0.5,          -0.5, -0.846817612648, -1.10680520535, 0.595142841339, 0.0515592806041, 0.00365423387848, 0.194846883416, -0.654210627079, 0.44668006897
        0.265, 0.258814573288, 0.035878777504, 0.992310702801, 1.58363258839, -1.31743860245,  2.6386077404, 329.047088623, 152.610717773, 255.814956665, 15.2519798279, 870.942077637, 870.942077637, 870.942077637, 870.942077637,          -0.5,          -0.5,          -0.5,          -0.5, -0.886270344257, -1.15051949024, 0.607289791107, 0.053017385304, 0.00321926176548, 0.202656969428, -0.661007463932, 0.459789603949
         0.27, 0.25877314806, 0.0355238653719, 0.991599678993, 1.56315290928, -1.25185596943, 2.66351222992, 336.557373047, 156.739944458, 261.679107666, 15.5373353958, 869.875915527, 869.875915527, 869.875915527, 869.875915527,          -0.5,          -0.5,          -0.5,          -0.5, -0.926818549633, -1.1952060461, 0.619422495365, 0.0544502064586, 0.00275238952599, 0.210372418165, -0.667478322983, 0.473022162914
        0.275, 0.258846014738, 0.0350992977619, 0.990885138512, 1.53826022148, -1.18662977219, 2.68949818611, 344.059753418, 160.852935791, 267.536529541, 15.8099451065, 868.774963379, 868.774963379, 868.774963379, 868.774963379,          -0.5,          -0.5,          -0.5,          -0.5, -0.968403458595, -1.24080789089, 0.631552219391, 0.0558527074754, 0.00225259107538, 0.217971533537, -0.67362433672, 0.486382216215
         0.28, 0.25876519084, 0.034685458988, 0.990201473236, 1.50902330875, -1.1218893528, 2.71654558182, 351.553253174, 164.948379517, 273.386932373, 16.0737724304, 867.657165527, 867.657165527, 867.657165527, 867.657165527,          -0.5,          -0.5,          -0.5,          -0.5, -1.0109411478, -1.28723871708, 0.643677771091, 0.0572235994041, 0.00172077887692, 0.225432261825, -0.679447650909, 0.499875426292
        0.285, 0.258547484875, 0.0342616476119, 0.989721238613, 1.47545397282, -1.05792462826, 2.74435019493, 359.037078857, 169.024932861, 279.230102539,  16.344291687, 866.541809082, 866.541809082, 866.541809082, 866.541809082,          -0.5,          -0.5,          -0.5,          -0.5, -1.05432903767, -1.33439040184, 0.655790746212, 0.0585633888841, 0.0011625996558, 0.232733145356, -0.684951245785, 0.513506472111
         0.29, 0.258423447609, 0.0337972976267, 0.98925447464, 1.43746423721, -0.995210886002, 2.77288389206,  366.51071167, 173.081344604, 285.066101074,  16.624546051, 865.449035645, 865.449035645, 865.449035645, 865.449035645,          -0.5,          -0.5,          -0.5,          -0.5, -1.09845328331, -1.38214683533, 0.667890250683, 0.0598707832396, 0.000584287801757, 0.239852055907, -0.69014030695, 0.527278900146
        0.295, 0.258455008268, 0.033282045275, 0.988807141781, 1.39522051811, -0.933977484703,  2.8024764061, 373.973846436, 177.116912842, 290.895019531, 16.9042396545, 864.393493652, 864.393493652, 864.393493652, 864.393493652,          -0.5,          -0.5,          -0.5,          -0.5, -1.14320647717, -1.43039631844, 0.679983973503, 0.0611433573067, -1.38994819281e-05, 0.246767356992, -0.695021748543, 0.541197180748
          0.3, 0.258499801159, 0.0327579267323, 0.988412201405,  1.3488984108, -0.874450266361, 2.83334732056, 381.426391602, 181.130996704, 296.717071533, 17.1776409149, 863.383483887, 863.383483887, 863.383483887, 863.383483887,          -0.5,          -0.5,          -0.5,          -0.5, -1.18849790096, -1.4790405035, 0.692076683044, 0.0623795948923, -0.000630100548733, 0.253458142281, -0.699603497982, 0.555267333984
        0.305, 0.258461773396, 0.032253395766, 0.988086640835, 1.29875361919, -0.816767156124, 2.86544632912, 388.868499756, 185.123138428, 302.532562256,  17.450510025, 862.425354004, 862.425354004, 862.425354004, 862.425354004,          -0.5,          -0.5,          -0.5,          -0.5, -1.23425483704, -1.52799773216, 0.704166173935, 0.0635800138116, -0.00126118294429, 0.259904623032, -0.703894495964, 0.569495797157
         0.31, 0.258408516645, 0.0317491032183, 0.987804412842, 1.24502265453, -0.761079609394, 2.89869832993, 396.300415039,  189.09312439, 308.341766357, 17.7290916443, 861.526184082, 861.526184082, 861.526184082, 861.526184082,          -0.5,          -0.5,          -0.5,          -0.5, -1.28042340279, -1.57720470428, 0.71624982357, 0.0647453665733, -0.00190386245959, 0.266088277102, -0.707904279232, 0.583888471127
        0.315, 0.258357435465, 0.0312169380486, 0.98755979538, 1.18774032593, -0.707687675953, 2.93318367004, 403.722686768, 193.041137695, 314.144866943,  18.013589859, 860.692260742, 860.692260742, 860.692260742, 860.692260742,          -0.5,          -0.5,          -0.5,          -0.5, -1.32697033882, -1.62662088871, 0.728328227997, 0.0658749490976, -0.0025571952574, 0.271991312504, -0.711643576622, 0.598451316357
         0.32, 0.258461236954, 0.0306532774121, 0.987436711788,  1.1269916296, -0.656687855721, 2.96907401085, 411.135894775, 196.967712402, 319.942382812, 18.2997760773, 859.928344727, 859.928344727, 859.928344727, 859.928344727,          -0.5,          -0.5,          -0.5,          -0.5, -1.37388443947, -1.67622900009, 0.740404725075, 0.0669672787189, -0.00321651506238, 0.277596116066, -0.715124189854, 0.613190948963
        0.325, 0.258547842503, 0.0301024671644, 0.987372457981, 1.06294631958, -0.608161747456, 3.00653147697, 418.540771484, 200.873687744, 325.734924316, 18.5794353485, 859.234619141, 859.234619141, 859.234619141, 859.234619141,          -0.5,          -0.5,          -0.5,          -0.5, -1.4211742878, -1.72603523731, 0.752484679222, 0.068021863699, -0.0038775508292, 0.28288564086, -0.718358278275, 0.628114819527
         0.33, 0.258505046368, 0.0295839719474, 0.987354397774, 0.99589407444, -0.562069296837, 3.04536271095, 425.938049316, 204.760223389, 331.523040771, 18.8613891602, 858.611206055, 858.611206055, 858.611206055, 858.611206055,          -0.5,          -0.5,          -0.5,          -0.5, -1.46886432171, -1.77606356144, 0.764563202858, 0.0690401941538, -0.00453770998865, 0.287844091654, -0.721358120441, 0.643230438232
        0.335, 0.25850263238, 0.0290607120842, 0.987433969975, 0.926051974297, -0.518411874771, 3.08544659615, 433.328552246, 208.628692627, 337.307189941, 19.1497058868, 858.060852051, 858.060852051, 858.060852051, 858.060852051,          -0.5,          -0.5,          -0.5,          -0.5, -1.51698827744, -1.82635045052, 0.776637911797, 0.0700233057141, -0.00519479764625, 0.292457014322, -0.724135816097, 0.658544242382
         0.34, 0.258573412895, 0.0285270735621, 0.987631797791, 0.85319930315, -0.477661371231, 3.12679958344, 440.713104248, 212.480117798,  343.08782959, 19.4373455048, 857.584533691, 857.584533691, 857.584533691, 857.584533691,          -0.5,          -0.5,          -0.5,          -0.5, -1.56558489799, -1.87694334984, 0.788712799549, 0.0709703490138, -0.00584060279652, 0.296709954739, -0.726704537868, 0.674062550068
        0.345, 0.258604943752, 0.0280317142606, 0.987769007683, 0.777658700943, -0.439637601376, 3.16939496994, 448.092529297, 216.316055298,  348.86541748, 19.7233829498,  857.18145752,  857.18145752,  857.18145752,  857.18145752,          -0.5,          -0.5,          -0.5,          -0.5, -1.6146928072, -1.92789590359, 0.800789058208, 0.0718824416399, -0.00647579273209, 0.300588339567, -0.729078710079, 0.689791619778
         0.35, 0.25860992074, 0.0275788716972, 0.987956643105, 0.699878931046, -0.404040366411, 3.21310949326, 455.467468262, 220.137954712, 354.640197754, 20.0127048492, 856.851196289, 856.851196289, 856.851196289, 856.851196289,          -0.5,          -0.5,          -0.5,          -0.5, -1.6643525362, -1.97925984859, 0.812864363194, 0.0727616623044, -0.00710197072476, 0.304079830647, -0.731271028519, 0.705737352371
        0.355, 0.258662670851, 0.0271673072129, 0.988320231438, 0.620715737343, -0.37127032876, 3.25799536705,  462.83795166,  223.94720459, 360.412597656, 20.3044090271,  856.59362793,  856.59362793,  856.59362793,  856.59362793,          -0.5,          -0.5,          -0.5,          -0.5, -1.71459984779, -2.03108429909, 0.824939608574, 0.0736106559634, -0.0077103744261, 0.307175159454, -0.733294308186, 0.721905350685
         0.36, 0.25874298811, 0.026760365814, 0.98861938715, 0.540457427502, -0.341208636761, 3.30401706696, 470.204437256, 227.745132446, 366.182891846, 20.5957069397, 856.407409668, 856.407409668, 856.407409668, 856.407409668,          -0.5,          -0.5,          -0.5,          -0.5, -1.76546239853, -2.08341622353, 0.83701723814, 0.0744303688407, -0.00830040406436, 0.309868454933, -0.735162675381, 0.738301455975
        0.365,  0.2588134408, 0.0263664238155, 0.98889708519, 0.459189891815, -0.31351852417, 3.35099244118, 477.567504883, 231.533111572, 371.951263428, 20.8879566193, 856.290405273, 856.290405273, 856.290405273, 856.290405273,          -0.5,          -0.5,          -0.5,          -0.5, -1.81696128845, -2.13629031181, 0.84909760952, 0.0752214491367, -0.00887410528958, 0.312154382467, -0.736888825893, 0.754930853844
         0.37, 0.258899778128, 0.0259867720306, 0.989160239697, 0.377138376236, -0.288023203611, 3.39873290062, 484.927490234, 235.312606812, 377.717987061, 21.1823654175,  856.24041748,  856.24041748,  856.24041748,  856.24041748,          -0.5,          -0.5,          -0.5,          -0.5, -1.86911141872, -2.18972921371, 0.861180782318, 0.0759847909212, -0.00943260267377, 0.314028322697, -0.738483965397, 0.771797776222
        0.375, 0.259012311697, 0.0256189741194, 0.989434659481, 0.294544786215, -0.264617413282, 3.44709730148, 492.284637451, 239.085174561, 383.483215332, 21.4780235291, 856.255065918, 856.255065918, 856.255065918, 856.255065918,          -0.5,          -0.5,          -0.5,          -0.5, -1.92192339897, -2.24374699593, 0.873268127441, 0.0767212435603, -0.0099755031988, 0.315486997366, -0.739958643913, 0.78890568018
         0.38, 0.259138196707, 0.0252705775201, 0.989730000496, 0.211584702134, -0.243294879794, 3.49596738815, 499.639068604, 242.852432251, 389.247039795,  21.774055481, 856.331359863, 856.331359863, 856.331359863, 856.331359863,          -0.5,          -0.5,          -0.5,          -0.5, -1.9754049778, -2.29835295677, 0.885360717773, 0.0774317085743, -0.010502891615, 0.316528111696, -0.741323232651, 0.806257367134
        0.385, 0.259262233973, 0.0249519720674, 0.990078628063, 0.128612861037, -0.22395889461,  3.5451965332, 506.990966797, 246.616027832, 395.009796143, 22.0707073212, 856.466186523, 856.466186523, 856.466186523, 856.466186523,          -0.5,          -0.5,          -0.5,          -0.5, -2.02956151962, -2.35355210304, 0.897458910942, 0.0781176760793, -0.0110125765204, 0.317150652409, -0.742587864399, 0.823854863644
         0.39, 0.259384334087, 0.0246667098254, 0.990470349789, 0.0460298880935, -0.206512212753, 3.59463524818, 514.340515137, 250.377639771, 400.771789551,  22.368642807, 856.656494141, 856.656494141, 856.656494141, 856.656494141,          -0.5,          -0.5,          -0.5,          -0.5, -2.08439588547, -2.40934705734, 0.909562587738, 0.0787809416652, -0.0115022864193, 0.317355543375, -0.743762075901, 0.841699659824
        0.395, 0.259501665831, 0.0244419015944, 0.991068184376, -0.0356062017381, -0.191050335765, 3.64418458939, 521.687683105, 254.138946533, 406.533477783,  22.667804718, 856.899597168, 856.899597168, 856.899597168, 856.899597168,          -0.5,          -0.5,          -0.5,          -0.5, -2.13990855217, -2.46573853493, 0.921671807766, 0.0794238299131, -0.0119675090536, 0.317145913839, -0.744855165482, 0.859792411327
          0.4, 0.259623020887, 0.0242520663887, 0.991685569286, -0.115461036563, -0.177970260382, 3.69381022453, 529.032226562, 257.901641846, 412.295349121, 22.9677371979, 857.192993164, 857.192993164, 857.192993164, 857.192993164,          -0.5,          -0.5,          -0.5,          -0.5, -2.19609546661, -2.52273178101, 0.933786451817, 0.0800494402647, -0.0123994592577, 0.316528826952,   -0.74587816, 0.87813359499
        0.405, 0.259746134281, 0.0240847952664, 0.992241799831, -0.193400889635, -0.166932031512, 3.74334430695, 536.374633789, 261.667388916,  418.05770874, 23.2683372498, 857.534362793, 857.534362793, 857.534362793, 857.534362793,          -0.5,          -0.5,          -0.5,          -0.5, -2.25295066833, -2.58033132553, 0.945906758308, 0.0806591138244, -0.0128014683723, 0.315513640642, -0.74684214592, 0.896723091602
         0.41, 0.259868144989, 0.023944856599, 0.992768406868, -0.269245803356, -0.157687246799,  3.7926223278, 543.715270996, 265.437835693, 423.820892334, 23.5697860718, 857.921447754, 857.921447754, 857.921447754, 857.921447754,          -0.5,          -0.5,          -0.5,          -0.5, -2.31046795845, -2.63853764534, 0.958032906055, 0.0812543332577, -0.013175804168, 0.314110398293, -0.747756481171, 0.915560007095
        0.415, 0.259991198778, 0.0238346997648, 0.993279457092, -0.342760920525, -0.15007430315, 3.84150218964, 551.054443359, 269.214508057, 429.585266113, 23.8720302582, 858.351928711, 858.351928711, 858.351928711, 858.351928711,          -0.5,          -0.5,          -0.5,          -0.5, -2.36864280701, -2.69735074043, 0.970164775848, 0.0818367451429, -0.0135236531496, 0.31233009696, -0.748629510403, 0.934642672539
         0.42, 0.260114639997, 0.0237558893859, 0.993779540062, -0.413694441319, -0.143970221281, 3.88986039162,  558.39251709, 272.999023438, 435.351135254, 24.1747760773, 858.823913574, 858.823913574, 858.823913574, 858.823913574,          -0.5,          -0.5,          -0.5,          -0.5, -2.42747211456, -2.75676965714, 0.982302546501, 0.0824081078172, -0.0138457641006, 0.310185134411, -0.74946898222, 0.953968703747
        0.425, 0.26023465395, 0.0237094052136, 0.994267940521, -0.481800496578, -0.139260903001, 3.93758368492, 565.729797363, 276.792816162, 441.118835449, 24.4778594971, 859.335327148, 859.335327148, 859.335327148, 859.335327148,          -0.5,          -0.5,          -0.5,          -0.5, -2.48695397377, -2.81679606438, 0.994446098804, 0.0829702466726, -0.0141428029165, 0.307689040899, -0.750281989574, 0.973535180092
         0.43, 0.260349482298, 0.0236951094121, 0.994741380215, -0.546853780746, -0.135827258229, 3.98456525803, 573.066711426, 280.597290039, 446.888702393, 24.7813110352, 859.884460449, 859.884460449, 859.884460449, 859.884460449,          -0.5,          -0.5,          -0.5,          -0.5, -2.54708790779, -2.87743186951, 1.00659525394, 0.0835249871016, -0.0144155370072, 0.304856568575, -0.751075029373, 0.993338644505
        0.435, 0.260454803705, 0.023718804121, 0.995099961758, -0.608534038067, -0.133657187223, 4.03069591522, 580.403686523, 284.413757324, 452.661010742, 25.0849552155, 860.469726562, 860.469726562, 860.469726562, 860.469726562,          -0.5,          -0.5,          -0.5,          -0.5, -2.60787367821, -2.93867969513,  1.0187497139, 0.0840742960572, -0.0146672073752, 0.301703721285, -0.751854240894, 1.01337504387
         0.44, 0.260558366776, 0.0237675495446, 0.995473742485, -0.666590571404, -0.13269302249, 4.07588005066, 587.741210938, 288.243499756, 458.436065674, 25.3886241913, 861.089782715, 861.089782715, 861.089782715, 861.089782715,          -0.5,          -0.5,          -0.5,          -0.5, -2.66931056976, -3.00054240227, 1.03090918064, 0.0846199989319, -0.0149006666616, 0.298248291016, -0.752625763416, 1.03363990784
        0.445, 0.26059165597, 0.0238337107003, 0.995844244957, -0.7210111022, -0.132671609521, 4.12001895905, 595.079956055, 292.087615967, 464.214172363, 25.6951904297, 861.743774414, 861.743774414, 861.743774414, 861.743774414,          -0.5,          -0.5,          -0.5,          -0.5, -2.73139762878, -3.06302261353, 1.04307186604, 0.0851633921266, -0.0151154184714, 0.294508427382, -0.753394782543, 1.05412828922
         0.45, 0.260678678751, 0.0239047221839, 0.996188938618, -0.7717846632, -0.13340473175, 4.16306781769, 602.420349121, 295.947143555, 469.995635986, 26.0058364868, 862.431640625, 862.431640625, 862.431640625, 862.431640625,          -0.5,          -0.5,          -0.5,          -0.5, -2.79413318634, -3.12612247467, 1.05523693562, 0.0857052505016, -0.0153123214841, 0.290502429008, -0.754165410995, 1.07483458519
        0.455, 0.260820418596, 0.0239746477455, 0.996449053288, -0.818937420845, -0.134757488966, 4.20509004593, 609.763183594, 299.823059082, 475.780700684,   26.31498909, 863.152587891, 863.152587891, 863.152587891, 863.152587891,          -0.5,          -0.5,          -0.5,          -0.5, -2.85751485825, -3.1898431778, 1.06740772724, 0.0862458944321, -0.0154934823513, 0.286248594522, -0.754940927029, 1.09575355053
         0.46, 0.260953068733, 0.0240592099726, 0.996631860733, -0.862674117088, -0.136366397142, 4.24604082108, 617.109436035, 303.716156006, 481.569702148, 26.6206073761, 863.904541016, 863.904541016, 863.904541016, 863.904541016,          -0.5,          -0.5,          -0.5,          -0.5, -2.92154121399, -3.25418448448,  1.0795853138, 0.0867856144905, -0.0156646389514, 0.281764566898, -0.755723357201, 1.11688005924
        0.465, 0.261037945747, 0.0241778884083, 0.996812522411, -0.902901649475, -0.138143569231, 4.28583860397, 624.459594727, 307.627227783, 487.362945557,  26.925113678, 864.685852051, 864.685852051, 864.685852051, 864.685852051,          -0.5,          -0.5,          -0.5,          -0.5, -2.98620939255, -3.31914305687, 1.09176814556, 0.0873260051012, -0.015826748684, 0.277067601681, -0.756513595581,  1.1382086277
         0.47, 0.261097252369, 0.0243220049888, 0.996973156929, -0.939514219761, -0.140030309558, 4.32440757751, 631.814453125, 311.556884766, 493.160797119, 27.2313404083, 865.495849609, 865.495849609, 865.495849609, 865.495849609,          -0.5,          -0.5,          -0.5,          -0.5, -3.05151414871, -3.38471436501, 1.10395407677, 0.0878687724471, -0.0159804280847, 0.272175639868, -0.757312178612, 1.15973305702
        0.475, 0.261168539524, 0.0244787894189, 0.997102737427, -0.972489476204, -0.141959130764, 4.36173248291, 639.174621582, 315.505706787, 498.963531494, 27.5393676758, 866.334350586, 866.334350586, 866.334350586, 866.334350586,          -0.5,          -0.5,          -0.5,          -0.5, -3.11744713783, -3.45089411736,  1.1161429882, 0.0884150341153, -0.0161269921809, 0.267106890678, -0.758119344711, 1.18144726753
         0.48, 0.261260986328, 0.0246415119618, 0.997189164162, -1.0018825531, -0.143868848681, 4.39784193039, 646.540893555, 319.474121094,  504.77154541, 27.8472862244,  867.20111084,  867.20111084,  867.20111084,  867.20111084,          -0.5,          -0.5,          -0.5,          -0.5, -3.18399882317, -3.51767635345, 1.12833571434, 0.0889653861523, -0.0162682905793, 0.261879503727, -0.75893497467, 1.20334506035
        0.485, 0.26135751605, 0.024812169373, 0.997244715691, -1.0277878046, -0.145686879754, 4.43275308609, 653.913818359, 323.462463379, 510.585144043, 28.1538143158, 868.095153809, 868.095153809, 868.095153809, 868.095153809,          -0.5,          -0.5,          -0.5,          -0.5, -3.25115799904, -3.58505511284, 1.14053297043, 0.0895203053951, -0.0164062548429,   0.256511271, -0.75975883007, 1.22542059422
         0.49, 0.261442691088, 0.0249916594476, 0.997274160385, -1.05029165745, -0.147307962179, 4.46644639969, 661.294189453, 327.471069336, 516.404724121, 28.4593696594, 869.015686035, 869.015686035, 869.015686035, 869.015686035,          -0.5,          -0.5,          -0.5,          -0.5, -3.3189136982, -3.65302324295, 1.15273439884, 0.0900803729892, -0.0165422465652, 0.251019448042, -0.760589957237, 1.24766755104
        0.495, 0.261520177126, 0.0251761190593, 0.997280597687, -1.06949901581, -0.148638665676, 4.49889135361, 668.682495117, 331.500061035, 522.230712891, 28.7649841309, 869.962036133, 869.962036133, 869.962036133, 869.962036133,          -0.5,          -0.5,          -0.5,          -0.5, -3.38725423813, -3.72157382965, 1.16493964195, 0.0906461030245, -0.0166774764657, 0.245420873165, -0.761427044868, 1.27008008957
          0.5, 0.261602729559, 0.025349503383, 0.99726575613, -1.08554601669, -0.14961501956, 4.53008460999, 676.079284668, 335.549591064, 528.063476562, 29.0709495544, 870.933654785, 870.933654785, 870.933654785, 870.933654785,          -0.5,          -0.5,          -0.5,          -0.5, -3.45616936684, -3.79069948196, 1.17714846134, 0.0912175700068, -0.0168130043894, 0.239731803536, -0.762268424034, 1.29265165329
        0.505, 0.261697500944, 0.025509705767, 0.997236788273, -1.09861719608, -0.150205135345, 4.56006908417, 683.485046387, 339.619689941, 533.903320312, 29.3767795563, 871.929992676, 871.929992676, 871.929992676, 871.929992676,          -0.5,          -0.5,          -0.5,          -0.5, -3.52565002441, -3.86039423943, 1.18936133385, 0.0917940959334, -0.0169497393072, 0.233967646956, -0.763112068176, 1.31537628174
         0.51, 0.261801093817, 0.0256631206721, 0.997201144695, -1.10887396336, -0.150389313698, 4.58887052536, 690.900146484, 343.710296631, 539.750732422, 29.6819114685, 872.950195312, 872.950195312, 872.950195312, 872.950195312,          -0.5,          -0.5,          -0.5,          -0.5, -3.59568953514, -3.93065285683, 1.20157885551, 0.0923753902316, -0.0170881450176, 0.228142932057, -0.763956010342, 1.33824801445
        0.515, 0.261906951666, 0.0258098840714, 0.997163832188, -1.11647057533, -0.150162443519,   4.616502285, 698.325012207, 347.821350098, 545.606018066, 29.9863529205, 873.993347168, 873.993347168, 873.993347168, 873.993347168,          -0.5,          -0.5,          -0.5,          -0.5, -3.66628313065, -4.00147199631, 1.21380126476, 0.0929612219334, -0.0172283984721, 0.222271442413, -0.764797985554, 1.36126077175
         0.52, 0.262014448643, 0.0259485244751, 0.99712896347, -1.1215583086, -0.149534970522, 4.64297580719,  705.75982666, 351.952697754, 551.469604492, 30.2904682159, 875.058410645, 875.058410645, 875.058410645, 875.058410645,          -0.5,          -0.5,          -0.5,          -0.5, -3.73742723465, -4.07284879684,  1.2260286808, 0.0935513302684, -0.0173704531044, 0.216366156936, -0.765636026859, 1.38440907001
        0.525, 0.262127608061, 0.0260763168335, 0.997099578381, -1.1242903471, -0.148534655571, 4.66831254959, 713.204956055, 356.104156494, 557.341674805,  30.594461441,  876.14453125,  876.14453125,  876.14453125,  876.14453125,          -0.5,          -0.5,          -0.5,          -0.5, -3.8091199398, -4.14478111267, 1.23826110363, 0.0941453427076, -0.0175140853971, 0.210439309478, -0.766468048096, 1.40768694878
         0.53, 0.26224899292, 0.0261910650879, 0.997078299522, -1.12482261658, -0.147203907371, 4.69254493713, 720.660644531, 360.275512695, 563.222717285, 30.8982391357, 877.250671387, 877.250671387, 877.250671387, 877.250671387,          -0.5,          -0.5,          -0.5,          -0.5, -3.88136029243, -4.21726751328,  1.2504991293, 0.0947427377105, -0.0176589414477, 0.204502388835, -0.767292261124,  1.4310888052
        0.535, 0.262377381325, 0.0262918062508, 0.997067034245, -1.12331163883, -0.145593643188, 4.71571207047,  728.12713623, 364.466552734, 569.112915039, 31.2016448975, 878.375732422, 878.375732422, 878.375732422, 878.375732422,          -0.5,          -0.5,          -0.5,          -0.5, -3.95414805412, -4.29030752182, 1.26274299622, 0.0953429192305, -0.017804550007, 0.198566049337, -0.768107116222, 1.45460927486
         0.54, 0.262510299683, 0.0263780299574, 0.997066795826, -1.11991238594, -0.143758192658, 4.73785352707, 735.604614258, 368.676940918, 575.012634277, 31.5046882629, 879.518554688, 879.518554688, 879.518554688, 879.518554688,          -0.5,          -0.5,          -0.5,          -0.5, -4.02748250961, -4.36389875412, 1.27499306202, 0.0959452316165, -0.017950380221, 0.192640200257, -0.768911242485, 1.47824311256
        0.545, 0.262646853924, 0.0264488402754, 0.99707788229, -1.11477828026, -0.141753330827, 4.75900936127, 743.093322754, 372.906494141, 580.922119141, 31.8074951172, 880.677978516, 880.677978516, 880.677978516, 880.677978516,          -0.5,          -0.5,          -0.5,          -0.5, -4.10136413574, -4.43804073334, 1.28724944592, 0.0965489968657, -0.0180958677083, 0.186733976007, -0.769703686237, 1.50198543072
         0.55, 0.262787550688, 0.026502976194, 0.997099578381, -1.10806286335, -0.13963535428, 4.77922439575, 750.593444824, 377.154876709,  586.84161377, 32.1101608276, 881.852905273, 881.852905273, 881.852905273, 881.852905273,          -0.5,          -0.5,          -0.5,          -0.5, -4.17579078674, -4.51273107529, 1.29951226711, 0.0971534699202, -0.0182404648513, 0.180855721235, -0.770483672619, 1.52583110332
        0.555, 0.262932687998, 0.0265393555164, 0.997130870819, -1.09992003441, -0.137459546328, 4.79854726791, 758.105163574, 381.421844482, 592.771484375,  32.412689209, 883.042114258, 883.042114258, 883.042114258, 883.042114258,          -0.5,          -0.5,          -0.5,          -0.5, -4.25076150894, -4.58796691895, 1.31178200245, 0.0977578163147, -0.0183836743236, 0.175013020635, -0.771250784397, 1.54977583885
         0.56, 0.263081461191, 0.0265572965145, 0.997170448303, -1.09050309658, -0.135277807713, 4.81702947617, 765.628662109, 385.707183838, 598.711791992, 32.7150650024, 884.244506836, 884.244506836, 884.244506836, 884.244506836,          -0.5,          -0.5,          -0.5,          -0.5, -4.32627296448, -4.66374492645, 1.32405865192, 0.0983611866832, -0.0185250621289, 0.169212698936, -0.772004842758, 1.57381510735
        0.565, 0.263232707977, 0.0265563316643, 0.997216522694, -1.07996380329, -0.133137077093, 4.83472394943, 773.164123535, 390.010650635, 604.662902832, 33.0173110962,  885.45892334,  885.45892334,  885.45892334,  885.45892334,          -0.5,          -0.5,          -0.5,          -0.5, -4.40232229233, -4.74006032944, 1.33634245396, 0.0989626571536, -0.0186642706394, 0.163460806012, -0.772745847702,  1.5979449749
         0.57, 0.263385772705, 0.0265359822661, 0.997267365456, -1.06845152378, -0.131078585982,  4.8516831398, 780.711791992, 394.332000732, 610.624938965,  33.319480896, 886.684387207, 886.684387207, 886.684387207, 886.684387207,          -0.5,          -0.5,          -0.5,          -0.5, -4.47890472412, -4.81690835953, 1.34863352776, 0.0995612964034, -0.0188010372221, 0.157762616873, -0.773474276066, 1.62216162682
        0.575, 0.263540297747, 0.0264957547188, 0.997320950031, -1.05611336231, -0.129137918353,  4.8679599762, 788.271789551, 398.671081543, 616.598144531, 33.6216163635, 887.919799805, 887.919799805, 887.919799805, 887.919799805,          -0.5,          -0.5,          -0.5,          -0.5, -4.55601549149, -4.89428329468, 1.36093187332, 0.100156135857, -0.018935194239, 0.152122706175, -0.774190425873, 1.64646136761
         0.58, 0.263696014881, 0.0264352913946, 0.997375428677, -1.04309344292, -0.127344921231, 4.88360929489, 795.844360352, 403.027770996, 622.582641602,  33.923740387,  889.16418457,  889.16418457,  889.16418457,  889.16418457,          -0.5,          -0.5,          -0.5,          -0.5, -4.63364934921, -4.97218036652, 1.37323760986, 0.100746184587, -0.0190666709095, 0.146544858813, -0.774895131588, 1.67084097862
        0.585, 0.263852417469, 0.0263544283807, 0.997429072857, -1.02953207493, -0.125723600388, 4.89868545532,  803.42956543, 407.401885986, 628.578613281, 34.2258720398, 890.416687012, 890.416687012, 890.416687012, 890.416687012,          -0.5,          -0.5,          -0.5,          -0.5, -4.71180009842, -5.05059289932, 1.38555085659, 0.101330414414, -0.0191954877228, 0.14103217423, -0.775589048862, 1.69529759884
         0.59, 0.264008969069, 0.026247439906, 0.997475445271, -1.0155133009, -0.12429138273, 4.91324281693, 811.027648926, 411.793334961, 634.586242676, 34.5280265808, 891.676391602, 891.676391602, 891.676391602, 891.676391602,          -0.5,          -0.5,          -0.5,          -0.5, -4.79034805298, -5.12940168381, 1.39787149429, 0.101907745004, -0.0193218011409, 0.135587126017, -0.77627325058, 1.71982824802
        0.595, 0.264164179564, 0.0260970275849,  0.9975014925, -1.00040733814, -0.123053111136, 4.92733716965, 818.638793945, 416.202148438,  640.60559082,   34.83020401, 892.942443848, 892.942443848, 892.942443848, 892.942443848,          -0.5,          -0.5,          -0.5,          -0.5, -4.86763429642, -5.20694637299, 1.41019964218, 0.102476350963, -0.0194464009255, 0.130213156343, -0.776948571205,  1.7444306612
          0.6, 0.264316409826, 0.0259104054421, 0.99751329422, -0.983248829842, -0.122014276683, 4.94103479385, 826.263061523, 420.628448486, 646.636901855, 35.1323890686, 894.214233398, 894.214233398, 894.214233398, 894.214233398,          -0.5,          -0.5,          -0.5,          -0.5, -4.94137001038, -5.28093910217, 1.42253506184, 0.103034190834, -0.0195701830089, 0.12491825223, -0.777616083622, 1.76910257339
        0.605, 0.264464884996, 0.0256976243109, 0.997514128685, -0.963328003883, -0.121182516217, 4.95441055298, 833.900634766, 425.072570801, 652.680236816, 35.4345703125, 895.491149902, 895.491149902, 895.491149902, 895.491149902,          -0.5,          -0.5,          -0.5,          -0.5, -5.00995159149, -5.34977388382, 1.43487763405, 0.10357966274, -0.0196937993169, 0.119714587927, -0.778276801109, 1.79384231567
         0.61, 0.264609485865, 0.0254684947431, 0.997505307198, -0.940226137638, -0.12056030333, 4.96754789352, 841.551452637, 429.534881592, 658.735778809, 35.7367362976, 896.772644043, 896.772644043, 896.772644043, 896.772644043,          -0.5,          -0.5,          -0.5,          -0.5, -5.07249498367, -5.41256761551, 1.44722723961, 0.104111656547, -0.0198178067803, 0.114617176354, -0.778931736946, 1.81864821911
        0.615, 0.264726340771, 0.0252244379371, 0.997479319572, -0.913835942745, -0.120146811008, 4.98053598404, 849.215820312, 434.015655518, 664.803527832, 36.0392341614, 898.058349609, 898.058349609, 898.058349609, 898.058349609,          -0.5,          -0.5,          -0.5,          -0.5, -5.12879705429, -5.46911525726, 1.45958340168, 0.104629375041, -0.0199428834021, 0.109642356634, -0.779582083225, 1.84351956844
         0.62, 0.264825880527, 0.0249611362815, 0.997443556786, -0.8843729496, -0.119917042553, 4.99345684052, 856.893737793, 438.515106201, 670.883666992, 36.3452262878, 899.348449707, 899.348449707, 899.348449707, 899.348449707,          -0.5,          -0.5,          -0.5,          -0.5, -5.17923593521, -5.51979780197, 1.47194397449, 0.10513176024, -0.0200698114932, 0.104806147516, -0.780228853226, 1.86845576763
        0.625, 0.264968067408, 0.0246820095927, 0.997399926186, -0.852296471596, -0.119866140187, 5.00647783279, 864.585510254, 443.033233643, 676.976318359, 36.6525192261, 900.643310547, 900.643310547, 900.643310547, 900.643310547,          -0.5,          -0.5,          -0.5,          -0.5, -5.22464704514, -5.56544971466, 1.48431038857, 0.105617798865, -0.0201990511268, 0.100122876465, -0.780872941017, 1.89345669746
         0.63, 0.26513043046, 0.0244013089687, 0.997351706028, -0.818246304989, -0.119983434677, 5.01975822449, 872.291442871, 447.569885254, 683.081665039,  36.958366394, 901.942565918, 901.942565918, 901.942565918, 901.942565918,          -0.5,          -0.5,          -0.5,          -0.5, -5.26617002487,  -5.607213974, 1.49668419361, 0.106086820364, -0.0203309636563, 0.0956040546298, -0.781515300274, 1.91852343082
        0.635, 0.265286624432, 0.0241326987743, 0.997301876545, -0.782949864864, -0.120231345296, 5.03337812424,  880.01171875, 452.124725342, 689.199890137, 37.2624359131, 903.245422363, 903.245422363, 903.245422363, 903.245422363,          -0.5,          -0.5,          -0.5,          -0.5, -5.30510139465, -5.64638900757, 1.50906562805, 0.106538899243, -0.0204657278955, 0.0912577211857, -0.782156765461, 1.94365739822
         0.64, 0.265430361032, 0.0238778144121, 0.997250914574, -0.747169315815, -0.120563559234, 5.04736471176, 887.746643066, 456.697265625, 695.331176758, 37.5659141541, 904.551330566, 904.551330566, 904.551330566, 904.551330566,          -0.5,          -0.5,          -0.5,          -0.5, -5.34275341034, -5.68428897858, 1.52145421505, 0.106974489987, -0.0206034295261, 0.0870881974697, -0.782797932625, 1.96886050701
        0.645, 0.265571027994, 0.0236290507019,  0.9971986413, -0.711664319038, -0.120946072042, 5.06173849106, 895.496582031,  461.28692627, 701.475708008, 37.8698234558, 905.859985352, 905.859985352, 905.859985352, 905.859985352,          -0.5,          -0.5,          -0.5,          -0.5, -5.38033676147, -5.72212696075, 1.53384947777, 0.107393875718, -0.0207441430539, 0.083095960319, -0.783439218998, 1.99413454533
         0.65, 0.265718698502, 0.0233776122332, 0.997145712376, -0.677148282528, -0.121363997459, 5.07653284073,  903.26171875, 465.893066406, 707.633605957, 38.1743469238, 907.171081543, 907.171081543, 907.171081543, 907.171081543,          -0.5,          -0.5,          -0.5,          -0.5, -5.41887283325, -5.76092672348, 1.54625153542, 0.107796885073, -0.0208879280835, 0.0792777910829, -0.784080862999, 2.01948142052
        0.655, 0.265875935555, 0.023118134588, 0.997094273567, -0.644238293171, -0.121816538274, 5.09178543091, 911.042297363, 470.515014648, 713.805175781,   38.47914505,  908.48425293,  908.48425293,  908.48425293,  908.48425293,          -0.5,          -0.5,          -0.5,          -0.5, -5.45913600922, -5.80146312714, 1.55866086483, 0.108183003962, -0.0210347641259, 0.0756271183491, -0.784723162651, 2.04490351677
         0.66, 0.266039311886, 0.0228483043611, 0.997046709061, -0.613414406776, -0.122310630977, 5.10752344131, 918.838378906, 475.152282715, 719.990356445, 38.7839584351,  909.79901123,  909.79901123,  909.79901123,  909.79901123,          -0.5,          -0.5,          -0.5,          -0.5, -5.50162696838, -5.84423875809, 1.57107770443, 0.108551539481, -0.0211845077574, 0.0721346065402, -0.785366356373, 2.07040333748
        0.665, 0.266204833984, 0.0225666966289, 0.997004687786, -0.584999144077, -0.122858554125, 5.12375831604, 926.650146484, 479.804290771, 726.189331055, 39.0888252258, 911.114746094, 911.114746094, 911.114746094, 911.114746094,          -0.5,          -0.5,          -0.5,          -0.5, -5.54657506943, -5.88948249817, 1.58350253105, 0.108901709318, -0.0213369168341, 0.0687889158726, -0.786010682583, 2.09598278999
         0.67, 0.266370683908, 0.0222717169672, 0.996969163418, -0.559157431126, -0.12347843498, 5.14049053192, 934.477539062, 484.470733643, 732.402099609, 39.3939743042, 912.430908203, 912.430908203, 912.430908203, 912.430908203,          -0.5,          -0.5,          -0.5,          -0.5, -5.59396362305, -5.93717813492, 1.59593522549, 0.109232671559, -0.021491676569, 0.0655774846673, -0.786656558514, 2.12164497375
        0.675, 0.266536772251, 0.0219620559365, 0.996940135956, -0.535910129547, -0.124194204807, 5.15771627426, 942.320617676,  489.15133667, 738.628723145, 39.6996116638, 913.747009277, 913.747009277, 913.747009277, 913.747009277,          -0.5,          -0.5,          -0.5,          -0.5, -5.64357280731, -5.98710441589, 1.60837566853, 0.109543532133, -0.0216484609991, 0.0624873042107, -0.787304461002, 2.14739203453
         0.68, 0.266703188419, 0.0216375477612, 0.996917247772, -0.515156507492, -0.125033378601, 5.17543268204, 950.179260254, 493.846008301,  744.86907959, 40.0058403015, 915.062438965, 915.062438965, 915.062438965, 915.062438965,          -0.5,          -0.5,          -0.5,          -0.5, -5.69503116608, -6.03888893127,  1.6208242178, 0.109833352268, -0.0218069497496, 0.0595055632293, -0.787954986095, 2.17322635651
        0.685, 0.266869693995, 0.0213006120175, 0.996916651726, -0.496685892344, -0.125993907452,  5.1936378479,  958.05078125, 498.553222656, 751.122619629, 40.3120765686, 915.668945312, 915.934387207, 916.199829102, 916.199829102,          -0.5,          -0.5,          -0.5,          -0.5, -5.74787664413, -6.09206771851, 1.63328051567, 0.110101237893, -0.0219665784389, 0.0566202327609, -0.788608789444, 2.19915056229
         0.69, 0.267020225525, 0.0209619384259, 0.99694532156, -0.480161458254, -0.126928403974, 5.21231269836, 965.922424316, 503.265136719, 757.386047363, 40.6159095764, 914.963684082, 915.985961914, 917.008239746, 917.008239746,          -0.5,          -0.5,          -0.5,          -0.5, -5.80161476135, -6.14614677429, 1.64574444294, 0.110346637666, -0.0221258904785, 0.0538206584752, -0.789266228676, 2.22516727448
        0.695, 0.267131209373, 0.020634688437, 0.996993660927, -0.465189129114, -0.127619937062, 5.23138332367, 973.780273438, 507.973327637, 763.655761719, 40.9166069031, 913.078491211, 915.299499512, 917.520446777, 917.520446777,          -0.5,          -0.5,          -0.5,          -0.5, -5.8557767868, -6.20065689087,  1.6582146883, 0.110569618642, -0.0222836751491, 0.051098048687, -0.78992664814,   2.251278162
