Time,AxG_S1,AyG_S1,AzG_S1,AVx_S1,AVy_S1,AVz_S1,AVy_L1,AVy_R1,AVy_L2,AVy_R2,My_Dr_L1,My_Dr_R1,My_Dr_L2,My_Dr_R2,My_Bk_L1,My_Bk_R1,My_Bk_L2,My_Bk_R2,StrK_L1,StrK_R1,sv_vx,sv_vy,sv_vz,Roll_E,Pitch,Yaw
            0, 0.000796855776571, -1.68628853559e-18, 0.999469280243,             0,             0,             0,             0,             0,             0,             0,             0,             0,             0,             0,           0.5,           0.5,           0.5,           0.5, -9.87841267488e-05, 9.87841267488e-05,             0,             0,             0,             0, -0.0446785651147,             0
        0.005, 0.0233676992357, -1.32995921269e-19, 0.99937492609, -2.5900222323e-18, -0.0304177384824, 3.83737978355e-18, 1.09492373466, 1.09492373466, 1.08763587475, 1.08763587475, 217.066207886, 217.066207886, 217.066207886, 217.066207886,          -0.5,          -0.5,          -0.5,          -0.5, -0.000126623170217, 0.000126623170217, 0.000244276307058, -1.04193705597e-19, -1.99929017981e-05, 4.98591256775e-20, -0.0447223745286, 1.52978200874e-20
         0.01, 0.175137996674, -2.61021495182e-18, 0.99774903059, 2.55429154535e-17, -0.17431101203, 6.35022850488e-17, 2.89988160133, 2.89988160133, 2.81955122948, 2.81955122948, 413.372497559, 413.372497559, 413.372497559, 413.372497559,          -0.5,          -0.5,          -0.5,          -0.5, -0.000261825072812, 0.000261825072812, 0.00424268934876, 2.62732130538e-19, -8.51026561577e-05, -1.59349301048e-20, -0.0451637916267, -4.57849477368e-21
        0.015,  0.4263060987, 1.1990408977e-18, 0.995962500572, 6.66375377984e-17, -0.528227329254, 2.97494349252e-17, 1.95429289341, 1.95429289341, 1.80370020866, 1.80370020866, 590.998535156, 590.998535156, 590.998535156, 590.998535156,          -0.5,          -0.5,          -0.5,          -0.5, -0.000475623033708, 0.000475623033708, 0.0195308942348, -1.0090585007e-18, -0.000246674229857, 8.79473484538e-20, -0.0468203388155, 1.5557525073e-19
         0.02, 0.36599496007, -1.8589353983e-17, 0.99620705843, 1.19725301298e-16, -0.999832808971, 1.30051625542e-16, 0.478458255529, 0.478458255529, 0.239217057824, 0.239217057824, 751.721862793, 751.721862793, 751.721862793, 751.721862793,          -0.5,          -0.5,          -0.5,          -0.5, -0.000686984451022, 0.000686984451022, 0.0404732637107, -1.43619399291e-18, -0.000447716505732, 5.03760799562e-19, -0.0506432652473, 6.52426145346e-19
        0.025, 0.305898219347, -2.49571475027e-17, 0.995729446411, 1.78652099654e-16, -1.42911374569, 1.87728084154e-16, 2.99689984322, 2.99689984322,  2.9532687664,  2.9532687664, 897.150939941, 897.150939941, 897.150939941, 897.150939941,          -0.5,          -0.5,          -0.5,          -0.5, -0.000923681247514, 0.000923681247514, 0.0555193200707, -1.16690720565e-18, -0.000640659069177, 1.3689445193e-18, -0.0567180775106, 1.3985545867e-18
         0.03, 0.543586492538, -3.12067650371e-17, 0.993981540203, 7.644679475e-17, -1.9629983902, 1.34291951885e-16, 5.07966375351, 5.07966375351, 4.70571994781, 4.70571994781, 1028.74121094, 1028.74121094, 1028.74121094, 1028.74121094,          -0.5,          -0.5,          -0.5,          -0.5, -0.00114338728599, 0.00114338728599, 0.07582013309, -1.74613712086e-18, -0.000904936168808, 1.89641184993e-18, -0.065114736557, 2.16715054596e-18
        0.035, 0.611554861069, -5.88556475886e-17, 0.992948234081, -1.18101878282e-17, -2.62635183334, 7.38673014929e-17, 5.45653104782, 5.45653104782, 3.41117930412, 3.41117930412, 1147.80944824, 1147.80944824, 1147.80944824, 1147.80944824,          -0.5,          -0.5,          -0.5,          -0.5, -0.00116265343968, 0.00116265343968, 0.105061411858, -4.07076631184e-18, -0.00123454967979, 1.8539435701e-18, -0.0765717849135, 2.43635192682e-18
         0.04, 0.558186590672, 2.75679983497e-18, 0.990445613861, -4.41720369717e-17, -3.26851654053, 2.14632007845e-16, 6.80060815811, 6.80060815811, 4.11751270294, 4.11751270294, 1255.54736328, 1255.54736328, 1255.54736328, 1255.54736328,          -0.5,          -0.5,          -0.5,          -0.5, -0.000909884809516, 0.000909884809516, 0.133733019233, -5.23619886125e-18, -0.00166657089721, 1.63249356824e-18, -0.0913322046399, 3.12691580299e-18
        0.045, 0.58994281292, 1.23535890769e-16, 0.989386498928, -8.16602891577e-17, -3.88075995445, 3.05117361227e-16, 9.50038051605, 9.50038051605, 6.64647960663, 6.64647960663, 1353.03295898, 1353.03295898, 1353.03295898, 1353.03295898,          -0.5,          -0.5,          -0.5,          -0.5, -0.000378537923098, 0.000378537923098, 0.161289185286, -5.83122296308e-18, -0.0022239764221, 1.29535212136e-18, -0.109200425446, 4.39845018919e-18
         0.05, 0.64025837183, 2.02321164816e-17, 0.990245819092, -2.10062529793e-16, -4.51435661316, 4.2283998547e-16, 13.7767267227, 13.7767267227, 7.29440641403, 7.29440641403, 1441.24206543, 1441.24206543, 1441.24206543, 1441.24206543,          -0.5,          -0.5,          -0.5,          -0.5, 0.000547594449017, -0.000547594449017, 0.191624701023, -6.23228106949e-18, -0.00280929869041, 5.04526200122e-19, -0.130182027817, 6.50429114212e-18
        0.055, 0.626904070377, -5.20449170488e-17, 0.994111001492, -3.23261362823e-16, -5.13692426682, 4.50261750695e-16, 19.9409656525, 19.9409656525, 7.20063591003, 7.20063591003, 1521.05725098, 1521.05725098, 1521.05725098, 1521.05725098,          -0.5,          -0.5,          -0.5,          -0.5, 0.00204555643722, -0.00204555643722, 0.222779244184, -7.9914249851e-18, -0.00328382174484, -7.53335459235e-19, -0.154326528311, 8.66081510554e-18
         0.06, 0.594569325447, -7.284199458e-17, 0.997741758823, -4.11367797702e-16, -5.70682096481, 6.64286647675e-16,  28.081659317,  28.081659317, 8.03869533539, 8.03869533539, 1593.27734375, 1593.27734375, 1593.27734375, 1593.27734375,          -0.5,          -0.5,          -0.5,          -0.5, 0.00427757296711, -0.00427757296711, 0.252452492714, -8.32487472491e-18, -0.00359249301255, -2.63936583058e-18, -0.181462422013, 1.09938647884e-17
        0.065, 0.60426813364, -5.39980724548e-17, 1.00108850002, -5.69387617364e-16, -6.22926807404, 3.54863685629e-16, 37.6007957458, 37.6007957458,  9.5176410675,  9.5176410675,      1658.625,      1658.625,      1658.625,      1658.625,          -0.5,          -0.5,          -0.5,          -0.5, 0.00736333802342, -0.00736333802342, 0.281525224447, -1.16587136872e-17, -0.0037622244563, -5.12854833556e-18, -0.211317971349, 1.40278069381e-17
         0.07, 0.629438877106, -1.19587287867e-17, 1.00438892841, -6.96824147795e-16, -6.72231435776, 4.32303196375e-16,  48.159778595,  48.159778595,  10.472858429,  10.472858429, 1717.75427246, 1717.75427246, 1717.75427246, 1717.75427246,          -0.5,          -0.5,          -0.5,          -0.5, 0.0114104961976, -0.0114104961976, 0.311628550291, -1.21575755613e-17, -0.00379469129257, -8.3476503159e-18, -0.243709802628, 1.60937616555e-17
        0.075, 0.643337786198, 1.66414495196e-17, 1.00472903252, -8.03840725571e-16, -7.17987346649, 4.24636859988e-16, 59.6495895386, 59.6495895386,  10.976064682,  10.976064682, 1771.25695801, 1771.25695801, 1771.25695801, 1771.25695801,          -0.5,          -0.5,          -0.5,          -0.5, 0.0164901688695, -0.0164901688695, 0.342662453651, -1.34126062467e-17, -0.00374748697504, -1.213247642e-17, -0.278483480215, 1.8207869865e-17
         0.08, 0.645898401737, -3.02440756966e-17, 1.00458800793, -8.88395895409e-16, -7.58847951889, 4.48263970549e-16, 71.9637680054, 71.9637680054, 11.5142621994, 11.5142621994, 1819.66833496, 1819.66833496, 1819.66833496, 1819.66833496,          -0.5,          -0.5,          -0.5,          -0.5, 0.0225845109671, -0.0225845109671, 0.374044984579, -1.57270609094e-17, -0.00375443627127, -1.61834412687e-17, -0.315427839756, 2.04920232475e-17
        0.085, 0.647624194622, 1.77847855105e-16, 1.00532889366, -8.31518480034e-16, -7.94311189651, 6.01265067059e-16, 84.9997558594, 84.9997558594, 12.3661003113, 12.3661003113, 1863.47290039, 1863.47290039, 1863.47290039, 1863.47290039,          -0.5,          -0.5,          -0.5,          -0.5, 0.0296061392874, -0.0296061392874, 0.405446559191, -1.56102233022e-17, -0.0037766257301, -2.04393467317e-17, -0.354279994965, 2.31991306207e-17
         0.09, 0.656740486622, -3.88468797986e-17, 1.00655841827, -9.18819624809e-16, -8.24848365784, 8.75462708156e-16, 98.6668624878, 98.6668624878, 13.3602142334, 13.3602142334, 1903.10913086, 1903.10913086, 1903.10913086, 1903.10913086,          -0.5,          -0.5,          -0.5,          -0.5, 0.0374431759119, -0.0374431759119, 0.437068670988, -1.6292218828e-17, -0.00378265231848, -2.47707886738e-17, -0.394778579473, 2.72541072954e-17
        0.095, 0.668395578861, 2.16305248641e-17, 1.00806593895, -1.0531445448e-15, -8.51343917847, 8.80608803888e-16, 112.887664795, 112.887664795, 14.2320947647, 14.2320947647, 1938.97363281, 1938.97363281, 1938.97363281, 1938.97363281,          -0.5,          -0.5,          -0.5,          -0.5, 0.0459757894278, -0.0459757894278, 0.469214081764, -1.67694193234e-17, -0.0037579422351, -2.96022497157e-17, -0.436699986458, 3.17052141481e-17
          0.1, 0.677074015141, -3.32004622193e-17, 1.01028716564, -1.13433942906e-15, -8.74132347107, 6.91320445341e-16, 127.598075867, 127.598075867, 15.0192604065, 15.0192604065, 1971.42529297, 1971.42529297, 1971.42529297, 1971.42529297,          -0.5,          -0.5,          -0.5,          -0.5, 0.0550871454179, -0.0550871454179, 0.501818954945, -1.81399765347e-17, -0.00367459980771, -3.5024954644e-17, -0.479852706194, 3.56023234029e-17
        0.105, 0.682939708233, -1.20505954655e-17, 1.01292526722, -1.26587358725e-15, -8.93400287628, 6.14439499883e-16, 142.747131348, 142.747131348, 15.8205633163, 15.8205633163, 2000.78881836, 2000.78881836, 2000.78881836, 2000.78881836,          -0.5,          -0.5,          -0.5,          -0.5, 0.0646673887968, -0.0646673887968, 0.534739255905, -1.83644634268e-17, -0.0035045822151, -4.08670467604e-17, -0.524055957794, 3.89005836727e-17
         0.11, 0.68751257658, -5.1203684292e-17, 1.01564490795, -1.27204464579e-15, -9.09397697449, 3.62488887978e-16,  158.29586792,  158.29586792, 16.6959209442, 16.6959209442, 2027.35827637, 2027.35827637, 2027.35827637, 2027.35827637,          -0.5,          -0.5,          -0.5,          -0.5, 0.0746199265122, -0.0746199265122, 0.567869365215, -1.9120961456e-17, -0.00323537830263, -4.73775702948e-17, -0.569139540195, 4.15428797906e-17
        0.115, 0.692271947861, -3.50873803105e-17, 1.01814806461, -1.42626764027e-15, -9.2246837616, 3.77790961687e-16,  174.21534729,  174.21534729,  17.632062912,  17.632062912, 2051.39941406, 2051.39941406, 2051.39941406, 2051.39941406,          -0.5,          -0.5,          -0.5,          -0.5, 0.0848664715886, -0.0848664715886, 0.601185619831, -2.13257981439e-17, -0.00287018646486, -5.42305532203e-17, -0.614948153496, 4.3617339579e-17
         0.12, 0.697447359562, 2.50378306997e-18, 1.02023398876, -1.55223446266e-15, -9.32966423035, 7.46728417371e-16, 190.484466553, 190.484466553, 18.5762691498, 18.5762691498, 2073.15258789, 2073.15258789, 2073.15258789, 2073.15258789,          -0.5,          -0.5,          -0.5,          -0.5, 0.09534971416, -0.09534971416, 0.634708046913, -2.24456120961e-17, -0.0024244254455, -6.1730186244e-17, -0.661344647408, 4.60313007607e-17
        0.125, 0.701588571072, -2.1769460105e-16, 1.02180945873, -1.49501579888e-15, -9.41136741638, 6.89543529036e-16, 207.087554932, 207.087554932, 19.4987697601, 19.4987697601,  2092.8359375,  2092.8359375,  2092.8359375,  2092.8359375,          -0.5,          -0.5,          -0.5,          -0.5, 0.106032796204, -0.106032796204, 0.668429255486, -2.48598396298e-17, -0.00192081928253, -6.92788776955e-17, -0.708207190037, 4.95153987356e-17
         0.13, 0.70472329855, -5.25772871823e-17, 1.02283132076, -1.43763916346e-15, -9.47067546844, 6.80035107747e-16, 224.011505127, 224.011505127, 20.4212207794, 20.4212207794, 2110.36791992, 2110.36791992, 2110.50708008, 2110.50708008,          -0.5,          -0.5,          -0.5,          -0.5, 0.116895996034, -0.116895996034, 0.702282071114, -2.90942946452e-17, -0.00138476479333, -7.63497565379e-17, -0.755421876907, 5.31778633204e-17
        0.135, 0.707313418388, -8.3003339305e-17, 1.02329671383, -1.26090160973e-15, -9.50828647614, 5.75343158956e-16, 241.238525391, 241.238525391, 21.3353347778, 21.3353347778, 2125.36474609, 2125.36474609, 2126.06323242, 2126.06323242,          -0.5,          -0.5,          -0.5,          -0.5, 0.127933636308, -0.127933636308, 0.736235141754, -3.26328806614e-17, -0.00084270798834, -8.32421628914e-17, -0.802878677845, 5.59412719149e-17
         0.14, 0.709349095821, 5.00181599391e-18, 1.02323102951, -1.08578231245e-15, -9.52442836761, 8.2913858215e-16, 258.748687744, 258.748687744, 22.2325572968, 22.2325572968, 2138.03930664, 2138.03930664, 2139.69165039, 2139.69165039,          -0.5,          -0.5,          -0.5,          -0.5, 0.139150649309, -0.139150649309, 0.770261406898, -3.51785554663e-17, -0.000320391001878, -8.91531161394e-17, -0.850469887257, 5.99037515992e-17
        0.145, 0.710837960243, -4.94756444354e-17, 1.02269351482, -8.05595513139e-16, -9.51898956299, 1.01777911931e-15, 276.521606445, 276.521606445, 23.1100788116, 23.1100788116, 2148.59863281, 2148.59863281, 2151.56835938, 2151.56835938,          -0.5,          -0.5,          -0.5,          -0.5, 0.150558084249, -0.150558084249, 0.804333567619, -3.59490841331e-17, 0.000158787210239, -9.37501029105e-17, -0.898087918758, 6.47261020738e-17
         0.15, 0.711848318577, -3.4925090783e-17, 1.02176320553, -6.08157268272e-16, -9.49170970917, 9.47666178861e-16, 294.535827637, 294.535827637,  23.969247818,  23.969247818, 2157.23071289, 2157.23071289, 2161.85375977, 2161.85375977,          -0.5,          -0.5,          -0.5,          -0.5, 0.162168696523, -0.162168696523, 0.838426291943, -3.74641315994e-17, 0.000575098092668, -9.75040007315e-17, -0.945624291897, 6.96831572568e-17
        0.155, 0.712499976158, 2.60696872287e-17,  1.0205296278, -5.3414723511e-16, -9.44237422943, 9.98881390742e-16,   312.7684021,   312.7684021, 24.8129253387, 24.8129253387, 2164.10742188, 2164.10742188, 2170.69360352, 2170.69360352,          -0.5,          -0.5,          -0.5,          -0.5, 0.173993080854, -0.173993080854, 0.872518897057, -3.84776892389e-17, 0.000913208350539, -1.00502543687e-16, -0.992969155312, 7.45742960712e-17
         0.16, 0.712860226631, 2.43163538433e-17, 1.01906704903, -3.79353578656e-16, -9.37093353271, 9.98449403938e-16, 331.194976807, 331.194976807, 25.6446037292, 25.6446037292, 2169.38500977, 2169.38500977, 2178.21972656, 2178.21972656,          -0.5,          -0.5,          -0.5,          -0.5, 0.186036765575, -0.186036765575, 0.906596064568, -3.7844839822e-17, 0.00116240780335, -1.02761104101e-16, -1.0400121212, 7.95833842234e-17
        0.165, 0.713114380836, -4.30187718355e-17, 1.01744866371, -2.18206460413e-16, -9.27750301361, 9.79580262731e-16, 349.790252686, 349.790252686,  26.468044281,  26.468044281, 2173.20629883, 2173.20629883, 2184.55273438, 2184.55273438,          -0.5,          -0.5,          -0.5,          -0.5, 0.198297545314, -0.198297545314, 0.940647184849, -3.75219746853e-17, 0.00131467822939, -1.04385375804e-16, -1.08664274216, 8.44972341087e-17
         0.17, 0.713395118713, 3.39013819831e-17, 1.01580679417, -4.94887138891e-17, -9.16269111633, 1.07663880354e-15, 368.528289795, 368.528289795, 27.2820739746, 27.2820739746,  2175.7019043,  2175.7019043, 2189.80200195, 2189.80200195,          -0.5,          -0.5,          -0.5,          -0.5, 0.210764348507, -0.210764348507, 0.974671602249, -3.80402000304e-17, 0.00136846525129, -1.05150948005e-16, -1.13275241852, 8.97235531247e-17
        0.175, 0.713720798492, -4.03871000253e-17, 1.01420903206, 1.25960641695e-16, -9.0274515152, 1.07957927842e-15, 387.383300781, 387.383300781, 28.0852069855, 28.0852069855, 2176.99145508, 2176.99145508, 2194.06738281, 2194.06738281,          -0.5,          -0.5,          -0.5,          -0.5, 0.223418280482, -0.223418280482, 1.00867176056, -3.81892017285e-17, 0.00132680719253, -1.04865147177e-16, -1.17823648453, 9.51587319366e-17
         0.18, 0.714072883129, 5.13226072215e-18, 1.01270496845, 1.44058625578e-16, -8.87296581268, 1.11223991595e-15,  406.33013916,  406.33013916,  28.877620697,  28.877620697, 2177.18408203, 2177.18408203, 2197.43994141, 2197.43994141,          -0.5,          -0.5,          -0.5,          -0.5, 0.236233308911, -0.236233308911, 1.04264986515, -3.90185594804e-17, 0.00119572796393, -1.04160382678e-16, -1.22299563885, 1.00742201071e-16
        0.185, 0.714431703091, 6.84951414359e-18, 1.01132392883, 1.10729778311e-16, -8.70061779022, 1.26919162707e-15,  425.34475708,  425.34475708, 29.6609954834, 29.6609954834,  2176.3581543,  2176.3581543, 2199.99145508, 2199.99145508,          -0.5,          -0.5,          -0.5,          -0.5, 0.249177351594, -0.249177351594, 1.07660746574, -4.08523692676e-17, 0.000983225414529, -1.03559670882e-16, -1.26693701744, 1.06762924495e-16
         0.19, 0.714777708054, 1.74685206134e-16,  1.0100902319, 1.40536159658e-16, -8.51189804077, 1.30924516816e-15, 444.401550293, 444.401550293, 30.4362335205, 30.4362335205, 2173.93139648, 2173.93139648, 2201.46020508, 2201.46020508,          -0.5,          -0.5,          -0.5,          -0.5, 0.262213796377, -0.262213796377, 1.11054503918, -4.15342010116e-17, 0.000698567251675, -1.02956854739e-16, -1.30997514725, 1.13315286825e-16
        0.195, 0.715068221092, 2.26238159168e-16, 1.00896966457, 1.35752871961e-16, -8.30825805664, 1.53436238511e-15, 463.470214844, 463.470214844, 31.2019004822, 31.2019004822, 2169.77050781, 2169.77050781, 2201.80688477, 2201.80688477,          -0.5,          -0.5,          -0.5,          -0.5, 0.275303721428, -0.275303721428, 1.14446163177, -3.99960983672e-17, 0.000351434398908, -1.02286434778e-16, -1.35203182697, 1.20712756426e-16
          0.2, 0.715252518654, -4.99789871468e-17, 1.00791919231, 3.4312556922e-17, -8.09097862244, 1.52857662068e-15, 482.522857666, 482.522857666,  31.958108902,  31.958108902, 2164.04101562, 2164.04101562, 2201.13818359, 2201.13818359,          -0.5,          -0.5,          -0.5,          -0.5, 0.288406521082, -0.288406521082, 1.17835438251, -4.05136685852e-17, -5.20235880686e-05, -1.01986386592e-16, -1.39303553104, 1.28904319414e-16
        0.205, 0.71529430151, -6.21849039703e-17, 1.00696384907, -1.86598023088e-16, -7.86147403717, 1.69701176922e-15, 501.534606934, 501.534606934, 32.7063522339, 32.7063522339, 2156.89526367, 2156.89526367, 2199.55249023, 2199.55249023,          -0.5,          -0.5,          -0.5,          -0.5, 0.301480680704, -0.301480680704, 1.21221780777, -4.27959591569e-17, -0.000504610477947, -1.02604720643e-16, -1.43292176723, 1.37028913861e-16
         0.21, 0.715182483196, 2.92622189269e-17, 1.00607013702, -3.95983826495e-16, -7.62118530273, 1.91356008323e-15, 520.483459473, 520.483459473, 33.4484977722, 33.4484977722, 2148.47338867, 2148.47338867, 2197.13964844, 2197.13964844,          -0.5,          -0.5,          -0.5,          -0.5, 0.314486354589, -0.314486354589, 1.24604570866, -4.40564070482e-17, -0.000999887241051, -1.04377805447e-16, -1.47163283825, 1.46476322308e-16
        0.215, 0.71466755867, 4.56053159801e-17, 1.00521278381, -4.27965620062e-16, -7.37146568298, 1.94435481306e-15, 539.348632812, 539.348632812, 34.1873397827, 34.1873397827, 2138.24487305, 2138.24487305, 2193.65234375, 2193.65234375,          -0.5,          -0.5,          -0.5,          -0.5, 0.327386558056, -0.327386558056, 1.27982890606, -4.49128400759e-17, -0.00153314648196, -1.06650897771e-16, -1.50911831856, 1.56216235054e-16
         0.22, 0.713524341583, -1.38541759372e-17, 1.00441706181, -4.74197207718e-16, -7.11299371719, 1.81956780169e-15, 558.093933105, 558.093933105, 34.9361305237, 34.9361305237, 2124.43896484, 2124.43896484, 2188.22143555, 2188.22143555,          -0.5,          -0.5,          -0.5,          -0.5, 0.340148359537, -0.340148359537,  1.3135355711, -4.4113512289e-17, -0.00209928373806, -1.09366518487e-16, -1.54533314705, 1.65711619977e-16
        0.225, 0.712525486946, 3.68855551569e-17, 1.00343096256, -5.30690599531e-16, -6.84666872025, 1.76817555992e-15, 576.676452637, 576.676452637, 35.6833114624, 35.6833114624, 2107.31884766, 2107.31884766,  2180.9934082,  2180.9934082,          -0.5,          -0.5,          -0.5,          -0.5, 0.35274463892, -0.35274463892, 1.34715807438, -4.4468786362e-17, -0.00269752508029, -1.12116616091e-16, -1.58023548126, 1.74701789451e-16
         0.23, 0.711366891861, -1.90955223434e-18, 1.00240731239, -7.02837075869e-16, -6.57370758057, 1.89705458746e-15, 595.057800293, 595.057800293, 36.4092102051, 36.4092102051, 2087.24511719, 2087.24511719, 2172.16186523, 2172.16186523,          -0.5,          -0.5,          -0.5,          -0.5, 0.365154087543, -0.365154087543, 1.38070058823, -4.6316380287e-17, -0.00333427707665, -1.15524957557e-16, -1.61378920078, 1.83884897148e-16
        0.235, 0.709724366665, 3.04204148868e-18, 1.00141990185, -8.16562789861e-16, -6.29438209534, 2.0668054958e-15, 613.203308105, 613.203308105, 37.1150817871, 37.1150817871, 2064.55322266, 2064.55322266, 2161.90649414, 2161.90649414,          -0.5,          -0.5,          -0.5,          -0.5, 0.37735953927, -0.37735953927, 1.41414618492, -4.70136372951e-17, -0.00400528125465, -1.19623789693e-16, -1.6459621191, 1.93858696868e-16
         0.24, 0.70772600174, -9.36999344063e-18, 1.00041723251, -7.67258325491e-16, -6.00894594193, 2.08828180442e-15, 631.081542969, 631.081542969, 37.8072090149, 37.8072090149,  2039.5546875,  2039.5546875, 2150.39404297, 2150.39404297,          -0.5,          -0.5,          -0.5,          -0.5, 0.38934636116, -0.38934636116, 1.44747436047, -4.50557702683e-17, -0.0047075804323, -1.23793799067e-16, -1.6767231226, 2.04333781273e-16
        0.245, 0.705483198166, -8.04151374904e-17, 0.999376177788, -1.04719530302e-15, -5.71782016754, 2.1903450394e-15, 648.661499023, 648.661499023, 38.4865150452, 38.4865150452, 2011.83630371, 2011.83630371, 2137.42773438, 2137.42773438,          -0.5,          -0.5,          -0.5,          -0.5, 0.401101350784, -0.401101350784, 1.48067259789, -4.729752899e-17, -0.00544025516137, -1.28512593146e-16, -1.70604240894, 2.14912733093e-16
         0.25, 0.702959120274, -2.70728988239e-16, 0.998306334019, -1.34415287823e-15, -5.42135047913, 2.27746830726e-15, 665.903869629, 665.903869629,  39.149646759,  39.149646759, 1980.97827148, 1980.97827148, 2122.80664062, 2122.80664062,          -0.5,          -0.5,          -0.5,          -0.5, 0.412612497807, -0.412612497807, 1.51372945309, -5.20296572209e-17, -0.00620255758986, -1.3493806597e-16, -1.73389256001, 2.26153561752e-16
        0.255, 0.699763059616, -3.10179494818e-17,  0.9972012043, -1.52770428262e-15, -5.11983156204, 2.38282311227e-15, 682.770690918, 682.770690918, 39.7981452942, 39.7981452942, 1947.40319824, 1947.40319824, 2106.75024414, 2106.75024414,          -0.5,          -0.5,          -0.5,          -0.5, 0.42386841774, -0.42386841774, 1.54662966728, -5.82171832697e-17, -0.0069934586063, -1.42421800582e-16, -1.76024770737, 2.3723179979e-16
         0.26, 0.696196734905, -1.3843810537e-17, 0.996005356312, -1.71045248803e-15, -4.81339645386, 2.71121926823e-15, 699.227661133, 699.227661133, 40.4594535828, 40.4594535828, 1911.49987793, 1911.49987793, 2089.45996094, 2089.45996094,          -0.5,          -0.5,          -0.5,          -0.5, 0.434857010841, -0.434857010841, 1.57933008671, -6.22642008126e-17, -0.00781361944973, -1.50893030027e-16, -1.78508269787, 2.50185315834e-16
        0.265, 0.692895889282, -4.37885394961e-17, 0.994598329067, -1.73200397082e-15, -4.50306749344, 2.96036320999e-15, 715.244445801, 715.244445801, 41.1149635315, 41.1149635315, 1873.63098145, 1873.63098145, 2071.12402344, 2071.12402344,          -0.5,          -0.5,          -0.5,          -0.5, 0.445564806461, -0.445564806461, 1.61184561253, -6.49747856531e-17, -0.00866474490613, -1.59935543491e-16, -1.80837535858, 2.64542709578e-16
         0.27, 0.689455032349, -4.60424048332e-17, 0.992494404316, -1.69717164669e-15, -4.19093370438, 3.4905575541e-15, 730.794311523, 730.794311523, 41.7586517334, 41.7586517334, 1834.13415527, 1834.13415527, 2051.91723633, 2051.91723633,          -0.5,          -0.5,          -0.5,          -0.5, 0.455976963043, -0.455976963043, 1.64417648315, -6.45801278567e-17, -0.00957508012652, -1.69007623698e-16, -1.83011078835, 2.80893224787e-16
        0.275, 0.68592864275, -6.40011411326e-17, 0.990635514259, -1.85420657879e-15, -3.87779521942, 3.62949848602e-15, 745.854614258, 745.854614258, 42.3923683167, 42.3923683167, 1793.55969238, 1793.55969238, 2032.12011719, 2032.12011719,          -0.5,          -0.5,          -0.5,          -0.5, 0.466074734926, -0.466074734926, 1.67631828785, -6.79901104488e-17, -0.0105486279353, -1.78194754802e-16, -1.8502830267, 2.98724353588e-16
         0.28, 0.682415246964, -4.84054381589e-17, 0.988893985748, -1.82806100105e-15, -3.56428742409, 3.949533368e-15, 760.413879395, 760.413879395, 43.0211143494, 43.0211143494, 1753.12524414, 1753.12524414, 2012.34631348, 2012.34631348,          -0.5,          -0.5,          -0.5,          -0.5, 0.475836932659, -0.475836932659, 1.70827031136, -6.86919632724e-17, -0.0115744164214, -1.88080979255e-16, -1.86888813972, 3.17970503866e-16
        0.285, 0.678971350193, -7.22661461791e-18, 0.987183749676, -1.8908507064e-15, -3.2515399456, 4.06891588565e-15, 774.469177246, 774.469177246, 43.6484298706, 43.6484298706, 1713.03393555, 1713.03393555,  1992.7019043,  1992.7019043,          -0.5,          -0.5,          -0.5,          -0.5, 0.485240638256, -0.485240638256,   1.740036726, -7.16009523459e-17, -0.0126472655684, -1.97942097122e-16, -1.88592708111, 3.38176686581e-16
         0.29, 0.675618469715, 1.78379527098e-16, 0.985449373722, -2.08439773484e-15, -2.94088864326, 3.99256433578e-15,  788.01940918,  788.01940918, 44.2768325806, 44.2768325806, 1673.37695312, 1673.37695312, 1973.20007324, 1973.20007324,          -0.5,          -0.5,          -0.5,          -0.5, 0.494262307882, -0.494262307882, 1.77162218094, -7.51197323496e-17, -0.0137655297294, -2.08360522964e-16, -1.9014070034, 3.58159755524e-16
        0.295, 0.672143757343, 2.35296541264e-16,  0.9836140275, -2.06305229282e-15, -2.63368201256, 4.09528317426e-15, 801.065368652, 801.065368652, 44.9018058777, 44.9018058777,  1634.2364502,  1634.2364502, 1952.66943359, 1952.66943359,          -0.5,          -0.5,          -0.5,          -0.5, 0.502879083157, -0.502879083157, 1.80303192139, -7.45555554672e-17, -0.0149309206754, -2.1931955435e-16, -1.91534161568, 3.78784663683e-16
          0.3, 0.667940795422, -4.26219732956e-17, 0.981639683247, -2.20266428659e-15, -2.33066797256, 4.39330451697e-15, 813.609863281, 813.609863281, 45.5377006531, 45.5377006531, 1595.68652344, 1595.68652344, 1930.83837891, 1930.83837891,          -0.5,          -0.5,          -0.5,          -0.5, 0.511069357395, -0.511069357395, 1.83423423767, -7.61929363287e-17, -0.0161485671997, -2.30614169601e-16, -1.92775046825, 4.00214967825e-16
        0.305, 0.663986623287, -1.30871478988e-17, 0.979032695293, -2.17587475205e-15, -2.03224730492, 4.26678617026e-15, 825.657775879, 825.657775879, 46.1712112427, 46.1712112427, 1557.79345703, 1557.79345703,  1908.0032959,  1908.0032959,          -0.5,          -0.5,          -0.5,          -0.5,  0.5188113451, -0.5188113451, 1.86523199081, -7.67405365116e-17, -0.01743379049, -2.42240385017e-16, -1.93865609169, 4.21766424149e-16
         0.31, 0.65979808569, 1.73458831466e-17, 0.976522743702, -2.18280263452e-15, -1.73775219917, 4.35200107288e-15, 837.216491699, 837.216491699, 46.7966346741, 46.7966346741, 1520.61547852, 1520.61547852, 1884.42468262, 1884.42468262,          -0.5,          -0.5,          -0.5,          -0.5, 0.526069879532, -0.526069879532, 1.89602184296, -7.59558134256e-17, -0.0188068002462, -2.53880338248e-16, -1.94807934761, 4.43214436574e-16
        0.315, 0.655368804932, 6.51806411291e-17, 0.974106609821, -2.20336478284e-15, -1.44749653339, 4.23972473814e-15,  848.29510498,  848.29510498,  47.414730072,  47.414730072, 1484.30517578, 1484.30517578, 1860.38061523, 1860.38061523,          -0.5,          -0.5,          -0.5,          -0.5, 0.532809555531, -0.532809555531, 1.92659318447, -7.57956580241e-17, -0.0202538948506, -2.65523123745e-16, -1.95604038239, 4.64776613158e-16
         0.32, 0.65075135231, 4.2330352425e-17, 0.971450686455, -2.21494965246e-15, -1.16260361671, 4.03469998974e-15, 858.908630371, 858.908630371, 48.0263595581, 48.0263595581, 1449.36242676, 1449.36242676, 1836.29614258, 1836.29614258,          -0.5,          -0.5,          -0.5,          -0.5, 0.539004862309, -0.539004862309, 1.95693659782, -7.69658472756e-17, -0.021778581664, -2.77199049406e-16, -1.96256291866, 4.85378572018e-16
        0.325, 0.646000444889, -1.19027081865e-18, 0.968663334846, -2.08767215246e-15, -0.884546101093, 3.95000220073e-15,  869.07611084,  869.07611084, 48.6314926147, 48.6314926147,  1415.7989502,  1415.7989502, 1812.32800293, 1812.32800293,          -0.5,          -0.5,          -0.5,          -0.5, 0.544640481472, -0.544640481472,  1.9870455265, -7.67118234182e-17, -0.0233942717314, -2.8849163972e-16, -1.96767771244, 5.05356055837e-16
         0.33, 0.641120195389, 2.92625200207e-17, 0.965394496918, -2.11750359407e-15, -0.614049613476, 3.9470062452e-15,  878.81640625,  878.81640625, 49.2302856445, 49.2302856445, 1383.56518555, 1383.56518555, 1788.58166504, 1788.58166504,          -0.5,          -0.5,          -0.5,          -0.5, 0.549711048603, -0.549711048603, 2.01691555977, -7.5071649995e-17, -0.0251036342233, -2.99594653471e-16, -1.9714204073, 5.25356833062e-16
        0.335, 0.63611727953, -2.38965199777e-16, 0.961762905121, -2.16368340684e-15, -0.354496747255, 3.97718857021e-15, 888.148010254, 888.148010254, 49.8214454651, 49.8214454651, 1352.61303711, 1352.61303711, 1765.14428711, 1765.14428711,          -0.5,          -0.5,          -0.5,          -0.5, 0.554222524166, -0.554222524166,  2.0465400219, -7.5726075591e-17, -0.026949474588, -3.10991455307e-16, -1.9738368988, 5.45547928003e-16
         0.34, 0.63111269474, -2.18768307955e-16, 0.958692669868, -2.27289094121e-15, -0.105524659157, 3.41374183018e-15,  897.08782959,  897.08782959, 50.4072227478, 50.4072227478, 1322.89526367, 1322.89526367, 1742.08789062, 1742.08789062,          -0.5,          -0.5,          -0.5,          -0.5, 0.558194160461, -0.558194160461, 2.07591819763, -7.99878953953e-17, -0.0289132222533, -3.22752084263e-16, -1.97498250008, 5.64346606657e-16
        0.345, 0.626188755035, -9.72268505585e-18, 0.956503033638, -2.29483904718e-15, 0.134126886725, 2.81936483505e-15, 905.651245117, 905.651245117, 50.9900741577, 50.9900741577, 1294.36645508, 1294.36645508, 1719.47094727, 1719.47094727,          -0.5,          -0.5,          -0.5,          -0.5, 0.561648488045, -0.561648488045, 2.10505223274, -8.37040870152e-17, -0.030970601365, -3.34516763095e-16, -1.97490751743, 5.80799586383e-16
         0.35, 0.621405243874, 3.31887327982e-17, 0.954904317856, -2.19412704151e-15, 0.367277473211, 2.7493664558e-15, 913.851623535, 913.851623535,  51.572883606,  51.572883606, 1266.98266602, 1266.98266602, 1697.34033203, 1697.34033203,          -0.5,          -0.5,          -0.5,          -0.5, 0.564607918262, -0.564607918262, 2.13394999504, -8.18405748266e-17, -0.0330648384988, -3.46233478687e-16, -1.97365117073, 5.9513741896e-16
        0.355, 0.616771459579, 2.634883587e-17, 0.952903211117, -2.1135013634e-15, 0.593286156654, 2.29197840516e-15,  921.70111084,  921.70111084,  52.154499054,  52.154499054, 1240.70178223, 1240.70178223, 1675.73388672, 1675.73388672,          -0.5,          -0.5,          -0.5,          -0.5, 0.56709343195, -0.56709343195,  2.1626188755, -8.35834774645e-17, -0.0352044850588, -3.57492267092e-16, -1.97124636173, 6.0802899572e-16
         0.36, 0.611822068691, 3.58008235888e-17, 0.951509058475, -1.8300625399e-15, 0.81188750267, 2.08716986192e-15, 929.210388184, 929.210388184, 52.7496452332, 52.7496452332, 1215.48352051, 1215.48352051, 1654.68054199, 1654.68054199,          -0.5,          -0.5,          -0.5,          -0.5, 0.569124102592, -0.569124102592, 2.19104957581, -8.36499364636e-17, -0.0373936221004, -3.68027212904e-16, -1.96773076057, 6.18659682724e-16
        0.365, 0.607581615448, 4.07784921127e-17, 0.951499402523, -1.18440913476e-15,   1.023655653, 2.73702264466e-15, 936.387817383, 936.387817383, 53.3496284485, 53.3496284485, 1191.28967285, 1191.28967285, 1634.20227051, 1634.20227051,          -0.5,          -0.5,          -0.5,          -0.5, 0.570717692375, -0.570717692375, 2.21926617622, -7.5775309381e-17, -0.0395746082067, -3.76159496821e-16, -1.96313762665, 6.30386218604e-16
         0.37, 0.603615403175, 2.98149641733e-17, 0.951526761055, -7.58676717065e-16, 1.22425174713, 3.25766563349e-15, 943.238952637, 943.238952637, 53.9469451904, 53.9469451904, 1168.08447266, 1168.08447266, 1614.31689453, 1614.31689453,          -0.5,          -0.5,          -0.5,          -0.5, 0.571923613548, -0.571923613548, 2.24728560448, -6.82113183969e-17, -0.0417015515268, -3.81343814914e-16, -1.95751297474, 6.45586066024e-16
        0.375, 0.599990963936, -4.67916220187e-17, 0.951720297337, -7.86409740428e-16, 1.41337871552, 4.12163140464e-15, 949.768798828, 949.768798828, 54.5396003723, 54.5396003723,  1145.8470459,  1145.8470459,  1595.0447998,  1595.0447998,          -0.5,          -0.5,          -0.5,          -0.5, 0.572798728943, -0.572798728943, 2.27512574196, -6.00276897247e-17, -0.0437933430076, -3.85617519649e-16, -1.95091342926, 6.63735176287e-16
         0.38, 0.596754848957, -6.13290234993e-17, 0.95236903429, -1.32512184785e-15, 1.58784389496, 4.71084573396e-15, 955.978820801, 955.978820801, 55.1271743774, 55.1271743774, 1124.68115234, 1124.68115234, 1576.46374512, 1576.46374512,          -0.5,          -0.5,          -0.5,          -0.5, 0.573399305344, -0.573399305344, 2.30280351639, -5.46893770712e-17, -0.0458131469786, -3.9176774647e-16, -1.94340384007, 6.84833814091e-16
        0.385, 0.594026446342, -9.76817519189e-17, 0.952623009682, -2.18308639056e-15, 1.74824142456, 4.64776422576e-15, 961.870849609, 961.870849609, 55.7094192505, 55.7094192505, 1104.57043457, 1104.57043457, 1558.58764648, 1558.58764648,          -0.5,          -0.5,          -0.5,          -0.5, 0.573781490326, -0.573781490326, 2.33034276962, -5.53283807118e-17, -0.0477765277028, -4.01343745106e-16, -1.93505775928, 7.08614158206e-16
         0.39, 0.591761946678, -2.98331303831e-16, 0.953004181385, -2.86646770197e-15, 1.89511859417, 4.70150041945e-15,  967.44543457,  967.44543457, 56.2865409851, 56.2865409851, 1085.46484375, 1085.46484375, 1541.41015625, 1541.41015625,          -0.5,          -0.5,          -0.5,          -0.5, 0.573966324329, -0.573966324329,  2.3577682972, -5.48286974474e-17, -0.0496907569468, -4.14669108614e-16, -1.92594337463, 7.32380738036e-16
        0.395, 0.589924871922, -8.44731069046e-18, 0.953260302544, -3.1739980483e-15, 2.02867889404, 4.53236191593e-15, 972.703308105, 972.703308105, 56.8595848083, 56.8595848083,  1067.3190918,  1067.3190918, 1524.92407227, 1524.92407227,          -0.5,          -0.5,          -0.5,          -0.5, 0.573952913284, -0.573952913284, 2.38510227203, -5.5581501288e-17, -0.0515515394509, -4.30876289966e-16, -1.9161285162, 7.54234876289e-16
          0.4, 0.588396847248, 1.50381369188e-17, 0.953805029392, -3.30330334517e-15, 2.15021491051, 4.3311310281e-15, 977.647583008, 977.647583008, 57.4298286438, 57.4298286438, 1050.09179688, 1050.09179688, 1509.12133789, 1509.12133789,          -0.5,          -0.5,          -0.5,          -0.5, 0.573713183403, -0.573713183403, 2.41236448288, -5.45630235783e-17, -0.053368140012, -4.47816525395e-16, -1.90567576885, 7.76605916399e-16
        0.405, 0.587039589882, 4.76303236028e-17, 0.954989671707, -3.41871814874e-15,  2.2588083744, 3.73250743328e-15, 982.283508301, 982.283508301, 57.9992408752, 57.9992408752, 1033.74499512, 1033.74499512, 1493.99328613, 1493.99328613,          -0.5,          -0.5,          -0.5,          -0.5, 0.573208928108, -0.573208928108, 2.43956613541, -5.32016563436e-17, -0.0551126673818, -4.65265086471e-16, -1.89464735985, 7.96530248901e-16
         0.41, 0.585772633553, 3.10497893179e-17, 0.956550598145, -3.47793401033e-15, 2.35377168655, 3.41648452286e-15, 986.619750977, 986.619750977, 58.5698814392, 58.5698814392, 1018.24298096, 1018.24298096, 1479.52929688, 1479.52929688,          -0.5,          -0.5,          -0.5,          -0.5, 0.572413504124, -0.572413504124, 2.46671438217, -5.09922536187e-17, -0.0567609518766, -4.83029008501e-16, -1.88310992718, 8.14262248377e-16
        0.415, 0.584522366524, 3.6352116306e-17, 0.95833003521, -3.59218117898e-15, 2.43527436256, 3.12915061836e-15, 990.668518066, 990.668518066, 59.1434516907, 59.1434516907, 1003.55206299, 1003.55206299, 1465.71765137, 1465.71765137,          -0.5,          -0.5,          -0.5,          -0.5, 0.571308493614, -0.571308493614,  2.4938120842, -4.9729820494e-17, -0.0583041831851, -5.01358060326e-16, -1.87113142014, 8.3035158627e-16
         0.42, 0.583218693733, 8.02978631319e-17, 0.960309207439, -3.80637124738e-15, 2.50326418877, 3.18975688453e-15, 994.444396973, 994.444396973, 59.7213554382, 59.7213554382, 989.639343262, 989.639343262, 1452.54431152, 1452.54431152,          -0.5,          -0.5,          -0.5,          -0.5, 0.569884061813, -0.569884061813, 2.52085828781, -4.65762440395e-17, -0.0597328133881, -5.20299622851e-16, -1.85877919197, 8.46372420374e-16
        0.425, 0.581811785698, 3.86677389477e-17, 0.96252900362, -4.06819251951e-15, 2.55761361122, 3.69761814619e-15, 997.963684082, 997.963684082, 60.3046379089, 60.3046379089, 976.472900391, 976.472900391, 1439.99377441, 1439.99377441,          -0.5,          -0.5,          -0.5,          -0.5, 0.56814467907, -0.56814467907, 2.54784965515, -3.82163531049e-17, -0.0610393956304, -5.40332481449e-16, -1.84612095356, 8.63849674691e-16
         0.43, 0.580309271812, -2.59850649976e-16, 0.964581668377, -4.44519756697e-15, 2.59841823578, 3.50952516289e-15, 1001.24389648, 1001.24389648, 60.8938941956, 60.8938941956, 964.020935059, 964.020935059, 1428.04833984, 1428.04833984,          -0.5,          -0.5,          -0.5,          -0.5, 0.566111981869, -0.566111981869, 2.57478117943, -3.52472445444e-17, -0.062223508954, -5.62085187507e-16, -1.83322513103, 8.81977556191e-16
        0.435, 0.578717648983, 4.86352322417e-17, 0.966340363026, -4.84051207862e-15, 2.62656545639, 3.19884364223e-15, 1004.30291748, 1004.30291748, 61.4890823364, 61.4890823364,  952.25189209,  952.25189209, 1416.68896484, 1416.68896484,          -0.5,          -0.5,          -0.5,          -0.5, 0.563815355301, -0.563815355301, 2.60164833069, -3.39594136662e-17, -0.0633004456758, -5.85699513164e-16, -1.82015728951, 8.98303957431e-16
         0.44, 0.577046096325, 2.64597723706e-17, 0.967756867409, -5.04493501011e-15, 2.64298963547, 2.71564459186e-15,  1007.1585083,  1007.1585083, 62.0897598267, 62.0897598267, 941.134399414, 941.134399414, 1405.89501953, 1405.89501953,          -0.5,          -0.5,          -0.5,          -0.5, 0.56128680706, -0.56128680706,  2.6284468174, -3.31649066878e-17, -0.0642885640264, -6.10967247135e-16, -1.80697846413, 9.12995426263e-16
        0.445, 0.575308680534, 5.7296829033e-17, 0.968809366226, -5.17159947001e-15, 2.64863991737, 2.0723287859e-15, 1009.82745361, 1009.82745361, 62.6951599121, 62.6951599121, 930.637390137, 930.637390137, 1395.64489746, 1395.64489746,          -0.5,          -0.5,          -0.5,          -0.5, 0.558559536934, -0.558559536934, 2.65517354012, -3.54983170214e-17, -0.0652077794075, -6.36946329962e-16, -1.79374492168, 9.25337437459e-16
         0.45, 0.57352232933, -1.64573234165e-16, 0.969500780106, -4.98933153229e-15,  2.6444644928, 2.04476082808e-15, 1012.32574463, 1012.32574463, 63.3042984009, 63.3042984009, 920.730163574, 920.730163574, 1385.91625977, 1385.91625977,          -0.5,          -0.5,          -0.5,          -0.5, 0.555666804314, -0.555666804314, 2.68182516098, -3.16140092137e-17, -0.0660783573985, -6.62483526289e-16, -1.78050804138, 9.35425917498e-16
        0.455, 0.571705281734, 8.64473554162e-17, 0.969855606556, -4.82588466665e-15, 2.63140249252, 1.77013104136e-15, 1014.66821289, 1014.66821289, 63.9160652161, 63.9160652161, 911.382324219, 911.382324219, 1376.68615723, 1376.68615723,          -0.5,          -0.5,          -0.5,          -0.5, 0.552640616894, -0.552640616894, 2.70839977264, -2.9176456841e-17, -0.0669196695089, -6.87319485214e-16, -1.76731467247, 9.44523368989e-16
         0.46, 0.569875478745, 1.69037269851e-17, 0.969912707806, -4.61974776399e-15, 2.61037445068, 1.69111705518e-15, 1016.86853027, 1016.86853027, 64.5293426514, 64.5293426514,  902.56427002,  902.56427002,  1367.9317627,  1367.9317627,          -0.5,          -0.5,          -0.5,          -0.5, 0.54951107502, -0.54951107502, 2.73489618301, -2.6502755984e-17, -0.0677493810654, -7.11319634379e-16, -1.75420701504, 9.52686754897e-16
        0.465, 0.568049788475, -2.5691734841e-16, 0.969721317291, -4.55264581391e-15, 2.58227515221, 1.69796118727e-15, 1018.93896484, 1018.93896484, 65.1430969238, 65.1430969238, 894.247131348, 894.247131348, 1359.63000488, 1359.63000488,          -0.5,          -0.5,          -0.5,          -0.5, 0.546305835247, -0.546305835247, 2.76131439209, -2.30259041112e-17, -0.0685828104615, -7.34479473921e-16, -1.7412225008, 9.61077463273e-16
         0.47, 0.566050887108, 2.67853696849e-18, 0.969338059425, -4.39787764786e-15, 2.54804635048, 1.54629474999e-15,   1020.890625,   1020.890625, 65.7617492676, 65.7617492676, 886.402893066, 886.402893066, 1351.75805664, 1351.75805664,          -0.5,          -0.5,          -0.5,          -0.5, 0.54304933548, -0.54304933548, 2.78764796257, -2.20088888568e-17, -0.069432489574, -7.57198485753e-16, -1.72839415073, 9.68665396172e-16
        0.475, 0.564269661903, 2.22302440431e-17, 0.968815386295, -4.22103283858e-15, 2.50846791267, 1.07489571561e-15, 1022.73321533, 1022.73321533, 66.3820266724, 66.3820266724, 879.004577637, 879.004577637, 1344.29321289, 1344.29321289,          -0.5,          -0.5,          -0.5,          -0.5, 0.53976303339, -0.53976303339, 2.81390118599, -2.33493846703e-17, -0.0703080892563, -7.78995661041e-16, -1.71575069427, 9.75232124975e-16
         0.48, 0.562534987926, -2.35798620043e-16, 0.968205213547, -3.96083109345e-15, 2.46427607536, 1.21861158402e-15, 1024.47558594, 1024.47558594, 67.0008010864, 67.0008010864, 872.026367188, 872.026367188, 1337.21398926, 1337.21398926,          -0.5,          -0.5,          -0.5,          -0.5, 0.536465227604, -0.536465227604, 2.84007906914, -2.23541226116e-17, -0.0712165609002, -7.99516834133e-16, -1.70331704617, 9.81057699949e-16
        0.485, 0.560851573944, 2.69149192383e-16, 0.967553079128, -3.62527390919e-15, 2.41619038582, 1.25241624543e-15, 1026.12524414, 1026.12524414, 67.6177749634, 67.6177749634,  865.44354248,  865.44354248, 1330.49951172, 1330.49951172,          -0.5,          -0.5,          -0.5,          -0.5, 0.533171057701, -0.533171057701, 2.86618351936, -1.96475115467e-17, -0.0721623003483, -8.18632938384e-16, -1.69111430645, 9.86287175486e-16
         0.49, 0.559226095676, -5.46411557502e-17, 0.966896593571, -3.51251434216e-15, 2.36486649513, 1.72612916206e-15, 1027.68896484, 1027.68896484, 68.2328491211, 68.2328491211,  859.23260498,  859.23260498,  1324.1295166,  1324.1295166,          -0.5,          -0.5,          -0.5,          -0.5, 0.529892921448, -0.529892921448, 2.89221715927, -1.54313918169e-17, -0.0731475204229, -8.36425712475e-16, -1.67916035652, 9.94282107717e-16
        0.495, 0.557663559914, -3.38157410792e-18, 0.966264545918, -3.51380987905e-15, 2.31089019775, 2.01149742072e-15, 1029.17260742, 1029.17260742, 68.8460540771, 68.8460540771, 853.371276855, 853.371276855, 1318.08508301, 1318.08508301,          -0.5,          -0.5,          -0.5,          -0.5, 0.526640474796, -0.526640474796, 2.91818237305, -1.36455006026e-17, -0.074172668159, -8.5430546626e-16, -1.66746985912, 1.00298981817e-15
          0.5, 0.556167125702, -6.9484369212e-17, 0.965677261353, -3.62875055593e-15, 2.25477361679, 1.85295127596e-15, 1030.58129883, 1030.58129883, 69.4575500488, 69.4575500488, 847.838623047, 847.838623047, 1312.34765625, 1312.34765625,          -0.5,          -0.5,          -0.5,          -0.5, 0.523421108723, -0.523421108723, 2.94408249855, -1.48620500187e-17, -0.0752368718386, -8.72442188666e-16, -1.6560549736, 1.01269459229e-15
        0.505, 0.554738402367, -3.50047184975e-17, 0.965147078037, -3.82347623072e-15, 2.19695281982, 1.95790924604e-15, 1031.91955566, 1031.91955566,  70.067565918,  70.067565918, 842.614868164, 842.614868164, 1306.90002441, 1306.90002441,          -0.5,          -0.5,          -0.5,          -0.5, 0.520240187645, -0.520240187645,  2.9699203968, -1.45926819609e-17, -0.0763383433223, -8.91350452208e-16, -1.64492499828, 1.02228205234e-15
         0.51, 0.55337792635, -7.17219357823e-18, 0.964680075645, -3.99747077413e-15, 2.13779067993, 1.8404666456e-15, 1033.19152832, 1033.19152832, 70.6763381958, 70.6763381958, 837.681396484, 837.681396484, 1301.72570801, 1301.72570801,          -0.5,          -0.5,          -0.5,          -0.5, 0.517101585865, -0.517101585865, 2.99569892883, -1.76537878948e-17, -0.0774747654796, -9.11264832073e-16, -1.63408756256, 1.03188825299e-15
        0.515, 0.552085220814, 9.2223206909e-17, 0.964277267456, -4.03531959434e-15, 2.07757997513, 2.07388584421e-15, 1034.40087891, 1034.40087891, 71.2841262817, 71.2841262817, 833.020812988, 833.020812988, 1296.80895996, 1296.80895996,          -0.5,          -0.5,          -0.5,          -0.5, 0.514007627964, -0.514007627964,  3.0214214325, -1.70787021544e-17, -0.0786435753107, -9.31702254783e-16, -1.62354874611, 1.04099216311e-15
         0.52, 0.550858974457, -6.3003580339e-18, 0.963936507702, -4.28118827146e-15, 2.01655101776, 1.9108881178e-15, 1035.55078125, 1035.55078125, 71.8911514282, 71.8911514282, 828.616882324, 828.616882324, 1292.13513184, 1292.13513184,          -0.5,          -0.5,          -0.5,          -0.5, 0.510959804058, -0.510959804058, 3.04709100723, -1.88752606899e-17, -0.0798421874642, -9.5284853819e-16, -1.61331307888, 1.05090954249e-15
        0.525, 0.549697399139, -2.02049651051e-17, 0.96365404129, -4.51995838896e-15, 1.95488119125, 2.11804336582e-15, 1036.64428711, 1036.64428711, 72.4975662231, 72.4975662231, 824.454223633, 824.454223633, 1287.69055176, 1287.69055176,          -0.5,          -0.5,          -0.5,          -0.5, 0.507958650589, -0.507958650589, 3.07271051407, -1.973719116e-17, -0.0810680985451, -9.75130269263e-16, -1.60338425636, 1.06113651242e-15
         0.53, 0.548598229885, -3.75285458081e-17, 0.963425517082, -4.87469239914e-15, 1.89270496368, 2.03117590191e-15, 1037.68432617, 1037.68432617, 73.1034927368, 73.1034927368, 820.518737793, 820.518737793,  1283.4621582,  1283.4621582,          -0.5,          -0.5,          -0.5,          -0.5, 0.505004286766, -0.505004286766, 3.09828257561, -2.26526603665e-17, -0.0823190063238, -9.98810557611e-16, -1.59376513958, 1.07140848097e-15
        0.535, 0.547558784485, -9.53415851741e-17, 0.963247299194, -5.12782650136e-15, 1.83012568951, 2.64087529954e-15, 1038.67333984, 1038.67333984, 73.7089614868, 73.7089614868, 816.796936035, 816.796936035, 1279.43762207, 1279.43762207,          -0.5,          -0.5,          -0.5,          -0.5, 0.502096295357, -0.502096295357, 3.12381005287, -1.97726375036e-17, -0.0835927352309, -1.02384673395e-15, -1.5844578743, 1.08304067856e-15
         0.54, 0.546576201916, -4.2718733575e-17, 0.963116824627, -5.64318548691e-15, 1.76722681522, 2.32335864652e-15,  1039.6138916,  1039.6138916, 74.3139648438, 74.3139648438, 813.276489258, 813.276489258, 1275.60559082, 1275.60559082,          -0.5,          -0.5,          -0.5,          -0.5, 0.499234169722, -0.499234169722, 3.14929556847, -2.5067051682e-17, -0.0848872810602, -1.05134841144e-15, -1.57546436787, 1.0954681342e-15
        0.545, 0.54564756155, -4.79547703088e-17, 0.963033020496, -5.81837434678e-15, 1.70408213139, 2.34537472688e-15, 1040.50830078, 1040.50830078, 74.9184341431, 74.9184341431, 809.945678711, 809.945678711, 1271.95507812, 1271.95507812,          -0.5,          -0.5,          -0.5,          -0.5, 0.496417105198, -0.496417105198,   3.174741745, -2.62084434677e-17, -0.0862006768584, -1.08034340802e-15, -1.5667860508, 1.10693791322e-15
         0.55, 0.544769704342, -4.24216963257e-17, 0.96299636364, -6.07429349333e-15, 1.64076507092, 2.43648942574e-15, 1041.35876465, 1041.35876465,  75.522277832,  75.522277832, 806.793579102, 806.793579102, 1268.47619629, 1268.47619629,          -0.5,          -0.5,          -0.5,          -0.5, 0.493644356728, -0.493644356728, 3.20015048981, -2.81734507175e-17, -0.0875309631228, -1.11053706209e-15, -1.55842387676, 1.11856026405e-15
        0.555, 0.543939590454, -3.11649917544e-16, 0.963008344173, -6.36295003977e-15, 1.57735526562, 2.68326231053e-15, 1042.16748047, 1042.16748047, 76.1253738403, 76.1253738403, 803.809936523, 803.809936523, 1265.15930176, 1265.15930176,          -0.5,          -0.5,          -0.5,          -0.5, 0.49091514945, -0.49091514945, 3.22552394867, -2.90230743944e-17, -0.0888761207461, -1.14203747624e-15, -1.55037844181, 1.13062328376e-15
         0.56, 0.543154120445, -8.82280701342e-17, 0.963071286678, -6.7735683192e-15, 1.51394319534, 3.09368810172e-15, 1042.93652344, 1042.93652344, 76.7276229858, 76.7276229858, 800.985290527, 800.985290527,  1261.9954834,  1261.9954834,          -0.5,          -0.5,          -0.5,          -0.5, 0.48822876811, -0.48822876811, 3.25086450577, -2.9944408013e-17, -0.0902339965105, -1.17510193674e-15, -1.54265022278, 1.14472511179e-15
        0.565, 0.542410492897, -1.02247438176e-16, 0.963187813759, -7.21177996743e-15, 1.45063328743, 3.381312115e-15, 1043.66772461, 1043.66772461,  77.328918457,  77.328918457, 798.310546875, 798.310546875, 1258.97644043, 1258.97644043,          -0.5,          -0.5,          -0.5,          -0.5, 0.485584497452, -0.485584497452, 3.27617359161, -3.16656451363e-17, -0.0916022881866, -1.21067975574e-15, -1.53523886204, 1.15999595116e-15
         0.57, 0.541705906391, -7.98200571403e-17, 0.963360249996, -7.7561595723e-15, 1.38754367828, 3.23137711894e-15, 1044.36315918, 1044.36315918, 77.9291687012, 77.9291687012,  795.77734375,  795.77734375, 1256.09399414, 1256.09399414,          -0.5,          -0.5,          -0.5,          -0.5, 0.482981801033, -0.482981801033, 3.30145311356, -3.78561225656e-17, -0.0929785370827, -1.24878363875e-15, -1.52814352512, 1.17611541166e-15
        0.575, 0.541063427925, -2.890861245e-16, 0.964015841484, -8.14190091757e-15, 1.32520270348, 3.46426035746e-15, 1045.02441406, 1045.02441406, 78.5286178589, 78.5286178589, 793.377746582, 793.377746582, 1253.34094238, 1253.34094238,          -0.5,          -0.5,          -0.5,          -0.5, 0.480420082808, -0.480420082808, 3.32670497894, -3.95922125439e-17, -0.0943522825837, -1.28898202248e-15, -1.5213624239, 1.19301191901e-15
         0.58, 0.540462076664, -8.40082843399e-17, 0.964735150337, -8.32803471367e-15, 1.26455891132, 3.54482631975e-15, 1045.65319824, 1045.65319824, 79.1277008057, 79.1277008057, 791.104248047, 791.104248047, 1250.71008301, 1250.71008301,          -0.5,          -0.5,          -0.5,          -0.5, 0.477898478508, -0.477898478508,  3.3519320488, -4.42669046617e-17, -0.095704190433, -1.33060183338e-15, -1.51488876343, 1.21010472625e-15
        0.585, 0.539893865585, -2.81704047076e-16, 0.965398788452, -8.55558503275e-15, 1.20542025566, 3.71215746673e-15, 1046.25109863, 1046.25109863,  79.725769043,  79.725769043, 788.949951172, 788.949951172, 1248.19482422, 1248.19482422,          -0.5,          -0.5,          -0.5,          -0.5, 0.475416362286, -0.475416362286, 3.37713527679, -4.49223989751e-17, -0.0970373302698, -1.37325163634e-15, -1.50871443748, 1.22823959577e-15
         0.59, 0.539358317852, -3.35527352811e-17, 0.966061592102, -8.7502221926e-15, 1.14770925045, 3.59225910601e-15, 1046.81970215, 1046.81970215, 80.3223190308, 80.3223190308, 786.908203125, 786.908203125, 1245.78894043, 1245.78894043,          -0.5,          -0.5,          -0.5,          -0.5, 0.472973197699, -0.472973197699, 3.40231633186, -4.78406590889e-17, -0.0983528569341, -1.41705530993e-15, -1.5028321743, 1.24604412244e-15
        0.595, 0.538854300976, -2.62516471111e-17, 0.966763675213, -8.82502367217e-15, 1.09147369862, 3.75929527376e-15,  1047.3605957,  1047.3605957, 80.9170379639, 80.9170379639, 784.972839355, 784.972839355, 1243.48669434, 1243.48669434,          -0.5,          -0.5,          -0.5,          -0.5, 0.470568567514, -0.470568567514,  3.4274764061, -4.76211749852e-17, -0.0996495932341, -1.461349945e-15, -1.49723494053, 1.26436862147e-15
          0.6, 0.538380086422, -4.7816422697e-17, 0.967530786991, -8.90718586806e-15, 1.03684389591, 3.64472602083e-15, 1047.87487793, 1047.87487793, 81.5097961426, 81.5097961426, 783.138122559, 783.138122559,  1241.2824707,  1241.2824707,          -0.5,          -0.5,          -0.5,          -0.5, 0.468202054501, -0.468202054501, 3.45261693001, -5.02703102324e-17, -0.100924700499, -1.50606216731e-15, -1.49191486835, 1.28344115646e-15
        0.605, 0.53793400526, -2.43177120738e-17, 0.968375623226, -8.80268148412e-15, 0.98399490118, 3.67512052759e-15,  1048.3638916,  1048.3638916, 82.1006317139, 82.1006317139,   781.3984375,   781.3984375, 1239.17114258, 1239.17114258,          -0.5,          -0.5,          -0.5,          -0.5, 0.465873122215, -0.465873122215, 3.47773885727, -4.99147085958e-17, -0.102174349129, -1.55078836566e-15, -1.48686361313, 1.3017615262e-15
         0.61, 0.537514090538, -3.51452829534e-17, 0.969299912453, -8.84318151746e-15, 0.933115124702, 3.2867603682e-15, 1048.82885742, 1048.82885742, 82.6896591187, 82.6896591187, 779.748779297, 779.748779297, 1237.14782715, 1237.14782715,          -0.5,          -0.5,          -0.5,          -0.5, 0.463581204414, -0.463581204414, 3.50284361839, -5.19721847119e-17, -0.103394314647, -1.59547824747e-15, -1.48207175732, 1.31863516366e-15
        0.615, 0.537155330181, 1.68764928906e-17, 0.970889091492, -8.8420744454e-15, 0.885171711445, 3.15316844934e-15, 1049.27050781, 1049.27050781,  83.277671814,  83.277671814, 778.184265137, 778.184265137, 1235.20800781, 1235.20800781,          -0.5,          -0.5,          -0.5,          -0.5, 0.461325466633, -0.461325466633, 3.52793264389, -5.33080350791e-17, -0.104564704001, -1.64027167906e-15, -1.47752761841, 1.33436075384e-15
         0.62, 0.536812186241, -7.37472810498e-20, 0.972283601761, -8.84519322071e-15, 0.840628743172, 3.43958353485e-15, 1049.68981934, 1049.68981934, 83.8648757935, 83.8648757935, 776.700378418, 776.700378418, 1233.34729004, 1233.34729004,          -0.5,          -0.5,          -0.5,          -0.5, 0.459104806185, -0.459104806185, 3.55300807953, -5.04814662817e-17, -0.105674602091, -1.68488373972e-15, -1.4732145071, 1.35097826972e-15
        0.625, 0.53648930788, -1.25656452642e-17, 0.973601937294, -8.93938328445e-15, 0.799100995064, 3.0356771445e-15, 1050.08789062, 1050.08789062, 84.4507598877, 84.4507598877,  775.29296875,  775.29296875, 1231.56164551, 1231.56164551,          -0.5,          -0.5,          -0.5,          -0.5, 0.456918269396, -0.456918269396, 3.57807064056, -5.26664870309e-17, -0.106729984283, -1.72987929455e-15, -1.46911644936, 1.36657521677e-15
         0.63, 0.536187469959, 4.63779531302e-18, 0.974911808968, -8.8360766051e-15, 0.76046025753, 3.21216344708e-15, 1050.46533203, 1050.46533203, 85.0351333618, 85.0351333618, 773.958068848, 773.958068848, 1229.84716797, 1229.84716797,          -0.5,          -0.5,          -0.5,          -0.5, 0.454765021801, -0.454765021801, 3.60312080383, -5.01375543615e-17, -0.107731975615, -1.77482423916e-15, -1.46521878242, 1.3814284689e-15
        0.635, 0.535906136036, 2.77471698062e-17, 0.976242601871, -8.85475791675e-15, 0.724694311619, 2.83111508785e-15, 1050.82299805, 1050.82299805, 85.6180114746, 85.6180114746, 772.691955566, 772.691955566, 1228.20031738, 1228.20031738,          -0.5,          -0.5,          -0.5,          -0.5, 0.452644199133, -0.452644199133, 3.62815952301, -5.48181558577e-17, -0.108679413795, -1.81930268038e-15, -1.46150720119, 1.39671773123e-15
         0.64, 0.535643696785, 3.25872434527e-17, 0.977600574493, -8.6805206984e-15, 0.691828370094, 3.21570722118e-15, 1051.16149902, 1051.16149902, 86.1995391846, 86.1995391846, 771.491149902, 771.491149902, 1226.61791992, 1226.61791992,          -0.5,          -0.5,          -0.5,          -0.5, 0.45055487752, -0.45055487752, 3.65318799019, -5.11866807673e-17, -0.109570287168, -1.86333484111e-15, -1.45796716213, 1.41241452229e-15
        0.645, 0.535398423672, -2.45134167202e-16, 0.978978872299, -8.615004394e-15, 0.661880791187, 2.89939991944e-15, 1051.48156738, 1051.48156738,  86.779914856,  86.779914856, 770.352416992, 770.352416992, 1225.09667969, 1225.09667969,          -0.5,          -0.5,          -0.5,          -0.5, 0.448496073484, -0.448496073484, 3.67820668221, -5.27921059874e-17, -0.110402598977, -1.90705063503e-15, -1.4545841217, 1.42770971386e-15
         0.65, 0.535168290138, 6.44404840529e-18, 0.980363607407, -8.47097406462e-15, 0.634840011597, 2.80678216061e-15, 1051.78356934, 1051.78356934, 87.3593826294, 87.3593826294, 769.272827148, 769.272827148, 1223.63378906, 1223.63378906,          -0.5,          -0.5,          -0.5,          -0.5, 0.446466773748, -0.446466773748,  3.7032160759, -5.17549571569e-17, -0.111174881458, -1.95000473458e-15, -1.45134365559, 1.44202753528e-15
        0.655, 0.534951329231, -3.18735222417e-17, 0.981738269329, -8.31862756576e-15, 0.610654830933, 2.74777593968e-15, 1052.06811523, 1052.06811523, 87.9381866455, 87.9381866455, 768.249450684, 768.249450684, 1222.22631836, 1222.22631836,          -0.5,          -0.5,          -0.5,          -0.5, 0.444465905428, -0.444465905428, 3.72821736336, -4.96275346482e-17, -0.111886389554, -1.99231106568e-15, -1.44823110104, 1.45569261194e-15
         0.66, 0.534745633602, -2.53534881154e-16, 0.983085870743, -8.21560464245e-15, 0.589232563972, 2.55214605722e-15, 1052.33569336, 1052.33569336, 88.5165557861, 88.5165557861, 767.279785156, 767.279785156, 1220.87182617, 1220.87182617,          -0.5,          -0.5,          -0.5,          -0.5, 0.442492544651, -0.442492544651, 3.75321054459, -5.03617964082e-17, -0.112537242472, -2.03399122767e-15, -1.44523262978, 1.46914021289e-15
        0.665, 0.534546554089, -2.03140510373e-16, 0.984341859818, -7.94805996869e-15, 0.570435881615, 2.6063974587e-15, 1052.58691406, 1052.58691406, 89.0947036743, 89.0947036743, 766.361206055, 766.361206055, 1219.56774902, 1219.56774902,          -0.5,          -0.5,          -0.5,          -0.5, 0.440545618534, -0.440545618534, 3.77819633484, -4.97734195297e-17, -0.113128475845, -2.07493298869e-15, -1.44233453274, 1.48142801398e-15
         0.67, 0.534342586994, 2.45140228781e-16, 0.985348165035, -7.76217520029e-15, 0.553663849831, 2.19553586906e-15, 1052.82226562, 1052.82226562, 89.6725082397, 89.6725082397, 765.491577148, 765.491577148, 1218.31176758, 1218.31176758,          -0.5,          -0.5,          -0.5,          -0.5, 0.438624411821, -0.438624411821, 3.80317425728, -5.1704743985e-17, -0.113670490682, -2.11429185689e-15, -1.4395250082, 1.49344963496e-15
